     3.03           OBSERVATION DATA    M (MIXED)           RINEX VERSION / TYPE
cnvtToRINEX 3.05.0  convertToRINEX OPR  27-Apr-18 09:14 UTC PGM / RUN BY / DATE 
gfzrnx-1.10-7329    FILE CONVERSION     20180626 074858 UTC COMMENT             
----------------------------------------------------------- COMMENT             
TRACK                                                       MARKER NAME         
TRACK                                                       MARKER NUMBER       
GEODETIC                                                    MARKER TYPE         
lugarcia            UPV                                     OBSERVER / AGENCY   
5042451433          TRIMBLE R8 GNSS3    4.71                REC # / TYPE / VERS 
                    TRM60158.00     NONE                    ANT # / TYPE        
  4929491.0860   -29182.9348  4033729.8557                  APPROX POSITION XYZ 
        0.0000        0.0000        0.0000                  ANTENNA: DELTA H/E/N
     0                                                      RCV CLOCK OFFS APPL 
 18 R01  1 R02 -4 R04  6 R06 -4 R07  5 R08  6 R09 -2 R10 -7 GLONASS SLOT / FRQ #
    R11  0 R12 -1 R16 -1 R17  4 R19  3 R20  2 R21  4 R22 -3 GLONASS SLOT / FRQ #
    R23  3 R24  2                                           GLONASS SLOT / FRQ #
G L2X -0.25000                                              SYS / PHASE SHIFT   
R L2P  0.00000                                              SYS / PHASE SHIFT   
    18                  GPS                                 LEAP SECONDS        
DBHZ                                                        SIGNAL STRENGTH UNIT
 C1C    0.000 C2P    0.000                                  GLONASS COD/PHS/BIS 
E    6 C1X C8X L1X L8X S1X S8X                              SYS / # / OBS TYPES 
G   12 C1C C2W C2X C5X L1C L2W L2X L5X S1C S2W S2X S5X      SYS / # / OBS TYPES 
R    6 C1C C2P L1C L2P S1C S2P                              SYS / # / OBS TYPES 
    48                                                      # OF SATELLITES     
   E01    62    62    62    62    62    62                  PRN / # OF OBS      
   E03   174   174   174   174   174   174                  PRN / # OF OBS      
   E04    51    51    51    51    51    51                  PRN / # OF OBS      
   E07   809   809   809   809   809   809                  PRN / # OF OBS      
   E08   433   433   433   433   433   433                  PRN / # OF OBS      
   E12   385   385   385   385   385   385                  PRN / # OF OBS      
   E19   427   427   427   427   427   427                  PRN / # OF OBS      
   E26   735   735   735   735   735   735                  PRN / # OF OBS      
   E30   339   339   339   339   339   339                  PRN / # OF OBS      
   G01   525   509   520   521   521   509   520   521   525PRN / # OF OBS      
         509   520   521                                    PRN / # OF OBS      
   G02   468   468               468   468               468PRN / # OF OBS      
         468                                                PRN / # OF OBS      
   G03   592   575   587   588   588   575   587   588   592PRN / # OF OBS      
         575   587   588                                    PRN / # OF OBS      
   G05   303   302   302         302   302   302         303PRN / # OF OBS      
         302   302                                          PRN / # OF OBS      
   G06   629   628   628   628   628   628   628   628   629PRN / # OF OBS      
         628   628   628                                    PRN / # OF OBS      
   G07   492   492   492         492   492   492         492PRN / # OF OBS      
         492   492                                          PRN / # OF OBS      
   G08   237   217   232   232   232   217   232   232   237PRN / # OF OBS      
         217   232   232                                    PRN / # OF OBS      
   G09   733   733   733   733   733   733   733   733   733PRN / # OF OBS      
         733   733   733                                    PRN / # OF OBS      
   G11   397   387               394   387               397PRN / # OF OBS      
         387                                                PRN / # OF OBS      
   G13   181   179               179   179               181PRN / # OF OBS      
         179                                                PRN / # OF OBS      
   G14   307   297               306   297               307PRN / # OF OBS      
         297                                                PRN / # OF OBS      
   G17   522   522   522         522   522   522         522PRN / # OF OBS      
         522   522                                          PRN / # OF OBS      
   G18   398   375               395   375               398PRN / # OF OBS      
         375                                                PRN / # OF OBS      
   G19   479   479               479   479               479PRN / # OF OBS      
         479                                                PRN / # OF OBS      
   G22   510   502               509   502               510PRN / # OF OBS      
         502                                                PRN / # OF OBS      
   G23   653   629               651   629               653PRN / # OF OBS      
         629                                                PRN / # OF OBS      
   G27    51    41    47    48    48    41    47    48    51PRN / # OF OBS      
          41    47    48                                    PRN / # OF OBS      
   G28   327   314               326   314               327PRN / # OF OBS      
         314                                                PRN / # OF OBS      
   G30   391   391   391   391   391   391   391   391   391PRN / # OF OBS      
         391   391   391                                    PRN / # OF OBS      
   G31    15           8          10           8          15PRN / # OF OBS      
                 8                                          PRN / # OF OBS      
   G32   175   175   175   175   175   175   175   175   175PRN / # OF OBS      
         175   175   175                                    PRN / # OF OBS      
   R01   370   370   370   370   370   370                  PRN / # OF OBS      
   R02    72    72    72    72    72    72                  PRN / # OF OBS      
   R04   100   100   100   100   100   100                  PRN / # OF OBS      
   R06   501         501         501                        PRN / # OF OBS      
   R07   681   679   681   679   681   679                  PRN / # OF OBS      
   R08   618   618   618   618   618   618                  PRN / # OF OBS      
   R09   283   281   283   281   283   281                  PRN / # OF OBS      
   R10   366   366   366   366   366   366                  PRN / # OF OBS      
   R11   248   248   248   248   248   248                  PRN / # OF OBS      
   R12    96          96          96                        PRN / # OF OBS      
   R16   163   163   163   163   163   163                  PRN / # OF OBS      
   R17   181   181   181   181   181   181                  PRN / # OF OBS      
   R19    51    50    51    50    51    50                  PRN / # OF OBS      
   R20   285   285   285   284   285   285                  PRN / # OF OBS      
   R21   519   519   519   519   519   519                  PRN / # OF OBS      
   R22   527   527   527   527   527   527                  PRN / # OF OBS      
   R23   434   434   434   434   434   434                  PRN / # OF OBS      
   R24   333   332   333   331   333   332                  PRN / # OF OBS      
    30.000                                                  INTERVAL            
  2018     4    26    21    49   30.0000000     GPS         TIME OF FIRST OBS   
  2018     4    27     5    47    0.0000000     GPS         TIME OF LAST OBS    
                                                            END OF HEADER      
> 2018 04 26 21 49 30.0000000  0 13
G01  20927444.961 8  20927450.094 6  20927449.508 8  20927448.938 8 109974445.803 8  85694413.638 6  85694408.642 8  82123804.424 8        48.200          40.800          48.600          53.700
G03  22006140.648 7  22006145.855 6  22006146.441 7  22006146.344 8 115642937.454 7  90111491.844 6  90111486.832 7  86356837.024 8        47.600          37.700          47.500          50.700
G08  20623251.086 8  20623255.852 7  20623256.180 8  20623255.105 8 108375881.463 8  84448789.385 7  84448785.389 8  80930081.191 8        51.700          42.700          49.600          53.800
G11  20389418.703 7  20389419.945 6                                 107147117.154 7  83491265.289 6                                        46.400          38.400
G14  22569596.063 5  22569599.219 3                                 118603978.400 5  92418734.443 3                                        35.900          20.100
G18  20097270.781 8  20097273.363 6                                 105611866.624 8  82294973.924 6                                        49.600          40.200
G22  20785987.297 8  20785987.121 6                                 109231098.493 8  85115141.364 6                                        49.100          40.400
G27  23003289.711 7  23003294.160 5  23003294.688 7  23003294.469 8 120883072.070 7  94194645.967 5  94194643.963 7  90269862.755 8        43.900          33.500          45.200          49.900
G28  23298820.906 6  23298822.594 4                                 122436127.472 6  95404781.781 4                                        41.500          27.200
G32  22908435.031 7  22908439.402 5  22908439.320 7  22908438.480 8 120384612.817 7  93806230.202 5  93806228.194 7  89897632.097 8        45.200          34.000          46.000          50.000
R04  21400373.898 7  21400377.043 7 114598029.033 7  89131802.525 7        45.800          46.000
R20  19655279.219 7  19655284.770 7 105105606.850 7  81748807.885 7        43.800          47.300
R21  22035232.328 7  22035236.398 7 117914882.204 7  91711650.962 7        45.700          43.600
> 2018 04 26 21 50 00.0000000  0 18
E01  27763200.422 6  27763203.988 8 145896606.787 6 110369816.092 8        38.800          52.000
E03  25419302.672 7  25419306.309 9 133579338.731 7 101051912.074 9        46.200          54.900
E08  21866278.180 8  21866279.254 9 114908066.056 8  86927178.788 9        49.300          58.100
E26  24713303.898 7  24713307.594 8 129869285.702 7  98245287.611 8        43.900          52.500
G01  20914854.453 8  20914859.641 6  20914859.086 8  20914858.543 8 109908283.179 8  85642858.353 6  85642853.350 8  82074397.277 8        48.800          40.700          48.700          53.500
G03  21985317.203 7  21985322.383 6  21985322.340 7  21985323.160 8 115533508.703 7  90026222.700 6  90026217.710 7  86275120.761 8        47.800          37.400          46.300          50.400
G08  20625917.422 8  20625922.258 7  20625922.453 8  20625921.570 9 108389893.107 8  84459707.539 7  84459703.542 8  80940544.419 9        52.400          43.700          50.300          54.000
G11  20376472.734 7  20376474.680 6                                 107079087.330 7  83438255.037 6                                        46.500          38.900
G14  22557886.516 6  22557888.230 3                                 118542438.653 6  92370781.396 3                                        40.400          22.000
G18  20091842.117 8  20091844.527 6                                 105583339.935 8  82272745.327 6                                        49.200          40.300
G22  20773926.266 8  20773926.309 6                                 109167717.621 8  85065753.688 6                                        48.800          40.500
G27  23016671.984 7  23016675.848 5  23016675.711 7  23016676.977 8 120953396.189 7  94249443.973 5  94249441.979 7  90322377.497 8        44.100          31.100          42.100          49.300
G28  23288222.125 7  23288224.035 4                                 122380431.879 7  95361382.597 4                                        43.500          28.000
G32  22906350.477 7  22906355.336 5  22906355.203 7  22906354.184 8 120373660.944 7  93797696.270 5  93797694.269 7  89889453.747 8        44.400          34.300          46.100          50.500
R04  21414014.617 7  21414018.477 7 114671073.840 7  89188615.163 7        46.400          46.000
R06  21720327.953 5                 115903744.327 5                        33.300
R20  19646681.141 7  19646686.496 8 105059629.617 7  81713047.823 8        43.600          48.600
R21  22011582.305 7  22011586.535 7 117788325.283 7  91613217.826 7        46.300          42.800
> 2018 04 26 21 50 30.0000000  0 19
E01  27762846.609 6  27762850.402 8 145894748.632 6 110368410.394 8        40.600          52.000
E03  25423447.250 7  25423450.215 9 133601115.871 7 101068386.338 9        45.700          54.900
E08  21854789.875 8  21854790.957 9 114847694.771 8  86881508.313 9        49.900          58.000
E26  24695696.953 7  24695700.637 8 129776760.732 7  98175293.118 8        43.900          52.200
G01  20902632.297 8  20902637.801 6  20902637.496 7  20902636.938 8 109844055.421 8  85592810.752 6  85592805.749 7  82026434.991 8        48.600          41.200          47.500          53.700
G03  21964880.586 8  21964885.758 6  21964886.055 7  21964886.711 8 115426114.568 8  89942538.968 6  89942533.956 7  86194923.850 8        48.300          37.100          45.800          50.900
G08  20629000.672 8  20629005.430 7  20629005.707 8  20629004.977 8 108406093.520 8  84472331.238 7  84472327.242 8  80952642.123 8        52.700          42.600          48.100          53.700
G11  20363920.758 8  20363922.551 6                                 107013124.912 8  83386855.744 6                                        48.800          39.300
G14  22546591.250 6  22546593.113 4                                 118483082.758 6  92324530.004 4                                        40.600          24.200
G18  20086799.070 8  20086801.648 6                                 105556838.563 8  82252094.910 6                                        48.800          39.600
G22  20762270.023 7  20762269.770 6                                 109106462.982 7  85018022.805 6                                        46.600          39.900
G27  23030421.930 7  23030426.660 5  23030426.711 7  23030426.910 8 121025653.300 7  94305748.190 5  94305746.186 7  90376335.703 8        44.500          31.000          43.600          48.900
G28  23278042.430 7  23278044.781 4                                 122326939.255 7  95319700.031 4                                        43.000          27.900
G32  22904698.039 7  22904703.516 5  22904703.242 7  22904701.773 8 120364978.991 7  93790931.124 5  93790929.120 7  89882970.459 8        44.400          33.800          46.600          49.600
R04  21428058.773 7  21428062.297 7 114746281.399 7  89247109.926 7        46.200          44.700
R06  21693100.109 5                 115758449.538 5                        33.200
R19  21789234.977 5  21789239.188 5 116557608.607 5  90656011.181 5        33.700          34.400
R20  19638487.313 7  19638491.758 8 105015807.009 7  81678963.581 8        44.100          48.300
R21  21988267.063 7  21988271.473 7 117663563.108 7  91516180.621 7        45.400          42.700
> 2018 04 26 21 51 00.0000000  0 19
E01  27762798.398 6  27762801.898 8 145894493.350 6 110368217.275 8        37.700          51.700
E03  25427886.055 7  25427889.168 9 133624441.986 7 101086032.390 9        45.800          54.800
E08  21843607.375 8  21843608.430 9 114788930.243 8  86837053.329 9        49.800          57.900
E26  24678320.773 7  24678324.934 8 129685450.578 7  98106217.610 8        43.700          52.200
G01  20890685.133 8  20890690.773 6  20890690.301 7  20890689.852 8 109781273.348 8  85543889.665 6  85543884.662 7  81979552.287 8        48.800          41.400          47.500          53.800
G03  21944738.508 7  21944743.344 6  21944743.582 7  21944744.355 8 115320266.737 7  89860060.153 6  89860055.155 7  86115881.663 8        47.900          37.000          46.600          50.700
G08  20632406.336 8  20632411.270 7  20632411.793 7  20632410.699 9 108423992.422 8  84486278.427 7  84486274.438 7  80966008.173 9        52.500          42.600          47.800          54.100
G11  20351669.516 8  20351670.625 6                                 106948742.260 8  83336687.456 6                                        49.400          38.800
G14  22535618.773 6  22535620.531 3                                 118425422.938 6  92279600.282 3                                        39.500          22.300
G18  20082048.383 8  20082051.172 6                                 105531873.055 8  82232641.271 6                                        48.600          39.900
G22  20750925.094 7  20750924.676 6                                 109046845.011 7  84971567.256 6                                        46.900          39.800
G27  23044446.703 7  23044452.078 5  23044451.824 7  23044451.625 8 121099352.135 7  94363175.882 5  94363173.882 7  90431370.577 8        45.600          34.700          46.700          49.200
G28  23268189.320 6  23268191.367 4                                 122275161.004 6  95279353.367 4                                        40.800          25.800
G32  22903385.094 7  22903389.750 5  22903389.629 7  22903389.355 8 120358077.175 7  93785553.085 5  93785551.082 7  89877816.501 8        43.800          33.400          46.100          49.900
R04  21442412.938 7  21442416.445 7 114823148.646 7  89306895.554 7        46.800          45.000
R06  21666167.688 5                 115614730.939 5                        33.200
R19  21799304.266 5  21799307.969 5 116611476.071 5  90697908.104 5        31.000          34.500
R20  19630601.367 7  19630606.918 7 104973642.776 7  81646169.176 7        44.300          47.100
R21  21965195.336 7  21965198.918 7 117540099.161 7  91420153.123 7        47.400          43.100
> 2018 04 26 21 51 30.0000000  0 19
E01  27762999.508 6  27763002.887 8 145895549.457 6 110369016.230 8        39.600          52.200
E03  25432563.938 7  25432567.230 9 133649025.296 7 101104629.507 9        45.400          54.800
E08  21832675.227 8  21832676.531 9 114731482.614 8  86793594.573 9        49.400          57.900
E26  24661121.641 7  24661124.875 8 129595065.269 7  98037841.751 8        44.800          52.100
G01  20878958.203 8  20878963.121 6  20878962.715 8  20878962.027 8 109719646.903 8  85495869.075 6  85495864.080 8  81933532.552 8        48.800          41.800          49.100          53.700
G03  21924836.148 8  21924840.824 6  21924840.875 7  21924841.309 8 115215676.014 8  89778560.899 6  89778555.896 7  86037778.213 8        49.100          38.100          47.600          50.800
G08  20636080.414 8  20636085.430 7  20636085.625 8  20636084.273 8 108443299.125 8  84501322.601 7  84501318.604 8  80980425.514 8        52.400          43.400          49.800          53.900
G11  20339663.281 7  20339664.703 6                                 106885650.086 7  83287524.737 6                                        46.300          39.100
G14  22524914.227 6  22524917.109 4                                 118369170.104 6  92235766.947 4                                        41.100          24.800
G18  20077534.422 8  20077536.668 6                                 105508153.252 8  82214158.302 6                                        48.500          39.800
G22  20739836.109 7  20739835.652 6                                 108988573.176 7  84926160.640 6                                        46.800          40.100
G27  23058690.367 7  23058694.336 5  23058694.371 7  23058694.293 8 121174200.691 7  94421499.415 5  94421497.419 7  90487263.972 8        45.700          34.900          46.000          49.100
G28  23258608.102 6  23258610.234 4                                 122224807.507 6  95240116.914 4                                        40.600          28.200
G32  22902354.172 7  22902359.383 5  22902359.684 7  22902359.105 8 120352664.735 7  93781335.586 5  93781333.583 7  89873774.742 8        42.100          31.900          45.100          49.900
R04  21457022.102 7  21457025.113 7 114901375.733 7  89367738.856 7        46.200          45.100
R06  21639475.180 5                 115472296.999 5                        35.000
R19  21809614.953 4  21809617.352 5 116666620.229 4  90740798.002 5        28.300          32.900
R20  19622971.719 7  19622977.555 7 104932843.294 7  81614436.244 7        43.900          47.200
R21  21942311.063 7  21942314.223 7 117417639.930 7  91324907.092 7        47.100          42.800
> 2018 04 26 21 52 00.0000000  0 18
E01  27763410.047 6  27763414.020 8 145897710.164 6 110370650.752 8        38.500          52.000
E03  25437441.867 7  25437444.965 9 133674658.625 7 101124020.954 9        45.200          54.700
E08  21821954.859 8  21821956.086 9 114675146.663 8  86750976.806 9        49.800          57.800
E26  24644058.227 7  24644062.203 8 129505399.526 7  97970010.221 8        43.700          51.800
G01  20867411.883 8  20867416.813 6  20867416.613 8  20867415.832 8 109658970.593 8  85448588.840 6  85448583.836 8  81888222.324 8        51.500          41.800          48.800          53.700
G03  21905133.094 7  21905137.680 6  21905138.254 7  21905138.457 8 115112137.780 7  89697881.765 6  89697876.761 7  85960460.711 8        47.800          37.200          45.400          50.700
G08  20639983.055 8  20639987.594 7  20639988.051 8  20639987.023 8 108463807.083 8  84517302.826 7  84517298.822 8  80995739.896 8        51.400          43.200          50.300          53.800
G11  20327863.742 8  20327865.273 6                                 106823644.515 8  83239208.706 6                                        48.200          39.400
G14  22514438.438 6  22514440.426 3                                 118314120.381 6  92192871.102 3                                        41.600          23.900
G18  20073218.750 8  20073221.512 6                                 105485473.286 8  82196485.604 6                                        49.300          39.600
G22  20728964.531 8  20728963.898 6                                 108931441.312 8  84881642.313 6                                        48.100          40.200
G27  23073112.578 7  23073117.047 5  23073116.973 7  23073116.711 8 121249991.366 7  94480557.065 5  94480555.065 7  90543860.884 8        45.400          34.400          44.800          49.300
G28  23249258.375 7  23249260.090 4                                 122175673.327 7  95201830.530 4                                        43.500          26.400
G32  22901569.531 7  22901573.742 5  22901573.496 7  22901573.230 8 120348535.451 7  93778117.964 5  93778115.960 7  89870691.195 8        45.200          32.800          43.400          49.500
R04  21471844.508 7  21471847.316 7 114980748.764 7  89429473.418 7        45.900          44.800
R06  21612984.648 5                 115330941.644 5                        33.200
R20  19615558.555 7  19615563.703 8 104893201.112 7  81583603.436 8        44.000          48.100
R21  21919574.820 7  21919578.359 7 117295977.876 7  91230281.085 7        46.300          42.800
> 2018 04 26 21 52 30.0000000  0 18
E01  27763997.633 6  27764002.641 8 145900802.727 6 110372990.249 8        38.200          51.700
E03  25442486.836 7  25442489.770 9 133701169.087 7 101144075.931 9        46.200          54.800
E08  21811413.547 8  21811414.887 9 114619751.521 8  86709070.746 9        50.100          57.800
E26  24627100.266 7  24627103.684 8 129416282.393 7  97902593.726 8        44.200          52.200
G01  20856013.750 8  20856018.898 6  20856018.391 7  20856017.922 8 109599073.259 8  85401915.598 6  85401910.595 7  81843493.812 8        49.800          41.700          47.500          53.800
G03  21885598.672 8  21885603.520 6  21885603.496 7  21885604.125 8 115009481.711 8  89617890.045 6  89617885.041 7  85883801.974 8        49.300          38.300          46.100          50.700
G08  20644081.547 8  20644086.191 7  20644086.734 8  20644085.270 8 108485344.383 8  84534085.144 7  84534081.140 8  81011822.946 8        52.300          43.000          48.600          53.400
G11  20316238.977 8  20316240.438 6                                 106762555.203 8  83191606.652 6                                        48.000          38.700
G14  22504158.938 6  22504160.836 3                                 118260103.757 6  92150780.233 3                                        39.100          21.800
G18  20069068.844 8  20069070.867 6                                 105463661.936 8  82179489.748 6                                        48.300          39.900
G22  20718276.617 7  20718276.664 6                                 108875278.718 7  84837879.262 6                                        46.300          40.300
G27  23087681.125 7  23087685.668 5  23087685.719 7  23087685.977 8 121326550.947 7  94540213.882 5  94540211.893 7  90601032.003 8        44.500          33.100          45.400          49.800
G28  23240107.688 7  23240109.391 4                                 122127587.486 7  95164361.039 4                                        43.900          25.700
G32  22900994.805 7  22900999.699 5  22900999.828 7  22900998.602 8 120345517.465 7  93775766.303 5  93775764.302 7  89868437.525 8        44.600          33.300          45.400          48.900
R04  21486847.109 7  21486849.984 7 115061089.012 7  89491960.252 7        45.900          44.200
R06  21586666.484 5                 115190494.169 5                        34.600
R20  19608329.359 7  19608335.078 8 104854543.876 7  81553536.702 8        44.200          48.000
R21  21896956.648 7  21896959.660 6 117174940.678 7  91136141.043 6        45.000          41.700
> 2018 04 26 21 53 00.0000000  0 18
E01  27764737.750 6  27764741.352 8 145904685.786 6 110375927.750 8        37.000          51.800
E03  25447671.461 7  25447674.406 9 133728414.897 7 101164687.216 9        46.400          54.500
E08  21801024.820 8  21801025.973 9 114565157.385 8  86667770.642 9        50.000          58.000
E26  24610219.539 7  24610222.828 8 129327574.073 7  97835486.488 8        44.200          51.700
G01  20844737.383 8  20844742.852 6  20844742.223 7  20844741.402 8 109539814.912 8  85355740.281 6  85355735.277 7  81799242.466 8        51.000          40.900          47.800          53.500
G03  21866204.563 8  21866210.066 6  21866210.262 7  21866210.844 8 114907568.679 8  89538477.302 6  89538472.298 7  85807698.104 8        49.000          38.400          46.700          51.100
G08  20648348.883 8  20648353.973 7  20648354.129 8  20648352.641 8 108507770.416 8  84551559.954 7  84551555.958 8  81028569.649 8        52.400          43.200          48.300          53.500
G11  20304761.789 8  20304763.520 6                                 106702243.280 8  83144610.358 6                                        48.400          38.800
G14  22494050.313 7  22494052.809 4                                 118206981.354 7  92109386.157 4                                        42.000          24.600
G18  20065056.234 8  20065058.703 6                                 105442578.924 8  82163061.433 6                                        49.400          39.400
G22  20707747.594 8  20707747.051 6                                 108819944.525 8  84794761.714 6                                        49.300          39.800
G27  23102369.680 7  23102373.395 5  23102373.637 7  23102373.352 8 121403737.417 7  94600359.209 5  94600357.197 7  90658671.283 8        45.100          32.100          45.300          48.800
G28  23231129.281 7  23231132.406 4                                 122080410.444 7  95127599.722 4                                        42.400          26.500
G32  22900604.750 7  22900610.176 5  22900610.203 7  22900609.316 8 120343470.017 7  93774170.909 5  93774168.906 7  89866908.593 8        43.600          33.100          45.600          49.800
R04  21502003.680 7  21502006.738 7 115142249.652 7  89555085.197 7        46.300          45.500
R06  21560489.477 5                 115050815.890 5                        32.000
R20  19601257.875 7  19601263.152 7 104816730.338 7  81524126.168 7        44.100          47.400
R21  21874427.750 7  21874432.043 7 117054387.348 7  91042377.393 7        46.200          42.700
> 2018 04 26 21 53 30.0000000  0 18
E01  27765612.953 6  27765615.680 8 145909280.486 6 110379403.606 8        38.900          51.800
E03  25452981.094 7  25452984.043 9 133756316.953 7 101185794.956 9        45.700          54.700
E08  21790773.773 8  21790774.926 9 114511287.112 8  86627018.134 9        50.000          58.100
E26  24593402.203 7  24593405.391 8 129239197.361 7  97768630.100 8        43.800          52.300
G01  20833567.523 8  20833573.047 6  20833572.836 8  20833571.773 8 109481118.192 8  85310002.583 6  85309997.579 8  81755410.507 8        49.700          41.300          48.900          53.600
G03  21846937.719 8  21846943.238 6  21846943.449 7  21846943.785 8 114806322.088 8  89459583.859 6  89459578.855 7  85732091.890 8        48.500          37.500          47.000          50.800
G08  20652770.516 8  20652776.113 7  20652776.176 8  20652774.664 8 108531006.350 8  84569665.881 7  84569661.884 8  81045921.159 8        52.700          43.500          50.800          53.400
G11  20293418.422 8  20293420.438 6                                 106642632.584 8  83098160.467 6                                        48.000          38.900
G14  22484097.258 7  22484099.938 4                                 118154677.347 7  92068629.798 4                                        42.600          26.300
G18  20061168.039 8  20061170.516 6                                 105422146.530 8  82147140.090 6                                        49.900          40.200
G22  20697360.781 8  20697360.078 6                                 108765360.906 8  84752229.023 6                                        48.300          39.900
G27  23117162.031 7  23117165.727 5  23117166.000 7  23117165.449 7 121481471.364 7  94660931.114 5  94660929.117 7  90716719.352 7        45.100          31.500          42.700          47.500
G28  23222310.555 7  23222312.316 4                                 122034065.294 7  95091486.614 4                                        43.000          26.000
G32  22900385.750 7  22900390.266 5  22900390.043 7  22900389.461 8 120342314.976 7  93773270.908 5  93773268.909 7  89866046.096 8        44.300          33.400          45.200          50.200
R04  21517297.648 7  21517300.270 7 115224147.323 7  89618783.379 7        46.700          45.100
R06  21534444.945 5                 114911830.433 5                        33.400
R20  19594329.852 7  19594335.539 7 104779683.546 7  81495312.003 7        44.100          47.800
R21  21851975.172 7  21851979.488 7 116934241.098 7  90948930.338 7        46.000          43.200
> 2018 04 26 21 54 00.0000000  0 18
E01  27766608.383 6  27766612.559 8 145914518.319 6 110383365.978 8        38.100          51.700
E03  25458402.547 7  25458405.367 9 133784806.402 7 101207347.032 9        46.000          54.700
E08  21780647.453 8  21780648.723 9 114458073.792 8  86586762.605 9        50.500          58.200
E26  24576634.563 7  24576638.328 8 129151085.388 7  97701973.997 8        44.400          51.700
G01  20822492.109 8  20822497.516 6  20822496.930 8  20822496.008 8 109422915.946 8  85264650.215 6  85264645.227 8  81711947.822 8        51.000          41.700          48.700          53.700
G03  21827785.633 8  21827790.781 6  21827790.996 7  21827791.270 8 114705675.645 8  89381158.083 6  89381153.078 7  85656933.858 8        48.500          37.300          46.200          51.000
G08  20657333.508 8  20657338.773 7  20657339.078 8  20657337.793 8 108554984.077 8  84588349.815 7  84588345.818 8  81063826.605 8        53.200          43.600          50.000          53.500
G11  20282195.422 8  20282197.410 6                                 106583656.778 8  83052205.307 6                                        48.200          39.400
G14  22474286.750 7  22474289.523 4                                 118103125.519 7  92028459.546 4                                        42.000          27.400
G18  20057391.156 8  20057393.656 6                                 105402297.818 8  82131673.571 6                                        49.300          40.600
G22  20687103.734 8  20687103.391 6                                 108711460.060 8  84710228.371 6                                        48.300          40.500
G27  23132044.164 7  23132049.227 5  23132049.578 7  23132049.184 8 121559683.565 7  94721875.677 5  94721873.673 7  90775124.586 8        43.900          31.400          43.400          48.300
G28  23213636.688 7  23213639.199 4                                 121988484.869 7  95055969.429 4                                        43.200          26.000
G32  22900322.852 7  22900327.379 5  22900327.242 7  22900326.457 8 120341984.412 7  93773013.331 5  93773011.336 7  89865799.261 8        44.100          33.000          44.600          50.400
R04  21532715.313 7  21532718.336 7 115306709.084 7  89682998.069 7        45.500          45.200
R06  21508515.781 5                 114773472.946 5                        33.600
R20  19587533.391 7  19587538.090 8 104743336.650 7  81467042.196 8        44.200          48.500
R21  21829587.617 7  21829590.848 7 116814435.260 7  90855748.070 7        45.800          43.500
> 2018 04 26 21 54 30.0000000  0 18
E01  27767718.805 6  27767722.809 8 145920353.082 6 110387779.923 8        36.400          51.200
E03  25463926.727 7  25463929.609 9 133813836.890 7 101229308.425 9        45.900          54.700
E08  21770637.625 8  21770639.109 9 114405473.091 8  86546970.527 9        50.100          58.100
E26  24559909.656 7  24559912.980 8 129063193.824 7  97635484.614 8        44.900          52.000
G01  20811502.094 8  20811507.547 6  20811506.910 7  20811506.449 8 109365163.717 8  85219648.479 6  85219643.477 7  81668821.167 8        50.700          41.100          47.000          53.500
G03  21808739.141 8  21808744.098 6  21808744.379 7  21808745.055 8 114605585.628 8  89303165.886 6  89303160.890 7  85582191.340 8        48.700          37.100          45.700          51.100
G08  20662029.086 8  20662034.004 7  20662034.484 7  20662033.555 8 108579658.441 8  84607576.599 7  84607572.609 7  81082252.265 8        52.500          42.900          47.700          53.300
G11  20271085.211 7  20271087.180 6                                 106525272.667 7  83006711.194 6                                        47.600          38.100
G14  22464611.938 6  22464614.457 4                                 118052282.717 6  91988841.763 4                                        39.900          27.600
G18  20053716.469 8  20053719.035 6                                 105382987.768 8  82116626.772 6                                        48.000          40.400
G22  20676967.625 8  20676967.887 6                                 108658197.437 8  84668725.039 6                                        48.200          40.500
G27  23147010.219 7  23147015.711 5  23147015.059 7  23147014.789 8 121638327.350 7  94783156.587 5  94783154.588 7  90833852.129 8        44.600          32.700          45.500          48.800
G28  23205100.953 7  23205102.590 4                                 121943624.881 7  95021013.591 4                                        43.500          27.200
G32  22900407.297 7  22900412.637 5  22900412.344 7  22900411.773 8 120342432.960 7  93773362.849 5  93773360.846 7  89866134.221 8        42.900          32.400          45.900          50.200
R04  21548247.563 7  21548250.625 7 115389885.104 7  89747690.523 7        45.400          44.800
R06  21482698.305 5                 114635701.293 5                        34.300
R20  19580859.266 7  19580864.273 7 104707646.129 7  81439282.904 7        43.500          47.700
R21  21807254.234 7  21807257.395 7 116694926.437 7  90762796.798 7        46.600          43.600
> 2018 04 26 21 55 00.0000000  0 18
E01  27768936.266 5  27768940.508 8 145926752.936 5 110392621.370 8        35.400          50.500
E03  25469547.992 7  25469550.645 9 133843376.229 7 101251654.745 9        45.600          54.700
E08  21760738.813 8  21760740.145 9 114353454.669 8  86507618.944 9        49.700          58.100
E26  24543219.711 7  24543224.098 8 128975492.365 7  97569139.072 8        43.600          51.900
G01  20800591.859 8  20800597.516 6  20800596.707 8  20800596.246 8 109307830.948 8  85174973.609 6  85174968.613 8  81626007.751 8        50.900          41.300          48.500          53.800
G03  21789793.078 8  21789798.074 6  21789798.363 7  21789798.500 8 114506022.357 8  89225584.124 6  89225579.121 7  85507842.148 8        49.400          38.100          47.500          51.100
G08  20666850.727 8  20666856.086 7  20666855.922 8  20666854.637 8 108604997.784 8  84627321.540 7  84627317.544 8  81101174.498 8        53.200          43.000          49.200          53.200
G11  20260082.477 8  20260083.887 6                                 106467450.711 8  82961655.133 6                                        48.200          38.800
G14  22455065.688 6  22455069.145 4                                 118002119.488 6  91949753.581 4                                        41.600          27.100
G18  20050138.727 8  20050141.016 6                                 105364185.703 8  82101975.815 6                                        48.100          39.400
G22  20666947.500 8  20666947.684 6                                 108605541.933 8  84627694.781 6                                        49.300          40.600
G27  23162051.555 7  23162055.996 5  23162055.719 7  23162056.539 8 121717370.269 7  94844748.443 5  94844746.439 7  90892877.661 8        45.400          32.600          44.100          48.700
G28  23196694.953 7  23196697.313 4                                 121899454.932 7  94986595.436 4                                        43.700          26.200
G32  22900635.133 7  22900640.645 5  22900640.992 7  22900639.957 8 120343629.310 7  93774295.073 5  93774293.070 7  89867027.581 8        43.000          32.100          46.300          50.200
R04  21563888.898 7  21563891.672 7 115473640.169 7  89812833.334 7        46.400          45.100
R06  21456981.758 5                 114498487.026 5                        31.200
R20  19574301.750 7  19574306.898 7 104672582.187 7  81412010.941 7        44.000          47.000
R21  21784970.547 7  21784975.160 7 116575685.404 7  90670053.808 7        46.000          43.700
> 2018 04 26 21 55 30.0000000  0 18
E01  27770257.922 6  27770261.883 8 145933696.914 6 110397874.449 8        36.000          50.100
E03  25475261.656 7  25475264.637 9 133873403.205 7 101274369.954 9        45.600          54.500
E08  21750947.398 8  21750948.648 9 114301999.322 8  86468693.321 9        49.400          58.000
E26  24526564.008 7  24526567.500 8 128887961.867 7  97502922.845 8        44.100          52.000
G01  20789758.086 8  20789763.758 6  20789763.430 8  20789762.602 8 109250898.307 8  85130610.518 6  85130605.521 8  81583493.125 8        51.600          41.100          48.900          53.600
G03  21770943.203 8  21770948.477 6  21770948.496 7  21770948.609 8 114406967.167 8  89148398.271 6  89148393.275 7  85433872.377 8        48.900          37.900          47.800          51.000
G08  20671795.477 8  20671800.629 7  20671800.672 8  20671798.828 8 108630981.706 8  84647568.747 7  84647564.751 8  81120578.083 8        53.400          43.800          50.500          53.300
G11  20249182.992 8  20249184.492 6                                 106410172.600 8  82917022.836 6                                        49.100          39.200
G14  22445646.516 7  22445648.707 4                                 117952617.938 7  91911180.944 4                                        43.200          28.100
G18  20046653.539 7  20046656.434 6                                 105345872.042 7  82087705.444 6                                        47.400          40.100
G22  20657039.891 8  20657039.613 6                                 108553473.945 8  84587122.341 6                                        48.900          41.000
G27  23177164.797 7  23177169.434 5  23177169.520 7  23177168.043 7 121796790.711 7  94906634.468 5  94906632.471 7  90952185.116 7        42.600          31.600          44.700          47.500
G28  23188417.422 7  23188419.715 4                                 121855955.827 7  94952700.037 4                                        43.200          26.400
G32  22901002.367 7  22901006.176 5  22901006.207 7  22901005.078 8 120345553.154 7  93775794.160 5  93775792.156 7  89868464.207 8        43.300          32.200          45.900          50.800
R04  21579632.195 7  21579635.320 7 115557950.104 7  89878407.716 7        45.100          44.600
R06  21431371.000 5                 114361813.605 5                        31.800
R20  19567858.289 7  19567863.820 7 104638127.213 7  81385212.637 7        44.300          47.700
R21  21762734.625 7  21762738.477 7 116456694.279 7  90577505.216 7        46.400          44.200
> 2018 04 26 21 56 00.0000000  0 17
E01  27771674.703 6  27771678.512 8 145941140.307 6 110403505.327 8        37.000          49.800
E03  25481060.148 7  25481063.105 9 133903872.912 7 101297420.090 9        46.000          54.700
E08  21741254.633 8  21741255.902 9 114251064.040 8  86430161.117 9        49.900          58.200
E26  24509930.813 7  24509935.297 8 128800559.410 7  97436803.479 8        42.700          52.100
G01  20778992.469 8  20778997.625 6  20778997.031 8  20778996.000 8 109194322.652 8  85086525.607 6  85086520.604 8  81541245.089 8        51.800          41.800          48.500          53.500
G03  21752182.500 8  21752187.691 6  21752187.496 7  21752188.000 8 114308377.703 8  89071575.336 6  89071570.339 7  85360250.398 8        49.200          37.700          45.700          50.900
G08  20676854.031 8  20676859.398 7  20676859.434 8  20676857.832 8 108657566.271 8  84668283.984 7  84668279.988 8  81140430.193 8        51.800          43.200          49.800          53.100
G11  20238378.656 8  20238379.625 6                                 106353396.413 8  82872781.658 6                                        48.500          38.900
G14  22436344.734 7  22436346.848 4                                 117903735.508 7  91873090.717 4                                        44.500          29.500
G18  20043253.125 8  20043256.004 6                                 105328003.286 8  82073781.743 6                                        49.200          39.900
G22  20647235.297 8  20647234.789 6                                 108501949.590 8  84546973.503 6                                        49.800          40.900
G27  23192341.117 7  23192346.195 5  23192345.836 7  23192345.977 8 121876543.483 7  94968779.511 5  94968777.518 7  91011740.743 8        43.000          32.300          45.400          49.500
G28  23180258.508 6  23180262.051 4                                 121813084.586 6  94919293.911 4                                        41.400          27.000
G32  22901497.445 7  22901502.980 5  22901502.980 7  22901502.117 8 120348160.483 7  93777825.831 5  93777823.827 7  89870411.230 8        44.000          33.000          45.800          50.900
R04  21595471.852 7  21595474.461 7 115642766.771 7  89944376.243 7        46.400          44.600
R20  19561520.641 7  19561526.488 8 104604238.407 7  81358854.669 8        43.800          48.600
R21  21740537.164 7  21740541.191 7 116337910.990 7  90485118.251 7        46.000          43.100
> 2018 04 26 21 56 30.0000000  0 18
E01  27773183.227 5  27773187.238 8 145949070.006 5 110409504.099 8        35.400          49.800
E03  25486939.727 7  25486942.895 9 133934771.896 7 101320794.979 9        46.200          54.500
E08  21731658.984 8  21731660.016 9 114200637.345 8  86392013.660 9        50.300          58.200
E26  24493321.656 7  24493325.465 8 128713273.542 7  97370772.317 8        43.600          52.000
G01  20768291.781 8  20768297.531 6  20768296.590 7  20768295.965 8 109138092.379 8  85042709.813 6  85042704.817 7  81499254.956 8        51.700          41.300          47.200          53.700
G03  21733507.680 8  21733513.371 6  21733513.465 7  21733513.797 8 114210243.090 8  88995106.813 6  88995101.812 7  85286968.067 8        48.700          38.500          47.200          51.600
G08  20682024.742 8  20682029.840 7  20682030.371 7  20682029.504 8 108684738.269 8  84689456.971 7  84689452.974 7  81160720.963 8        52.200          42.600          47.500          53.500
G11  20227668.555 8  20227669.371 6                                 106297111.434 8  82828923.237 6                                        48.800          38.900
G14  22427158.273 7  22427161.148 5                                 117855462.118 7  91835475.098 5                                        42.900          31.500
G18  20039935.625 8  20039938.527 6                                 105310567.775 8  82060195.638 6                                        49.100          40.200
G22  20637531.516 8  20637530.988 6                                 108450956.938 8  84507238.978 6                                        48.600          41.000
G27  23207577.844 7  23207582.445 5  23207582.895 7  23207582.520 8 121956614.883 7  95031172.804 5  95031170.808 7  91071534.323 8        43.400          31.300          45.600          48.900
G28  23172218.227 6  23172220.488 4                                 121770829.774 6  94886368.106 4                                        41.200          26.400
G32  22902121.539 7  22902126.762 5  22902126.613 7  22902125.664 8 120351438.630 7  93780380.235 5  93780378.232 7  89872859.201 8        44.500          34.100          47.200          50.500
R04  21611401.164 7  21611405.484 7 115728073.950 7  90010726.264 7        45.000          44.500
R06  21380425.945 5                 114089957.332 5                        31.200
R20  19555288.391 7  19555292.477 7 104570905.483 7  81332929.061 7        44.200          47.600
R21  21718377.305 7  21718380.672 7 116219325.673 7  90392885.256 7        46.000          43.900
> 2018 04 26 21 57 00.0000000  0 18
E01  27774779.789 5  27774783.520 8 145957458.856 5 110415850.239 8        35.800          49.600
E03  25492896.086 7  25492899.348 9 133966072.786 7 101344473.901 9        45.600          54.300
E08  21722154.984 8  21722156.148 9 114150693.730 8  86354231.647 9        50.400          58.300
E26  24476728.547 7  24476732.785 8 128626078.972 7  97304810.223 8        43.300          52.500
G01  20757652.828 8  20757658.094 7  20757657.758 8  20757656.820 8 109082181.892 8  84999143.219 7  84999138.223 8  81457503.644 8        51.200          42.600          48.700          53.800
G03  21714915.047 8  21714920.746 6  21714921.105 8  21714921.348 8 114112538.425 8  88918973.329 6  88918968.318 8  85214006.817 8        48.600          37.900          48.300          51.300
G08  20687302.094 8  20687307.203 7  20687307.398 8  20687306.637 8 108712471.348 8  84711067.163 7  84711063.174 8  81181430.731 8        52.500          43.100          49.700          53.700
G11  20217045.734 8  20217047.152 6                                 106241293.227 8  82785428.533 6                                        48.600          39.400
G14  22418083.750 7  22418086.516 5                                 117807772.979 7  91798314.729 5                                        44.900          33.100
G18  20036695.203 8  20036697.574 6                                 105293539.570 8  82046926.916 6                                        49.100          40.200
G22  20627924.000 8  20627923.734 6                                 108400469.622 8  84467898.223 6                                        49.200          41.000
G27  23222871.344 7  23222875.387 5  23222875.137 7  23222874.234 8 122036977.120 7  95093792.727 5  95093790.726 7  91131545.104 8        44.000          31.400          43.800          48.300
G28  23164289.813 6  23164291.301 4                                 121729165.890 6  94853902.740 4                                        41.400          26.900
G32  22902868.094 7  22902873.164 5  22902872.566 7  22902871.539 8 120355361.180 7  93783436.781 5  93783434.777 7  89875788.375 8        44.600          33.800          46.100          49.800
R04  21627418.383 7  21627420.758 7 115813840.693 7  90077433.726 7        45.500          44.900
R06  21355085.555 5                 113954742.132 5                        31.300
R20  19549153.078 7  19549158.832 7 104538104.224 7  81307416.972 7        44.600          47.100
R21  21696249.859 7  21696252.246 7 116100913.926 7  90300787.271 7        47.300          43.700
> 2018 04 26 21 57 30.0000000  0 18
E01  27776464.633 5  27776468.246 8 145966310.112 5 110422546.142 8        34.900          49.700
E03  25498929.836 7  25498932.586 9 133997778.577 7 101368459.118 9        45.700          54.400
E08  21712743.711 8  21712745.039 9 114101238.138 8  86316818.819 9        50.200          58.400
E26  24460154.977 7  24460158.531 8 128538980.687 7  97238920.971 8        43.600          52.300
G01  20747074.852 8  20747080.262 7  20747079.852 8  20747079.047 8 109026596.026 8  84955829.564 7  84955824.554 8  81415994.721 8        51.400          42.200          49.600          53.800
G03  21696405.617 8  21696411.027 6  21696410.859 8  21696411.750 8 114015269.271 8  88843179.197 6  88843174.193 8  85141370.781 8        48.800          37.800          48.200          51.400
G08  20692687.250 8  20692692.043 7  20692692.152 8  20692691.238 8 108740769.292 8  84733117.507 7  84733113.502 8  81202562.306 8        52.300          42.900          50.000          53.400
G11  20206514.273 8  20206515.957 6                                 106185947.662 8  82742302.126 6                                        49.300          39.200
G14  22409120.656 7  22409123.207 5                                 117760673.781 7  91761614.078 5                                        43.300          32.400
G18  20033533.180 8  20033535.836 6                                 105276923.507 8  82033979.334 6                                        48.600          39.600
G22  20618413.273 8  20618413.105 6                                 108350492.039 8  84428954.659 6                                        49.300          40.800
G27  23238218.664 7  23238222.930 5  23238223.527 7  23238223.590 8 122117632.901 7  95156641.409 5  95156639.405 7  91191775.083 8        44.000          30.500          42.700          48.000
G28  23156474.891 6  23156476.539 4                                 121688097.413 6  94821901.338 4                                        41.700          26.200
G32  22903738.023 7  22903742.453 5  22903742.113 7  22903741.594 8 120359931.912 7  93786998.385 5  93786996.389 7  89879201.591 8        45.300          33.100          44.800          50.200
R04  21643520.773 7  21643523.430 7 115900067.974 7  90144499.367 7        46.200          44.500
R06  21329833.852 4                 113820003.140 4                        28.900
R20  19543119.852 7  19543125.465 8 104505840.781 7  81282323.186 8        43.900          48.100
R21  21674154.531 7  21674158.375 7 115982682.780 7  90208829.747 7        47.500          44.000
> 2018 04 26 21 58 00.0000000  0 17
E01  27778232.180 6  27778236.152 8 145975601.296 6 110429574.847 8        36.700          49.800
E03  25505035.773 7  25505038.859 9 134029866.570 7 101392733.487 9        45.100          54.500
E08  21703421.594 8  21703423.082 9 114052249.787 8  86279759.477 9        49.300          58.500
E26  24443593.922 7  24443598.637 8 128451958.073 7  97173088.979 8        43.400          52.400
G01  20736555.016 8  20736560.148 6  20736559.621 8  20736558.934 8 108971313.944 8  84912752.639 6  84912747.643 8  81374712.669 8        51.900          41.700          48.900          53.700
G03  21677974.922 8  21677979.945 6  21677980.320 7  21677981.133 8 113918415.544 8  88767708.773 6  88767703.771 7  85069044.959 8        48.800          37.900          45.800          51.500
G08  20698175.625 8  20698180.457 7  20698180.430 8  20698179.477 8 108769610.241 8  84755590.961 7  84755586.964 8  81224099.371 8        52.900          42.800          48.800          53.700
G11  20196068.344 7  20196069.848 6                                 106131055.020 7  82699528.646 6                                        47.400          39.400
G14  22400266.078 7  22400268.723 5                                 117714144.873 7  91725357.817 5                                        44.800          31.400
G18  20030445.516 8  20030447.945 6                                 105260698.367 8  82021336.370 6                                        48.400          39.900
G22  20608995.797 7  20608995.492 6                                 108301002.722 7  84390391.575 6                                        47.300          41.100
G27  23253619.563 7  23253623.738 5  23253623.887 7  23253623.641 7 122198559.230 7  95219700.939 5  95219698.928 7  91252207.166 7        45.000          31.400          43.800          47.300
G28  23148768.914 7  23148771.309 4                                 121647604.109 7  94790348.110 4                                        42.000          27.100
G32  22904726.656 7  22904732.023 5  22904731.816 7  22904730.926 8 120365128.929 7  93791048.018 5  93791046.014 7  89883082.495 8        45.000          32.800          45.300          50.400
R04  21659703.203 7  21659707.168 7 115986729.756 7  90211902.981 7        44.900          44.400
R20  19537183.250 7  19537188.770 8 104474095.421 7  81257632.348 8        43.700          48.800
R21  21652089.875 7  21652093.457 7 115864613.032 7  90116997.751 7        47.800          44.200
> 2018 04 26 21 58 30.0000000  0 18
E01  27780083.484 5  27780086.160 8 145985323.863 5 110436929.904 8        34.600          49.800
E03  25511213.180 7  25511216.172 9 134062327.989 7 101417290.345 9        46.200          54.500
E08  21694187.234 8  21694188.262 9 114003721.793 8  86243048.374 9        50.100          58.400
E26  24427048.258 7  24427051.836 8 128365004.416 7  97107309.126 8        43.800          52.500
G01  20726091.789 8  20726097.145 6  20726096.531 7  20726095.930 9 108916328.693 8  84869907.001 6  84869902.012 7  81333652.272 9        50.000          41.300          47.000          54.000
G03  21659622.023 8  21659627.059 6  21659627.359 7  21659627.781 8 113821970.897 8  88692557.123 6  88692552.120 7  84997024.633 8        49.000          38.000          47.100          51.300
G08  20703765.547 8  20703770.402 7  20703770.395 7  20703769.777 8 108798985.613 8  84778480.864 7  84778476.868 7  81246035.526 8        52.800          42.600          47.600          53.500
G11  20185707.969 7  20185709.453 6                                 106076609.364 7  82657103.463 6                                        46.900          39.200
G14  22391520.227 7  22391521.875 5                                 117668180.403 7  91689541.348 5                                        45.300          32.400
G18  20027431.203 8  20027433.254 6                                 105244856.581 8  82008992.135 6                                        50.400          39.300
G22  20599669.695 8  20599669.848 6                                 108251994.095 8  84352203.046 6                                        49.100          40.600
G27  23269068.531 7  23269073.258 4  23269072.637 7  23269072.633 8 122279747.119 7  95282964.198 4  95282962.216 7  91312834.460 8        43.700          28.700          42.100          48.000
G28  23141171.344 6  23141173.484 4                                 121607678.749 6  94759237.463 4                                        40.300          26.200
G32  22905833.133 7  22905838.086 5  22905838.199 7  22905837.281 8 120370944.260 7  93795579.469 5  93795577.473 7  89887425.124 8        44.400          33.700          45.800          50.200
R04  21675966.875 7  21675969.590 7 116073814.854 7  90279635.823 7        45.300          44.600
R06  21279591.594 5                 113551891.533 5                        31.300
R20  19531343.500 7  19531347.891 7 104442862.524 7  81233340.114 7        43.800          47.300
R21  21630055.313 7  21630059.695 7 115746699.315 7  90025287.111 7        47.700          44.100
> 2018 04 26 21 59 00.0000000  0 18
E01  27782012.133 6  27782016.824 8 145995468.442 6 110444604.209 8        36.800          49.100
E03  25517459.227 7  25517462.477 9 134095153.235 7 101442122.435 9        45.100          54.200
E08  21685038.844 8  21685039.855 9 113955646.462 8  86206679.701 9        51.200          58.500
E26  24410512.594 7  24410516.949 8 128278112.204 7  97041575.778 8        43.200          52.800
G01  20715683.453 8  20715688.598 6  20715687.988 8  20715687.445 8 108861632.511 8  84827286.602 6  84827281.599 8  81292807.734 8        50.900          41.600          49.400          53.800
G03  21641345.781 8  21641350.953 6  21641351.109 7  21641351.730 8 113725928.260 8  88617718.723 6  88617713.718 7  84925304.502 8        48.900          37.800          47.700          51.200
G08  20709455.461 8  20709460.543 7  20709460.918 8  20709459.504 8 108828886.922 8  84801780.580 7  84801776.583 8  81268364.416 8        52.200          43.000          50.500          53.700
G11  20175430.961 7  20175432.176 6                                 106022603.854 7  82615021.254 6                                        47.800          38.500
G14  22382879.477 7  22382880.813 5                                 117622773.579 7  91654159.422 5                                        46.500          32.600
G18  20024488.063 8  20024490.531 6                                 105229390.646 8  81996940.759 6                                        49.100          39.700
G22  20590433.813 8  20590433.832 6                                 108203457.901 8  84314382.650 6                                        48.100          40.500
G27  23284565.891 6  23284568.555 4  23284569.563 7  23284570.039 8 122361186.468 6  95346423.450 4  95346421.453 7  91373649.571 8        41.500          26.300          42.000          48.500
G28  23133681.273 7  23133682.934 4                                 121568313.459 7  94728563.255 4                                        42.800          27.300
G32  22907055.578 7  22907060.945 5  22907060.789 7  22907059.613 8 120377369.135 7  93800585.862 5  93800583.852 7  89892222.915 8        43.700          33.600          46.200          49.400
R04  21692306.086 7  21692309.086 7 116161311.009 7  90347688.366 7        45.100          43.800
R06  21254597.367 5                 113418510.415 5                        33.200
R20  19525597.555 7  19525602.488 7 104412135.782 7  81209441.525 7        43.800          46.900
R21  21608048.070 7  21608051.004 7 115628935.744 7  89933693.245 7        47.200          43.800
> 2018 04 26 21 59 30.0000000  0 18
E01  27784024.680 5  27784028.145 8 146006039.757 5 110452601.336 8        34.700          48.300
E03  25523776.156 7  25523779.164 9 134128346.924 7 101467233.240 9        45.700          54.600
E08  21675977.695 8  21675978.598 9 113908030.240 8  86170658.344 9        49.700          58.400
E26  24393990.680 7  24393994.820 8 128191288.108 7  96975893.950 8        43.800          52.800
G01  20705331.375 8  20705336.836 6  20705336.410 8  20705335.387 8 108807231.879 8  84784896.500 6  84784891.505 8  81252183.891 8        52.300          41.700          49.500          53.900
G03  21623147.273 8  21623153.188 6  21623152.840 7  21623153.203 8 113630294.759 8  88543199.106 6  88543194.108 7  84853889.878 8        49.000          38.600          47.500          51.400
G08  20715246.414 8  20715251.727 7  20715252.078 8  20715250.512 8 108859319.217 8  84825494.048 7  84825490.052 8  81291089.841 8        52.800          43.100          50.600          53.400
G11  20165239.508 8  20165241.066 6                                 105969045.902 8  82573287.794 6                                        48.600          38.900
G14  22374346.805 7  22374348.906 5                                 117577931.883 7  91619217.853 5                                        47.200          33.300
G18  20021617.531 8  20021620.148 6                                 105214306.541 8  81985186.925 6                                        49.100          40.000
G22  20581289.008 8  20581288.832 6                                 108155400.260 8  84276935.150 6                                        48.500          40.800
G27  23300111.844 6  23300116.938 4  23300116.734 7  23300116.543 8 122442881.736 6  95410082.084 4  95410080.080 7  91434655.762 8        41.900          29.700          43.200          49.300
G28  23126298.273 7  23126299.438 4                                 121529514.883 7  94698330.604 4                                        43.700          25.900
G32  22908395.484 7  22908400.484 5  22908400.113 7  22908399.563 8 120384408.776 7  93806071.295 5  93806069.295 7  89897479.807 8        44.300          32.700          44.500          50.000
R04  21708722.070 7  21708725.504 7 116249220.341 7  90416062.321 7        44.500          44.000
R06  21229686.945 5                 113285586.302 5                        33.600
R20  19519947.102 7  19519952.379 8 104381923.472 7  81185943.066 8        43.500          48.100
R21  21586070.883 7  21586074.211 7 115511330.905 7  89842222.843 7        47.600          43.600
> 2018 04 26 22 00 00.0000000  0 18
E01  27786123.711 6  27786119.691 8 146017030.056 6 110460915.418 8        37.300          48.900
E03  25530160.930 7  25530164.125 9 134161900.976 7 101492616.656 9        45.500          54.700
E08  21667002.438 8  21667003.895 9 113860866.979 8  86134979.646 9        50.200          58.500
E26  24377480.547 7  24377484.480 8 128104526.145 7  96910259.136 8        43.200          53.100
G01  20695034.273 8  20695039.617 7  20695039.023 8  20695037.934 8 108753120.612 8  84742731.892 7  84742726.896 8  81211776.128 8        51.500          42.100          48.800          53.800
G03  21605026.125 8  21605030.914 6  21605030.570 7  21605031.281 8 113535064.832 8  88468993.989 6  88468988.979 7  84782776.635 8        49.200          38.600          46.100          51.500
G08  20721137.508 8  20721141.848 7  20721142.031 8  20721141.277 8 108890275.222 8  84849615.614 7  84849611.610 8  81314206.339 8        52.300          42.500          48.800          53.500
G11  20155131.711 8  20155133.535 6                                 105915930.399 8  82531899.092 6                                        48.200          38.600
G14  22365920.094 7  22365922.281 5                                 117533649.731 7  91584712.279 5                                        47.200          33.700
G18  20018818.305 8  20018820.699 6                                 105199597.770 8  81973725.545 6                                        48.300          39.800
G22  20572233.344 7  20572233.398 6                                 108107814.105 7  84239855.038 6                                        47.200          40.600
G27  23315704.297 6  23315709.320 4  23315709.496 7  23315710.043 8 122524824.443 6  95473933.556 4  95473931.566 7  91495846.745 8        41.500          28.500          44.300          49.500
G28  23119021.867 7  23119023.320 4                                 121491276.660 7  94668534.577 4                                        42.800          26.700
G32  22909851.273 7  22909855.910 5  22909855.383 7  22909854.520 8 120392055.999 7  93812030.184 5  93812028.186 7  89903190.408 8        44.200          33.300          45.500          50.200
R04  21725213.266 7  21725217.109 7 116337532.252 7  90484749.317 7        44.500          43.500
R06  21204860.555 5                 113153116.171 5                        33.100
R20  19514392.938 7  19514397.387 7 104352220.244 7  81162840.555 7        44.300          47.700
R21  21564122.516 7  21564125.590 7 115393880.522 7  89750872.568 7        47.200          43.300
> 2018 04 26 22 00 30.0000000  0 18
E01  27788279.344 6  27788283.129 8 146028398.916 6 110469515.875 8        37.800          48.500
E03  25536607.242 7  25536610.172 9 134195774.726 7 101518241.944 9        44.700          54.500
E08  21658106.234 8  21658107.918 9 113814117.898 8  86099614.284 9        49.000          58.500
E26  24360974.422 7  24360978.832 8 128017787.876 7  96844642.235 8        43.400          53.000
G01  20684784.531 8  20684790.020 6  20684789.340 7  20684788.688 8 108699259.924 8  84700762.532 6  84700757.529 7  81171555.495 8        51.100          41.400          47.200          53.900
G03  21586973.477 8  21586978.703 6  21586978.758 7  21586979.246 8 113440200.380 8  88395073.650 6  88395068.646 7  84711936.315 8        49.500          38.400          47.400          51.100
G08  20727120.188 8  20727125.094 7  20727125.156 8  20727124.527 8 108921714.745 8  84874113.949 7  84874109.944 8  81337683.898 8        52.600          42.600          48.100          53.700
G11  20145101.531 8  20145103.063 6                                 105863219.682 8  82490825.805 6                                        48.400          39.400
G14  22357592.625 7  22357595.250 5                                 117489889.428 7  91550613.368 5                                        45.900          32.800
G18  20016083.344 8  20016086.023 6                                 105185225.350 8  81962526.256 6                                        48.800          39.900
G22  20563260.180 8  20563259.926 6                                 108060659.788 8  84203111.424 6                                        48.400          40.600
G27  23331337.313 6  23331341.277 4  23331341.492 7  23331340.594 8 122606973.605 6  95537945.870 4  95537943.881 7  91557191.871 8        41.800          29.100          44.700          48.300
G28  23111843.758 7  23111845.895 4                                 121453559.744 7  94639144.774 4                                        42.600          27.500
G32  22911413.445 7  22911419.359 5  22911419.293 7  22911417.852 8 120400270.859 7  93818431.389 5  93818429.393 7  89909324.872 8        42.700          33.100          46.700          49.300
R04  21741773.094 7  21741776.250 7 116426202.576 7  90553715.115 7        45.400          43.800
R06  21180114.078 5                 113021062.908 5                        34.300
R20  19508926.281 7  19508931.352 7 104322988.395 7  81140104.674 7        43.600          47.400
R21  21542196.305 7  21542199.445 7 115276546.858 7  89659613.100 7        47.100          44.000
> 2018 04 26 22 01 00.0000000  0 18
E01  27790520.906 6  27790524.148 7 146040176.158 6 110478425.332 7        38.100          47.500
E03  25543119.547 7  25543122.648 9 134229998.003 7 101544131.627 9        45.300          54.400
E08  21649295.414 8  21649296.793 9 113767814.583 8  86064586.148 9        49.700          58.600
E26  24344479.570 7  24344483.625 8 127931105.059 7  96779067.282 8        43.700          53.200
G01  20674589.367 8  20674594.680 6  20674594.238 8  20674593.523 9 108645681.448 8  84659013.077 6  84659008.066 8  81131545.609 9        50.500          41.400          48.800          54.100
G03  21568997.258 8  21569002.547 6  21569002.816 8  21569002.914 8 113345733.592 8  88321463.180 6  88321458.182 8  84641392.944 8        50.100          39.600          48.100          51.000
G08  20733200.938 8  20733205.832 7  20733206.023 8  20733205.027 8 108953668.382 8  84899012.878 7  84899008.889 8  81361545.372 8        51.900          43.600          50.200          53.800
G11  20135154.156 7  20135155.367 6                                 105810946.308 7  82450093.308 6                                        47.800          39.000
G14  22349370.563 7  22349372.824 5                                 117446683.532 7  91516946.468 5                                        44.900          32.400
G18  20013418.789 8  20013421.285 6                                 105171220.565 8  81951613.441 6                                        48.200          40.000
G22  20554375.203 7  20554374.805 6                                 108013968.487 7  84166728.598 6                                        47.800          40.200
G27  23347015.320 7  23347019.750 5  23347019.301 7  23347019.535 8 122689358.688 7  95602142.047 5  95602140.050 7  91618713.188 8        43.800          32.600          45.500          50.200
G28  23104771.992 7  23104774.238 4                                 121416395.789 7  94610185.860 4                                        42.800          26.900
G32  22913091.273 7  22913096.195 5  22913096.082 7  22913095.391 8 120409083.784 7  93825298.614 5  93825296.618 7  89915905.972 8        43.100          33.100          45.400          49.500
R04  21758403.680 7  21758406.973 7 116515259.550 7  90622981.644 7        44.900          43.900
R06  21155451.438 5                 112889461.555 5                        33.100
R20  19503554.180 7  19503558.738 7 104294261.551 7  81117761.576 7        44.000          47.000
R21  21520296.570 7  21520300.996 7 115159364.290 7  89568471.127 7        46.700          44.300
> 2018 04 26 22 01 30.0000000  0 18
E01  27792840.367 6  27792843.402 7 146052364.195 6 110487645.478 7        38.900          47.400
E03  25549698.898 7  25549702.066 9 134264572.780 7 101570287.228 9        44.900          54.500
E08  21640569.750 8  21640571.035 9 113721961.016 8  86029898.229 9        50.200          58.600
E26  24327995.742 7  24327999.637 8 127844481.955 7  96713537.514 8        44.400          53.300
G01  20664447.961 8  20664453.363 7  20664453.207 8  20664452.617 9 108592389.136 8  84617486.618 7  84617481.630 8  81091749.421 9        49.100          42.000          49.500          54.300
G03  21551097.500 8  21551102.809 6  21551102.500 7  21551103.121 8 113251669.046 8  88248166.146 6  88248161.149 7  84571149.956 8        49.800          38.900          47.500          51.400
G08  20739379.359 8  20739384.316 7  20739384.758 8  20739383.223 8 108986138.634 8  84924314.362 7  84924310.365 8  81385792.637 8        51.800          43.200          50.000          53.300
G11  20125290.578 7  20125292.305 6                                 105759115.058 7  82409705.326 6                                        46.200          39.600
G14  22341254.953 7  22341257.355 5                                 117404036.831 7  91483715.269 5                                        44.000          31.400
G18  20010824.023 8  20010827.270 6                                 105157587.221 8  81940990.053 6                                        48.300          40.000
G22  20545578.750 8  20545578.547 6                                 107967743.980 8  84130709.509 6                                        48.200          40.800
G27  23362737.398 7  23362741.711 5  23362741.738 7  23362742.313 8 122771981.496 7  95666523.451 5  95666521.455 7  91680412.057 8        44.100          32.000          44.600          49.900
G28  23097805.469 7  23097807.969 4                                 121379788.787 7  94581660.940 4                                        42.100          26.100
G32  22914882.508 7  22914887.379 5  22914887.492 7  22914886.340 8 120418497.521 7  93832633.979 5  93832631.983 7  89922935.701 8        42.400          32.800          45.200          49.800
R04  21775106.266 7  21775109.852 7 116604702.615 7  90692548.470 7        44.300          43.800
R06  21130875.508 5                 112758318.991 5                        33.300
R20  19498277.445 7  19498282.723 8 104266044.950 7  81095815.326 8        43.700          48.300
R21  21498427.492 7  21498431.699 7 115042338.834 7  89477451.374 7        46.700          44.200
> 2018 04 26 22 02 00.0000000  0 18
E01  27795235.539 6  27795237.855 7 146064947.228 6 110497164.483 7        38.700          47.500
E03  25556342.156 7  25556345.223 9 134299483.185 7 101596696.728 9        45.600          54.600
E08  21631927.148 8  21631928.465 9 113676543.093 8  85995539.872 9        50.400          58.600
E26  24311520.031 7  24311524.516 8 127757904.791 7  96648042.487 8        43.300          53.500
G01  20654358.703 8  20654364.152 6  20654363.691 7  20654363.172 9 108539369.023 8  84576172.256 6  84576167.268 7  81052156.492 9        50.400          41.300          47.500          54.300
G03  21533271.406 8  21533276.543 6  21533276.684 7  21533276.734 8 113157993.344 8  88175172.095 6  88175167.084 7  84501197.323 8        49.300          39.400          45.700          51.200
G08  20745653.797 8  20745658.910 7  20745659.680 8  20745657.930 8 109019110.436 8  84950006.674 7  84950002.677 8  81410414.441 8        51.200          42.600          48.400          53.300
G11  20115509.328 7  20115510.727 6                                 105707713.222 7  82369651.965 6                                        47.100          38.900
G14  22333243.086 7  22333245.891 5                                 117361936.204 7  91450909.592 5                                        44.400          30.000
G18  20008297.836 8  20008300.480 6                                 105144311.159 8  81930645.076 6                                        48.800          40.200
G22  20536868.820 8  20536868.215 6                                 107921971.083 8  84095042.326 6                                        48.000          40.900
G27  23378502.477 7  23378507.047 5  23378506.766 7  23378505.715 8 122854825.763 7  95731077.422 5  95731075.415 7  91742276.274 8        44.900          32.100          45.300          49.000
G28  23090942.867 6  23090945.270 4                                 121343724.390 6  94553558.819 4                                        41.200          27.600
G32  22916785.125 7  22916790.184 5  22916790.059 7  22916789.027 8 120428496.840 7  93840425.671 5  93840423.667 7  89930402.725 8        43.200          33.700          45.400          49.900
R04  21791878.297 7  21791880.891 7 116694513.001 7  90762400.987 7        44.700          43.700
R06  21106384.844 5                 112627623.857 5                        33.700
R20  19493093.383 7  19493099.395 7 104238325.965 7  81074256.115 7        43.600          47.900
R21  21476586.258 7  21476590.008 7 114925458.314 7  89386544.319 7        46.000          43.400
> 2018 04 26 22 02 30.0000000  0 18
E01  27797701.078 6  27797705.551 7 146077914.894 6 110506974.447 7        37.500          46.800
E03  25563047.102 7  25563050.391 9 134334718.739 7 101623352.191 9        45.300          54.200
E08  21623365.414 8  21623366.719 9 113631552.134 8  85961504.505 9        50.100          58.700
E26  24295052.961 7  24295056.703 8 127671365.122 7  96582575.828 8        44.500          53.400
G01  20644319.297 8  20644324.672 6  20644324.039 7  20644323.457 9 108486612.452 8  84535063.246 6  84535058.242 7  81012760.356 9        49.900          41.200          47.600          54.100
G03  21515518.109 8  21515522.777 6  21515523.074 7  21515523.203 8 113064698.374 8  88102474.741 6  88102469.737 7  84431529.026 8        50.500          39.600          47.900          51.400
G08  20752021.797 8  20752026.766 7  20752026.918 8  20752026.195 8 109052573.782 8  84976082.005 7  84976078.008 8  81435403.291 8        51.500          43.300          48.100          53.300
G11  20105807.773 7  20105809.234 6                                 105656732.947 7  82329927.076 6                                        47.300          38.100
G14  22325334.086 7  22325336.563 4                                 117320373.604 7  91418523.172 4                                        42.100          29.800
G18  20005837.414 8  20005840.430 6                                 105131383.190 8  81920571.330 6                                        48.400          40.200
G22  20528242.633 7  20528242.359 6                                 107876640.624 7  84059719.896 6                                        47.700          40.400
G27  23394307.188 7  23394311.234 5  23394311.465 7  23394311.602 8 122937880.607 7  95795795.494 5  95795793.487 7  91804297.769 8        44.700          33.500          45.300          49.500
G28  23084181.789 7  23084183.434 4                                 121308193.835 7  94525872.677 4                                        42.200          27.200
G32  22918797.789 7  22918802.176 5  22918802.227 7  22918801.492 8 120439071.898 7  93848665.988 5  93848663.980 7  89938299.703 8        43.700          33.600          45.100          50.200
R04  21808714.867 7  21808718.203 7 116784677.347 7  90832528.802 7        44.300          43.400
R06  21081972.719 5                 112497369.770 5                        33.300
R20  19488001.969 7  19488006.508 7 104211097.134 7  81053078.146 7        44.100          46.800
R21  21454769.469 7  21454772.992 7 114808715.827 7  89295744.637 7        45.500          43.400
> 2018 04 26 22 03 00.0000000  0 18
E01  27800242.734 6  27800246.371 7 146091268.039 6 110517076.035 7        38.100          46.600
E03  25569814.055 7  25569817.402 9 134370280.029 7 101650254.083 9        45.500          54.100
E08  21614885.414 8  21614886.828 9 113586990.648 8  85927794.043 9        49.700          58.700
E26  24278592.156 7  24278596.332 8 127584865.896 7  96517139.766 8        44.500          53.500
G01  20634330.859 8  20634336.320 6  20634336.129 8  20634335.109 9 108434122.024 8  84494161.639 6  84494156.643 8  80973562.986 9        50.000          41.700          49.400          54.500
G03  21497837.969 8  21497842.391 6  21497842.859 8  21497843.051 8 112971787.348 8  88030076.544 6  88030071.540 8  84362147.429 8        50.500          39.700          48.100          51.400
G08  20758483.266 8  20758488.598 7  20758488.770 8  20758487.441 8 109086529.820 8  85002541.264 7  85002537.259 8  81460760.088 8        51.400          43.100          50.300          53.600
G11  20096187.883 7  20096189.461 6                                 105606177.668 7  82290533.358 6                                        46.600          38.900
G14  22317528.422 7  22317530.484 4                                 117279352.804 7  91386558.904 4                                        43.600          28.500
G18  20003444.484 8  20003447.219 6                                 105118805.764 8  81910770.738 6                                        50.000          40.600
G22  20519700.805 8  20519701.078 6                                 107831754.161 8  84024743.435 6                                        49.200          41.000
G27  23410152.031 7  23410156.547 5  23410156.262 7  23410155.859 8 123021146.495 7  95860677.990 5  95860676.001 7  91866476.836 8        45.400          32.100          43.600          49.300
G28  23077523.570 7  23077525.105 4                                 121273199.545 7  94498604.398 4                                        42.700          25.800
G32  22920919.438 7  22920924.891 5  22920925.172 7  22920923.973 8 120450224.014 7  93857355.923 5  93857353.916 7  89946627.568 8        42.500          32.600          45.400          50.600
R04  21825618.984 7  21825622.262 7 116875194.562 7  90902931.068 7        45.000          44.000
R06  21057649.969 5                 112367562.184 5                        33.700
R20  19483002.023 7  19483007.047 7 104184362.250 7  81032284.335 7        43.800          47.500
R21  21432980.055 7  21432983.516 7 114692116.130 7  89205056.034 7        47.300          43.400
> 2018 04 26 22 03 30.0000000  0 17
E03  25576640.813 7  25576644.074 9 134406154.451 7 101677392.851 9        45.500          54.000
E08  21606485.336 8  21606486.809 9 113542847.789 8  85894400.268 9        49.600          58.700
E26  24262137.906 7  24262141.723 8 127498396.612 7  96451726.352 8        45.200          53.500
G01  20624390.906 8  20624396.223 6  20624395.758 8  20624395.246 9 108381887.032 8  84453459.051 6  84453454.055 8  80934556.338 9        50.300          41.800          48.300          54.100
G03  21480228.281 8  21480233.328 6  21480233.316 7  21480233.988 8 112879250.028 8  87957969.561 6  87957964.564 7  84293044.900 8        50.800          39.300          47.000          51.600
G08  20765036.000 8  20765041.465 7  20765041.672 8  20765040.484 8 109120966.688 8  85029375.167 7  85029371.163 8  81486475.912 8        50.800          42.900          50.300          53.400
G11  20086646.477 8  20086647.887 6                                 105556037.940 8  82251463.445 6                                        48.200          39.200
G14  22309823.516 6  22309825.414 4                                 117238863.425 6  91355008.769 4                                        41.700          28.600
G18  20001115.508 8  20001118.180 6                                 105106567.942 8  81901234.775 6                                        48.900          40.200
G22  20511241.648 8  20511241.758 6                                 107787300.562 8  83990104.270 6                                        48.200          41.100
G27  23426034.617 7  23426038.496 4  23426038.734 7  23426038.750 8 123104610.351 7  95925714.788 4  95925712.799 7  91928803.775 8        43.100          29.400          43.400          48.500
G28  23070963.508 7  23070965.250 4                                 121238730.449 7  94471745.364 4                                        42.200          25.800
G32  22923148.961 6  22923154.230 5  22923154.277 7  22923153.602 8 120461941.095 6  93866486.149 5  93866484.142 7  89955377.357 8        41.800          32.700          44.200          50.300
R04  21842585.109 7  21842588.125 7 116966048.677 7  90973595.379 7        45.300          43.600
R06  21033405.188 5                 112238192.518 5                        33.900
R20  19478092.234 7  19478098.750 8 104158112.025 7  81011867.496 8        44.100          48.900
R21  21411215.594 7  21411219.902 7 114575650.318 7  89114471.530 7        46.600          43.700
> 2018 04 26 22 04 00.0000000  0 17
E03  25583526.000 7  25583529.445 8 134442337.139 7 101704764.819 8        45.000          53.900
E08  21598164.570 8  21598165.910 9 113499120.532 8  85861320.900 9        49.600          58.700
E26  24245688.742 7  24245692.438 8 127411954.547 7  96386333.524 8        44.600          53.400
G01  20614498.563 8  20614504.082 6  20614503.793 7  20614503.105 9 108329904.510 8  84412953.203 6  84412948.192 7  80895738.240 9        50.100          41.500          47.000          54.400
G03  21462690.023 8  21462694.824 6  21462694.770 7  21462695.719 8 112787084.025 8  87886151.920 6  87886146.917 7  84224219.669 8        49.500          39.300          46.200          51.900
G08  20771680.570 8  20771685.395 7  20771685.820 7  20771685.000 8 109155880.015 8  85056580.354 7  85056576.358 7  81512547.555 8        49.300          42.700          47.600          53.800
G11  20077183.602 8  20077185.184 6                                 105506311.585 8  82212715.627 6                                        48.000          39.000
G14  22302219.227 7  22302221.508 4                                 117198903.281 7  91323871.008 4                                        43.200          29.200
G18  19998850.844 8  19998853.121 6                                 105094666.251 8  81891960.729 6                                        49.500          39.500
G22  20502864.234 8  20502863.945 6                                 107743276.287 8  83955799.649 6                                        49.300          41.100
G27  23441954.305 7  23441958.531 5  23441958.227 7  23441957.609 8 123188267.090 7  95990901.840 5  95990899.828 7  91991274.695 8        45.300          31.900          44.300          48.000
G28  23064503.219 6  23064505.355 4                                 121204783.528 6  94445293.236 4                                        41.700          27.100
G32  22925485.617 7  22925490.492 5  22925490.375 7  22925489.512 8 120474218.873 7  93876053.250 5  93876051.249 7  89964545.827 8        43.700          33.300          46.600          50.000
R04  21859613.750 7  21859616.523 7 117057232.781 7  91044516.350 7        44.400          43.300
R06  21009241.859 5                 112109261.115 5                        34.700
R20  19473274.664 7  19473279.605 7 104132344.643 7  80991826.199 7        44.100          47.700
R21  21389476.250 7  21389480.297 7 114459317.352 7  89023990.360 7        45.700          43.000
> 2018 04 26 22 04 30.0000000  0 17
E03  25590470.563 7  25590473.578 8 134478829.360 7 101732370.962 8        44.800          53.800
E08  21589923.211 8  21589924.602 9 113455811.938 8  85828558.234 9        50.200          58.600
E26  24229244.906 7  24229248.840 8 127325543.121 7  96320963.888 8        45.100          53.600
G01  20604655.805 8  20604660.941 6  20604660.715 8  20604659.844 9 108278177.670 8  84372646.577 6  84372641.566 8  80857111.064 9        50.000          41.700          48.100          54.300
G03  21445222.383 8  21445227.891 6  21445227.574 7  21445228.375 8 112695293.063 8  87814626.494 6  87814621.490 7  84155674.481 8        50.100          39.800          47.400          51.600
G08  20778415.047 8  20778419.973 7  20778420.145 8  20778419.520 8 109191271.361 8  85084158.027 7  85084154.030 8  81538976.153 8        50.900          42.400          48.800          53.500
G11  20067800.266 8  20067802.219 6                                 105457002.969 8  82174293.341 6                                        48.500          38.600
G14  22294717.047 7  22294718.242 4                                 117159476.367 7  91293148.756 4                                        42.700          29.100
G18  19996650.586 8  19996653.117 6                                 105083103.936 8  81882951.143 6                                        49.400          39.900
G22  20494568.680 8  20494568.500 6                                 107699683.134 8  83921830.970 6                                        49.000          40.500
G27  23457910.063 6  23457915.852 4  23457914.973 7  23457914.520 7 123272117.597 6  96056239.945 4  96056237.951 7  92053890.347 7        41.500          29.700          44.700          47.200
G28  23058142.977 6  23058145.238 4                                 121171361.365 6  94419250.002 4                                        41.700          26.900
G32  22927929.203 7  22927934.707 5  22927934.273 7  22927933.316 8 120487059.257 7  93886058.752 5  93886056.741 7  89974134.428 8        43.600          33.700          46.900          50.300
R04  21876701.992 7  21876705.582 7 117148745.281 7  91115692.715 7        44.800          43.300
R06  20985163.500 5                 111980773.468 5                        34.700
R20  19468547.102 7  19468551.973 7 104107064.774 7  80972164.077 7        43.600          47.400
R21  21367761.977 7  21367766.148 7 114343122.758 7  88933616.813 7        47.000          43.800
> 2018 04 26 22 05 00.0000000  0 18
E03  25597475.375 7  25597478.617 8 134515640.479 7 101760218.332 8        45.100          53.700
E07  25752504.430 7  25752507.645 9 135330318.952 7 102376482.640 9        45.800          54.400
E08  21581763.633 8  21581765.289 9 113412933.167 8  85796120.732 9        50.000          58.700
E26  24212809.766 7  24212813.336 8 127239174.053 7  96255626.272 8        45.100          53.300
G01  20594863.297 8  20594868.066 6  20594867.566 8  20594867.320 9 108226717.867 8  84332548.039 6  84332543.043 8  80818683.296 9        49.400          41.700          49.100          54.600
G03  21427828.938 8  21427834.141 6  21427834.125 7  21427834.508 8 112603888.947 8  87743402.530 6  87743397.525 7  84087418.176 8        49.800          39.500          47.500          51.400
G08  20785242.664 8  20785247.383 7  20785247.578 8  20785246.344 8 109227150.772 8  85112116.006 7  85112112.010 8  81565769.220 8        49.400          42.700          50.500          53.300
G11  20058499.422 7  20058500.844 6                                 105408124.202 7  82136205.996 6                                        46.000          38.600
G14  22287317.766 7  22287319.988 5                                 117120594.744 7  91262851.395 5                                        43.300          30.600
G18  19994516.836 8  19994519.488 6                                 105071891.807 8  81874214.419 6                                        49.500          40.100
G22  20486357.172 8  20486356.840 6                                 107656532.263 8  83888206.917 6                                        48.500          41.600
G27  23473905.055 7  23473908.234 4  23473908.566 6  23473909.074 7 123356170.953 7  96121736.044 4  96121734.047 6  92116657.470 7        44.400          28.500          41.800          46.700
G28  23051885.078 6  23051887.063 4                                 121138475.218 6  94393624.460 4                                        41.100          26.200
G32  22930481.617 7  22930485.918 5  22930486.164 7  22930485.406 8 120500472.172 7  93896510.369 5  93896508.361 7  89984150.586 8        43.200          34.000          45.500          50.000
R04  21893854.719 7  21893857.430 7 117240593.872 7  91187130.503 7        45.000          43.200
R06  20961171.203 5                 111852743.599 5                        34.000
R20  19463913.047 7  19463918.410 7 104082285.102 7  80952891.001 7        43.700          47.300
R21  21346076.891 7  21346081.383 7 114227079.959 7  88843361.349 7        46.800          44.600
> 2018 04 26 22 05 30.0000000  0 18
E03  25604540.719 7  25604543.707 8 134552768.442 7 101788305.395 8        45.100          53.900
E07  25732325.445 7  25732329.672 9 135224281.836 7 102296266.249 9        44.900          54.500
E08  21573685.891 8  21573687.301 9 113370483.968 8  85764008.196 9        50.600          58.700
E26  24196382.422 7  24196385.828 8 127152847.359 7  96190320.722 8        45.000          53.300
G01  20585121.164 8  20585126.375 6  20585126.266 8  20585125.691 9 108175524.967 8  84292657.469 6  84292652.465 8  80780454.831 9        49.800          41.600          49.500          54.800
G03  21410509.289 8  21410513.684 6  21410513.734 7  21410514.523 8 112512872.071 8  87672480.289 6  87672475.285 7  84019451.036 8        50.300          39.600          46.400          51.900
G08  20792162.789 8  20792167.734 7  20792167.984 8  20792166.754 8 109263516.841 8  85140453.197 7  85140449.201 8  81592925.695 8        50.300          42.300          49.500          53.400
G11  20049279.891 7  20049281.277 6                                 105359676.009 7  82098454.150 6                                        47.100          38.300
G14  22280023.445 7  22280025.559 5                                 117082258.971 7  91232979.377 5                                        43.700          31.400
G18  19992450.016 8  19992452.160 6                                 105061029.495 8  81865750.281 6                                        49.500          40.100
G22  20478229.766 8  20478229.754 6                                 107613822.950 8  83854926.938 6                                        48.800          41.300
G27  23489938.797 7  23489943.652 4  23489943.883 7  23489942.148 7 123440424.792 7  96187388.388 4  96187386.368 7  92179574.295 7        44.100          28.700          44.300          45.600
G28  23045729.516 6  23045730.711 4                                 121106124.595 6  94368416.191 4                                        41.500          26.700
G32  22933142.578 7  22933148.004 5  22933147.750 7  22933146.789 8 120514456.080 7  93907406.931 5  93907404.923 7  89994593.120 8        42.900          33.900          45.700          50.400
R04  21911068.563 7  21911071.488 7 117332773.920 7  91258826.113 7        46.500          44.100
R06  20937265.172 5                 111725174.274 5                        34.700
R20  19459372.758 7  19459378.488 8 104058007.075 7  80934008.097 8        43.800          48.800
R21  21324420.000 7  21324424.625 7 114111191.100 7  88753225.588 7        47.200          43.400
> 2018 04 26 22 06 00.0000000  0 18
E03  25611662.156 7  25611665.027 9 134590191.289 7 101816615.536 9        45.200          54.200
E07  25712178.742 7  25712182.352 9 135118407.425 7 102216172.964 9        45.600          55.000
E08  21565685.844 8  21565687.250 9 113328444.180 8  85732205.374 9        50.000          58.800
E26  24179958.516 7  24179962.500 8 127066543.364 7  96125032.340 8        45.500          53.200
G01  20575426.648 8  20575432.133 6  20575431.535 7  20575431.094 9 108124578.993 8  84252959.310 6  84252954.306 7  80742410.768 9        49.500          41.200          46.900          54.500
G03  21393258.633 8  21393264.074 6  21393264.090 7  21393264.383 8 112422222.912 8  87601844.590 6  87601839.592 7  83951758.496 8        49.900          40.200          46.800          51.800
G08  20799171.828 8  20799176.449 7  20799176.332 7  20799175.938 8 109300348.102 8  85169152.875 7  85169148.878 7  81620429.555 8        50.500          42.200          47.300          53.600
G11  20040139.023 7  20040140.105 6                                 105311639.126 7  82061022.821 6                                        47.100          39.000
G14  22272827.914 7  22272830.469 5                                 117044449.737 7  91203517.653 5                                        43.800          30.600
G18  19990445.641 8  19990447.871 6                                 105050496.729 8  81857542.936 6                                        48.900          39.700
G22  20470182.266 7  20470182.430 6                                 107571533.910 7  83821974.459 6                                        47.600          41.800
G27  23506004.578 6  23506010.184 4  23506009.754 6  23506010.316 7 123524856.807 6  96253179.591 4  96253177.602 6  92242624.188 7        41.100          26.100          41.200          45.700
G28  23039671.281 7  23039673.180 4                                 121074289.202 7  94343609.410 4                                        43.100          25.300
G32  22935908.172 6  22935913.559 5  22935913.516 7  22935912.461 8 120528989.589 6  93918731.760 5  93918729.756 7  90005446.071 8        41.900          33.300          47.400          50.200
R04  21928340.188 7  21928342.938 7 117425260.573 7  91330760.161 7        44.600          43.800
R06  20913442.898 5                 111598047.838 5                        35.700
R20  19454923.203 7  19454928.641 7 104034211.540 7  80915500.454 7        43.900          47.800
R21  21302789.445 7  21302793.570 7 113995437.880 7  88663195.336 7        47.300          43.500
> 2018 04 26 22 06 30.0000000  0 18
E03  25618837.609 7  25618840.938 9 134627900.268 7 101845142.145 9        45.100          54.000
E07  25692061.617 7  25692064.930 9 135012690.030 7 102136198.434 9        45.600          55.300
E08  21557762.570 8  21557763.855 9 113286806.805 8  85700706.982 9        49.700          58.900
E26  24163538.922 7  24163542.543 8 126980255.566 7  96059756.212 8        45.200          53.200
G01  20565777.609 8  20565783.309 6  20565782.453 8  20565782.445 9 108073873.129 8  84213448.265 6  84213443.269 8  80704546.018 9        49.600          41.700          48.600          54.600
G03  21376077.797 8  21376082.914 6  21376082.742 7  21376083.168 8 112331935.094 8  87531490.456 6  87531485.459 7  83884335.787 8        50.200          39.600          47.800          51.900
G08  20806267.414 8  20806272.168 7  20806272.301 8  20806271.891 8 109337636.111 8  85198208.458 7  85198204.453 8  81648274.485 8        49.800          42.400          48.900          53.700
G11  20031074.781 7  20031076.484 6                                 105264008.144 7  82023907.776 6                                        47.300          39.000
G14  22265731.523 7  22265734.098 5                                 117007160.522 7  91174461.136 5                                        44.100          30.500
G18  19988502.438 8  19988504.859 6                                 105040286.224 8  81849586.695 6                                        50.000          39.500
G22  20462213.898 8  20462213.348 6                                 107529657.334 8  83789343.367 6                                        49.500          41.000
G27  23522103.461 6  23522107.754 3  23522107.996 6  23522108.473 7 123609457.962 6  96319102.558 3  96319100.554 6  92305800.401 7        39.600          21.800          40.700          44.000
G28  23033709.289 6  23033711.457 4                                 121042961.781 6  94319198.457 4                                        41.500          26.600
G32  22938777.375 7  22938782.305 5  22938781.984 7  22938781.031 8 120544064.414 7  93930478.375 5  93930476.372 7  90016703.247 8        43.200          33.800          46.300          50.100
R04  21945665.242 7  21945669.336 7 117518042.509 7  91402923.893 7        44.300          44.000
R06  20889702.125 6                 111471359.630 6                        36.000
R20  19450562.438 7  19450567.500 7 104010892.814 7  80897363.675 7        43.800          47.300
R21  21281182.094 7  21281186.543 7 113879815.365 7  88573266.738 7        46.700          44.500
> 2018 04 26 22 07 00.0000000  0 18
E03  25925860.133 7  25925863.375 9 136241314.315 7 103065679.396 9        44.800          54.000
E07  25971767.430 7  25971771.063 9 136482556.424 7 103248142.810 9        45.100          55.600
E08  21849708.750 8  21849710.086 9 114820995.155 8  86861310.517 9        49.800          59.000
E26  24446915.227 7  24446918.867 8 128469409.259 7  97186291.331 8        45.600          53.100
G01  20855967.430 8  20855972.660 6  20855972.387 8  20855971.973 9 109598831.268 8  85401727.348 6  85401722.359 8  81843313.474 9        49.300          41.700          48.900          54.600
G03  21658758.742 8  21658763.836 6  21658763.617 7  21658764.262 8 113817434.249 8  88689022.290 6  88689017.278 7  84993637.130 8        50.200          39.400          47.800          51.500
G08  21113242.602 8  21113247.273 7  21113247.684 8  21113246.469 8 110950800.641 8  86455219.772 7  86455215.770 8  82852910.333 8        50.600          42.300          50.200          53.500
G11  20321881.930 7  20321882.715 6                                 106792207.171 7  83214712.221 6                                        46.200          38.900
G14  22558528.320 7  22558530.605 5                                 118545815.515 7  92373413.089 5                                        45.400          30.800
G18  20286413.945 8  20286416.652 6                                 106605820.359 8  83069483.433 6                                        49.200          39.900
G22  20754116.281 8  20754116.020 6                                 109063616.260 8  84984636.040 6                                        49.000          41.600
G27  23838026.203 6  23838031.645 3  23838031.832 6  23838030.898 7 125269645.367 6  97612755.062 3  97612753.035 6  93545550.689 7        36.500          21.300          39.800          42.000
G28  23327637.656 6  23327640.109 4                                 122587565.183 6  95522785.512 4                                        41.800          26.500
G32  23241541.102 7  23241546.188 5  23241546.004 7  23241545.676 8 122135100.758 7  95170246.941 5  95170244.938 7  91204814.791 8        43.900          33.200          45.700          50.500
R04  22262838.227 7  22262842.301 7 119216489.595 7  92723938.286 7        43.700          43.900
R06  21165836.313 6                 112944868.621 6                        36.500
R20  19746084.258 7  19746089.523 7 105591180.072 7  82126475.983 7        43.700          47.700
R21  21559394.922 8  21559398.879 7 115368581.813 8  89731196.217 7        48.200          44.900
> 2018 04 26 22 07 30.0000000  0 18
E03  25933148.117 7  25933151.414 9 136279612.256 7 103094651.549 9        44.900          54.400
E07  25951715.000 7  25951718.422 9 136377178.912 7 103168425.432 9        45.900          55.600
E08  21841942.836 8  21841944.094 9 114780184.580 8  86830437.598 9        50.300          58.800
E26  24430505.930 7  24430509.633 8 128383177.250 7  97121057.425 8        45.300          53.000
G01  20846414.242 8  20846419.141 6  20846418.719 7  20846418.453 9 109548628.332 8  85362608.182 6  85362603.187 7  81805824.279 9        50.700          41.800          47.600          54.700
G03  21641719.953 8  21641725.074 6  21641725.215 7  21641725.441 8 113727893.120 8  88619249.991 6  88619244.986 7  84926772.013 8        50.300          39.000          46.200          51.700
G08  21120515.398 8  21120519.855 6  21120520.246 7  21120519.523 8 110989020.738 8  86485001.671 6  86484997.666 7  82881451.314 8        50.000          41.100          47.900          53.500
G11  20312976.750 7  20312977.984 6                                 106745412.914 7  83178249.161 6                                        47.700          38.600
G14  22551635.148 7  22551637.258 5                                 118509591.131 7  92345186.282 5                                        44.700          30.400
G18  20284597.461 8  20284600.438 6                                 106596276.479 8  83062046.641 6                                        50.200          40.600
G22  20746308.625 8  20746308.172 6                                 109022585.513 8  84952664.039 6                                        48.400          41.100
G27  23854193.961 6  23854198.152 3  23854198.035 6  23854198.871 7 125354600.585 6  97678953.923 3  97678951.967 6  93608991.322 7        39.400          20.400          37.900          42.900
G28  23321873.883 7  23321875.422 4                                 122557275.157 7  95499182.917 4                                        42.500          25.700
G32  23244619.422 7  23244624.125 5  23244624.121 7  23244623.262 8 122151276.441 7  95182851.390 5  95182849.379 7  91216894.062 8        43.400          32.800          45.500          50.500
R04  22280278.188 7  22280281.316 7 119309872.379 7  92796569.306 7        45.100          44.000
R06  21142264.234 6                 112819087.776 6                        37.100
R20  19741906.859 7  19741912.340 8 105568841.911 7  82109101.863 8        43.600          48.800
R21  21537841.656 7  21537845.648 7 115253250.335 7  89641493.994 7        47.800          44.100
> 2018 04 26 22 08 00.0000000  0 18
E03  25940489.859 7  25940493.020 9 136318192.977 7 103123837.605 9        45.200          54.500
E07  25931693.422 7  25931696.813 9 136271964.221 7 103088831.193 9        45.500          55.500
E08  21834254.070 8  21834255.230 9 114739778.304 8  86799870.525 9        50.600          58.700
E26  24414100.695 7  24414103.766 8 128296964.845 7  97055838.305 8        46.100          53.200
G01  20836907.266 8  20836912.367 6  20836912.020 7  20836911.914 9 109498668.115 8  85323678.150 6  85323673.140 7  81768516.336 9        51.200          41.600          47.500          54.700
G03  21624750.031 8  21624754.695 6  21624755.008 7  21624755.766 8 113638717.246 8  88549762.301 6  88549757.297 7  84860179.643 8        49.600          39.400          47.200          52.300
G08  21127875.094 8  21127879.172 6  21127879.746 7  21127878.836 8 111027695.651 8  86515137.964 6  86515133.974 7  82910331.933 8        50.300          41.700          47.000          53.500
G11  20304150.383 8  20304151.789 6                                 106699029.668 8  83142106.378 6                                        48.500          38.900
G14  22544841.148 7  22544843.754 5                                 118473891.285 7  92317368.229 5                                        44.400          31.000
G18  20282843.180 8  20282846.102 6                                 106587056.650 8  83054862.362 6                                        50.400          40.500
G22  20738579.367 8  20738578.965 6                                 108981967.760 8  84921013.859 6                                        49.600          41.400
G27  23870391.086 6  23870396.563 2  23870397.133 6  23870395.234 6 125439720.477 6  97745281.175 2  97745279.148 6  93672554.928 6        38.400          17.400          38.900          41.200
G28  23316206.469 7  23316208.832 4                                 122527494.397 7  95475977.138 4                                        43.300          25.700
G32  23247800.156 7  23247804.824 5  23247804.559 7  23247803.902 8 122167991.523 7  95195876.143 5  95195874.135 7  91229376.113 8        43.700          32.300          44.800          50.000
R04  22297769.727 7  22297773.098 7 119403539.990 7  92869421.878 7        44.300          44.200
R06  21118778.953 6                 112693755.546 6                        37.900
R20  19737819.609 7  19737824.574 7 105546986.675 7  82092103.345 7        43.900          47.600
R21  21516315.656 7  21516319.156 7 115138058.685 7  89551900.506 7        47.800          44.800
> 2018 04 26 22 08 30.0000000  0 18
E03  25947886.531 7  25947889.582 9 136357062.677 7 103153242.288 9        45.500          54.800
E07  25911703.703 7  25911707.785 9 136166921.623 7 103009367.156 9        44.200          55.200
E08  21826643.375 8  21826644.629 9 114699784.320 8  86769615.335 9        50.500          58.600
E26  24397699.953 7  24397703.445 8 128210780.482 7  96990640.437 8        44.900          53.000
G01  20827447.984 8  20827453.086 6  20827452.336 8  20827452.344 9 109448958.827 8  85284943.651 6  85284938.663 8  81731395.768 9        50.900          41.500          48.700          54.700
G03  21607851.672 8  21607856.121 6  21607856.504 7  21607857.250 8 113549915.167 8  88480565.898 6  88480560.900 7  84793866.429 8        48.900          39.200          47.400          52.100
G08  21135322.250 8  21135327.242 6  21135327.539 8  21135326.672 8 111066832.171 8  86545633.954 6  86545629.958 8  82939557.257 8        51.200          41.500          49.000          53.500
G11  20295404.227 7  20295405.352 6                                 106653066.456 7  83106290.892 6                                        47.300          39.200
G14  22538149.125 7  22538152.055 5                                 118438724.729 7  92289965.733 5                                        45.300          31.900
G18  20281152.094 8  20281154.473 6                                 106578168.747 8  83047936.725 6                                        50.200          40.200
G22  20730929.758 8  20730929.477 7                                 108941770.183 8  84889691.080 7                                        49.500          42.300
G27  23886623.594 6  23886626.648 3  23886625.891 6  23886626.078 6 125525011.272 6  97811741.477 3  97811739.436 6  93736246.057 6        39.600          18.300          36.100          40.000
G28  23310637.961 7  23310640.203 4                                 122498230.709 7  95453174.284 4                                        43.000          27.000
G32  23251084.719 7  23251089.211 5  23251089.125 7  23251088.172 8 122185252.699 7  95209326.406 5  95209324.410 7  91242265.947 8        43.400          33.000          45.900          49.500
R04  22315314.703 7  22315319.102 7 119497496.387 7  92942499.076 7        43.900          44.400
R06  21095375.945 6                 112568882.692 6                        38.000
R20  19733824.867 7  19733829.809 7 105525624.177 7  82075488.068 7        44.300          47.800
R21  21494816.898 7  21494821.211 7 115023017.414 7  89462423.999 7        47.600          44.800
> 2018 04 26 22 09 00.0000000  0 19
E03  25955338.250 7  25955341.457 9 136396222.366 7 103182866.340 9        45.500          54.500
E07  25891748.938 7  25891752.586 9 136062055.106 7 102930036.338 9        46.000          54.800
E08  21819111.531 8  21819113.047 9 114660205.298 8  86739674.066 9        49.900          58.600
E26  24381305.781 7  24381309.121 8 128124627.477 7  96925466.284 8        46.000          53.100
G01  20818036.531 8  20818041.781 6  20818041.563 8  20818041.152 9 109399503.484 8  85246407.025 6  85246402.021 8  81694464.838 9        50.500          41.800          48.700          54.800
G03  21591024.508 8  21591029.098 6  21591029.328 7  21591029.875 8 113461490.354 8  88411663.456 6  88411658.444 7  84727834.928 8        49.600          38.800          47.600          51.900
G08  21142857.734 8  21142862.453 6  21142862.660 8  21142862.000 8 111106431.788 8  86576490.798 6  86576486.802 8  82969128.399 8        50.600          41.900          49.300          53.400
G11  20286738.273 7  20286739.199 6                                 106607527.042 7  83070805.639 6                                        47.900          39.200
G14  22531559.695 7  22531561.840 5                                 118404094.663 7  92262981.277 5                                        45.100          30.900
G18  20279524.313 8  20279527.395 6                                 106569615.509 8  83041271.871 6                                        49.700          40.200
G22  20723360.742 8  20723360.227 6                                 108901994.882 8  84858697.342 6                                        49.400          41.700
G27  23902883.734 5  23902890.039 2  23902889.695 6  23902889.527 6 125610473.333 5  97878335.377 2  97878333.372 6  93800065.193 6        33.600          15.600          36.700          40.100
G28  23305169.828 7  23305170.395 4                                 122469486.444 7  95430776.167 4                                        44.100          27.200
G32  23254474.219 7  23254478.656 5  23254478.457 7  23254477.500 8 122203061.374 7  95223203.308 5  95223201.301 7  91255564.649 8        43.000          32.800          45.700          49.900
R04  22332914.734 7  22332917.695 7 119591740.663 7  93015800.161 7        44.600          43.600
R06  21072061.766 6                 112444474.978 6                        38.800
R19  22530398.789 5  22530384.656 4 120522497.866 5  93739624.689 4        31.200          26.200
R20  19729922.891 7  19729928.266 8 105504758.664 7  82059259.345 8        44.300          48.300
R21  21473347.539 7  21473351.773 7 114908131.676 7  89373068.453 7        47.400          44.700
> 2018 04 26 22 09 30.0000000  0 19
E03  25962843.672 7  25962846.707 9 136435663.196 7 103212703.076 9        44.100          54.400
E07  25871825.766 7  25871829.352 9 135957358.958 7 102850834.389 9        46.000          54.400
E08  21811657.500 8  21811659.102 9 114621034.151 8  86710041.365 9        50.100          58.800
E26  24364915.914 7  24364919.305 8 128038499.288 7  96860310.896 8        45.400          53.000
G01  20808672.750 8  20808677.656 6  20808677.395 8  20808676.910 9 109350295.241 8  85208062.952 6  85208057.949 8  81657718.438 9        50.800          41.200          48.700          54.700
G03  21574268.648 8  21574273.496 6  21574273.703 7  21574274.039 8 113373436.257 8  88343049.886 6  88343044.880 7  84662080.266 8        49.400          38.800          46.800          52.000
G08  21150480.242 8  21150484.621 6  21150484.883 7  21150484.289 8 111146486.354 8  86607702.143 6  86607698.145 7  82999039.274 8        51.000          41.600          47.800          53.500
G11  20278151.719 7  20278153.422 6                                 106562405.567 7  83035646.050 6                                        46.400          39.000
G14  22525070.523 7  22525072.887 5                                 118369995.127 7  92236410.204 5                                        45.100          31.600
G18  20277959.102 8  20277961.480 6                                 106561389.693 8  83034862.147 6                                        50.300          40.400
G22  20715870.914 8  20715870.387 6                                 108862634.140 8  84828026.638 6                                        48.400          41.100
G27  23919179.680 5  23919184.258 2  23919182.832 5  23919183.453 6 125696097.714 5  97945055.576 2  97945053.602 5  93864005.440 6        35.300          16.300          35.800          38.500
G28  23299795.820 7  23299797.473 4                                 122441254.455 7  95408777.224 4                                        42.500          26.400
G32  23257964.930 7  23257969.828 5  23257969.723 7  23257968.500 8 122221409.168 7  95237500.291 5  95237498.292 7  91269265.928 8        42.400          33.100          45.500          49.500
R04  22350566.258 7  22350568.820 7 119686261.556 7  93089316.396 7        43.300          43.700
R06  21048834.438 6                 112320527.853 6                        39.300
R19  22543607.711 5                 120593233.055 5                        31.500
R20  19726112.828 7  19726117.859 8 105484384.527 7  82043412.782 8        44.100          48.400
R21  21451906.586 7  21451910.590 7 114793396.687 7  89283830.144 7        46.400          44.400
> 2018 04 26 22 10 00.0000000  0 19
E03  25970401.781 7  25970405.023 9 136475382.213 7 103242750.256 9        45.100          54.400
E07  25851935.086 7  25851938.828 9 135852833.244 7 102771761.378 9        45.300          54.700
E08  21804280.930 8  21804282.117 9 114582269.647 8  86680716.273 9        49.800          58.900
E26  24348530.289 7  24348534.254 8 127952395.225 7  96795173.757 8        44.600          53.200
G01  20799355.563 8  20799360.461 6  20799360.156 7  20799359.832 9 109301333.165 8  85169910.694 6  85169905.691 7  81621155.858 9        51.100          41.300          47.300          54.800
G03  21557583.109 8  21557587.953 6  21557588.266 7  21557588.965 8 113285752.366 8  88274724.797 6  88274719.801 7  84596602.060 8        50.000          39.500          47.000          52.000
G08  21158188.234 8  21158192.430 6  21158192.949 7  21158192.445 8 111186992.758 8  86639265.583 6  86639261.587 7  83029287.557 8        51.400          41.400          47.600          53.800
G11  20269644.453 8  20269646.289 6                                 106517702.043 8  83000812.144 6                                        48.300          38.900
G14  22518683.008 7  22518684.578 5                                 118336425.444 7  92210252.021 5                                        46.100          32.200
G18  20276455.891 8  20276458.566 6                                 106553490.125 8  83028706.639 6                                        49.800          39.700
G22  20708459.125 8  20708458.293 6                                 108823685.772 8  84797677.277 6                                        49.900          41.600
G27  23935501.805 5                  23935502.629 3  23935506.324 5 125781881.126 5                  98011897.607 3  93928064.460 5        30.500                          22.900          35.300
G28  23294520.836 7  23294522.902 4                                 122413533.053 7  95387176.145 4                                        43.400          26.200
G32  23261558.859 7  23261563.340 5  23261563.438 7  23261562.242 8 122240293.456 7  95252215.327 5  95252213.334 7  91283367.832 8        42.200          32.500          46.500          50.100
R04  22368266.539 7  22368270.320 7 119781053.371 7  93163043.348 7        43.000          43.500
R06  21025693.313 6                 112197042.901 6                        38.600
R19  22556888.633 5  22556891.262 4 120664278.466 5  93849889.294 4        32.200          25.100
R20  19722394.695 7  19722399.996 7 105464501.924 7  82027948.539 7        43.600          47.800
R21  21430494.398 7  21430498.785 7 114678813.761 7  89194710.108 7        47.100          44.700
> 2018 04 26 22 10 30.0000000  0 18
E03  25978014.125 7  25978017.410 9 136515385.640 7 103273012.588 9        44.700          54.400
E07  25832078.953 7  25832082.426 9 135748487.156 7 102692824.261 9        45.500          54.800
E08  21796983.188 8  21796984.422 9 114543919.623 8  86651704.742 9        49.500          59.100
E26  24332151.664 7  24332155.508 8 127866323.776 7  96730061.307 8        45.200          53.000
G01  20790086.391 8  20790091.758 6  20790091.199 8  20790090.895 9 109252625.489 8  85131956.675 6  85131951.679 8  81584783.255 9        51.500          41.600          48.900          54.700
G03  21540969.289 8  21540973.875 6  21540974.102 7  21540974.832 8 113198447.158 8  88206694.778 6  88206689.768 7  84531406.638 8        49.600          39.800          47.900          52.600
G08  21165983.438 8  21165988.582 6  21165988.738 8  21165988.188 8 111227957.910 8  86671186.476 6  86671182.479 8  83059878.416 8        51.300          41.800          49.300          53.700
G11  20261219.469 8  20261220.543 6                                 106473425.271 8  82966310.770 6                                        48.300          39.000
G14  22512396.891 7  22512399.473 5                                 118303394.075 7  92184513.297 5                                        46.000          32.100
G18  20275016.070 8  20275018.699 6                                 106545924.483 8  83022811.334 6                                        50.000          40.200
G22  20701127.469 8  20701127.180 7                                 108785157.604 8  84767655.342 7                                        49.600          42.600
G27  23951858.156 5                  23951865.438 6  23951858.680 5 125867829.197 5                  98078870.393 6  93992246.478 5        32.900                          38.000          33.600
G28  23289344.813 7  23289346.488 4                                 122386329.859 7  95365978.854 4                                        45.100          26.400
G32  23265255.563 7  23265260.523 5  23265260.355 7  23265259.430 8 122259720.768 7  95267353.510 5  95267351.507 7  91297875.260 8        43.900          33.300          46.000          50.600
R04  22386021.008 7  22386023.492 7 119876120.274 7  93236984.267 7        43.500          43.500
R06  21002641.859 6                 112074030.521 6                        38.400
R20  19718769.602 7  19718775.336 7 105445120.083 7  82012873.771 7        43.800          47.200
R21  21409111.578 7  21409115.648 7 114564393.320 7  89105716.462 7        45.600          44.400
> 2018 04 26 22 11 00.0000000  0 18
E03  25985678.258 7  25985681.523 9 136555660.552 7 103303480.305 9        43.800          54.400
E07  25812254.320 7  25812258.465 9 135644310.925 7 102614015.633 9        45.700          55.200
E08  21789762.008 8  21789763.316 9 114505972.934 8  86622998.333 9        49.700          59.000
E26  24315777.195 7  24315780.684 8 127780274.461 7  96664965.571 8        45.200          53.200
G01  20780864.156 8  20780869.117 6  20780868.906 8  20780868.664 9 109204161.313 8  85094192.392 6  85094187.388 8  81548592.481 9        51.900          41.800          49.700          54.700
G03  21524425.805 8  21524430.633 6  21524430.668 8  21524431.000 8 113111510.141 8  88138951.650 6  88138946.639 8  84466486.135 8        49.600          39.300          48.400          52.000
G08  21173863.727 8  21173868.379 6  21173869.031 8  21173868.102 8 111269369.447 8  86703455.196 6  86703451.192 8  83090802.606 8        50.400          41.300          49.000          53.900
G11  20252873.063 7  20252874.582 6                                 106429565.459 7  82932134.287 6                                        47.500          38.900
G14  22506211.688 7  22506213.922 5                                 118270890.484 7  92159185.834 5                                        45.100          32.800
G18  20273637.742 8  20273640.125 6                                 106538681.586 8  83017167.530 6                                        50.400          40.700
G22  20693873.250 8  20693873.371 6                                 108747037.696 8  84737951.516 6                                        49.500          41.900
G27  23968244.922 5                  23968245.898 5  23968247.730 6 125953928.981 5                  98145961.090 5  94056541.769 6        32.300                          31.300          37.500
G28  23284264.648 7  23284265.977 4                                 122359633.646 7  95345176.616 4                                        44.400          26.600
G32  23269053.422 7  23269057.848 5  23269058.020 7  23269057.336 8 122279678.680 7  95282905.123 5  95282903.120 7  91312778.898 8        43.300          33.400          44.300          50.200
R04  22403822.688 7  22403825.270 7 119971446.797 7  93311127.105 7        44.800          43.300
R06  20979676.539 6                 111951482.431 6                        39.400
R20  19715237.695 7  19715242.773 8 105426229.412 7  81998181.036 8        43.300          48.100
R21  21387758.844 7  21387762.664 7 114450126.642 7  89016842.394 7        47.100          45.000
> 2018 04 26 22 11 30.0000000  0 17
E03  25993392.039 7  25993395.285 9 136596196.417 7 103334145.421 9        44.900          54.400
E07  25792461.023 7  25792464.953 9 135540297.031 7 102535329.824 9        45.000          55.200
E08  21782616.180 8  21782617.340 9 114468420.710 8  86594590.335 9        50.600          58.800
E26  24299404.531 7  24299408.680 8 127694239.003 7  96599880.345 8        45.000          53.100
G01  20771686.602 8  20771691.648 6  20771691.551 8  20771690.902 9 109155932.188 8  85056611.259 6  85056606.263 8  81512577.237 9        51.100          41.500          48.200          54.600
G03  21507950.688 8  21507955.676 6  21507955.832 7  21507956.398 8 113024933.003 8  88071488.963 6  88071483.967 7  84401834.396 8        49.900          40.000          46.900          52.200
G08  21181827.250 8  21181831.938 6  21181832.102 7  21181831.309 8 111311216.948 8  86736063.642 6  86736059.646 7  83122052.364 8        50.300          40.600          47.500          53.400
G11  20244604.570 7  20244606.457 6                                 106386114.958 7  82898276.763 6                                        47.500          38.800
G14  22500125.164 7  22500128.090 5                                 118238906.627 7  92134263.348 5                                        46.700          32.700
G18  20272319.227 8  20272321.629 6                                 106531752.739 8  83011768.427 6                                        50.500          40.400
G22  20686695.305 8  20686695.008 7                                 108709316.403 8  84708558.312 7                                        49.700          42.200
G28  23279279.305 7  23279280.531 4                                 122333435.287 7  95324762.308 4                                        44.200          27.100
G32  23272949.727 7  23272955.160 5  23272954.773 7  23272954.004 8 122300156.925 7  95298862.207 5  95298860.211 7  91328071.088 8        42.700          32.700          45.400          49.500
R04  22421669.391 7  22421672.293 6 120067020.098 7  93385461.892 6        44.500          41.500
R06  20956795.969 6                 111829392.665 6                        39.000
R20  19711794.781 7  19711800.371 8 105407822.091 7  81983864.220 8        44.100          48.300
R21  21366432.078 7  21366436.578 7 114336007.213 7  88928082.888 7        47.200          44.200
> 2018 04 26 22 12 00.0000000  0 17
E03  26001157.469 7  26001160.969 9 136637005.206 7 103365017.001 9        44.500          54.400
E07  25772701.836 7  25772705.590 9 135436460.547 7 102456778.205 9        45.200          55.500
E08  21775547.875 8  21775549.129 9 114431276.599 8  86566491.066 9        51.200          58.600
E26  24283038.492 7  24283042.109 8 127608231.727 7  96534816.435 8        45.800          53.100
G01  20762556.516 8  20762561.777 7  20762561.176 7  20762560.504 9 109107952.137 8  85019224.206 7  85019219.210 7  81476747.982 9        51.200          42.200          47.400          54.700
G03  21491546.789 8  21491552.094 6  21491551.930 7  21491552.641 8 112938730.301 8  88004318.049 6  88004313.045 7  84337462.271 8        49.600          40.000          47.300          52.100
G08  21189875.930 8  21189880.746 6  21189880.797 7  21189880.297 8 111353512.737 8  86769021.400 6  86769017.404 7  83153636.878 8        50.700          41.400          47.600          53.600
G11  20236417.008 8  20236418.301 6                                 106343088.389 8  82864749.562 6                                        48.200          38.600
G14  22494140.883 7  22494143.117 5                                 118207457.008 7  92109757.177 5                                        45.700          32.100
G18  20271063.234 8  20271065.762 6                                 106525151.493 8  83006624.610 6                                        50.500          39.500
G22  20679595.414 8  20679595.230 6                                 108672006.845 8  84679485.930 6                                        49.700          41.600
G28  23274391.172 7  23274392.152 4                                 122307747.760 7  95304746.076 4                                        44.900          27.300
G32  23276948.336 7  23276953.418 5  23276953.551 7  23276953.316 8 122321167.851 7  95315234.362 5  95315232.352 7  91343761.064 8        43.800          33.300          45.300          50.500
R04  22439565.219 7  22439568.441 7 120162850.217 7  93459996.429 7        44.500          42.300
R06  20934006.023 6                 111707777.331 6                        37.700
R20  19708446.211 7  19708451.500 7 105389913.577 7  81969935.385 7        44.200          47.600
R21  21345136.969 7  21345140.664 7 114222051.510 7  88839450.683 7        47.200          44.500
> 2018 04 26 22 12 30.0000000  0 17
E03  26008975.305 7  26008978.527 9 136678086.701 7 103396094.881 9        45.100          54.500
E07  25752976.555 7  25752980.395 9 135332804.219 7 102378362.880 9        44.900          55.400
E08  21768557.695 8  21768559.016 9 114394541.994 8  86538701.578 9        49.700          58.500
E26  24266677.961 7  24266681.254 8 127522254.736 7  96469775.413 8        45.300          53.200
G01  20753473.789 8  20753478.680 6  20753478.328 8  20753477.641 9 109060222.880 8  84982032.583 6  84982027.587 8  81441106.013 9        51.600          41.500          49.200          54.800
G03  21475214.672 8  21475219.945 6  21475219.660 8  21475220.020 8 112852903.989 8  87937440.421 6  87937435.416 8  84273371.206 8        50.200          40.900          48.900          52.200
G08  21198009.891 8  21198014.934 6  21198014.734 8  21198014.129 8 111396257.212 8  86802328.776 6  86802324.780 8  83185556.449 8        51.000          41.700          49.600          53.700
G11  20228310.414 8  20228312.117 6                                 106300488.269 8  82831554.663 6                                        48.200          39.600
G14  22488257.656 7  22488260.012 5                                 118176543.593 7  92085668.813 5                                        45.700          31.500
G18  20269869.438 8  20269871.867 6                                 106518879.340 8  83001737.220 6                                        50.200          40.300
G22  20672574.219 8  20672573.961 7                                 108635109.885 8  84650735.063 7                                        50.300          42.100
G28  23269599.648 7  23269601.789 4                                 122282572.493 7  95285129.002 4                                        42.700          26.200
G32  23281048.195 7  23281052.488 5  23281052.645 7  23281052.211 8 122342711.415 7  95332021.567 5  95332019.571 7  91359848.811 8        43.900          32.800          45.400          50.000
R04  22457508.242 7  22457511.512 7 120258934.363 7  93534728.547 7        43.200          43.400
R06  20911305.789 6                 111586640.632 6                        38.000
R20  19705190.453 7  19705196.043 7 105372506.769 7  81956396.741 7        43.900          47.700
R21  21323874.336 8  21323876.969 7 114108263.684 8  88750949.063 7        48.000          44.400
> 2018 04 26 22 13 00.0000000  0 17
E03  26016844.680 7  26016847.703 9 136719439.096 7 103427377.695 9        45.500          54.100
E07  25733286.188 7  25733289.871 9 135229329.319 7 102300084.786 9        45.500          55.300
E08  21761645.055 8  21761646.492 9 114358216.778 8  86511221.796 9        50.100          58.600
E26  24250321.969 7  24250326.109 8 127436308.570 7  96404757.744 8        44.900          53.200
G01  20744438.680 8  20744443.652 6  20744443.285 8  20744443.023 9 109012744.797 8  84945036.687 6  84945031.690 8  81405651.611 9        50.700          41.900          49.300          54.600
G03  21458954.367 8  21458959.082 6  21458959.031 8  21458959.449 8 112767454.595 8  87870856.486 6  87870851.482 8  84209561.614 8        50.300          40.200          48.400          52.500
G08  21206228.563 8  21206233.652 6  21206234.047 8  21206233.145 8 111439448.641 8  86835984.430 6  86835980.433 8  83217809.793 8        50.200          41.500          48.800          53.200
G11  20220285.906 7  20220287.379 6                                 106258316.251 7  82798693.365 6                                        47.600          38.800
G14  22482477.141 7  22482480.031 5                                 118146167.079 7  92061998.810 5                                        45.900          31.800
G18  20268738.820 8  20268740.941 6                                 106512936.092 8  82997106.115 6                                        50.200          40.900
G22  20665631.008 8  20665631.063 7                                 108598624.533 8  84622304.931 7                                        50.700          42.300
G28  23264907.047 7  23264908.547 4                                 122257908.988 7  95265910.698 4                                        44.300          27.300
G32  23285248.820 7  23285253.535 5  23285252.922 7  23285252.613 8 122364786.215 7  95349222.703 5  95349220.707 7  91376333.238 8        42.800          33.000          44.700          50.400
R04  22475498.219 7  22475500.664 7 120355269.307 7  93609655.705 7        44.100          42.100
R06  20888693.430 6                 111465985.217 6                        38.400
R20  19702029.844 7  19702035.449 8 105355603.309 7  81943249.607 8        44.300          49.200
R21  21302640.938 8  21302644.586 7 113994646.243 8  88662579.968 7        48.400          44.200
> 2018 04 26 22 13 30.0000000  0 17
E03  26024764.422 7  26024767.422 9 136761058.216 7 103458862.297 9        45.800          54.100
E07  25713629.953 7  25713633.496 9 135126034.802 7 102221943.149 9        45.200          55.100
E08  21754809.891 8  21754811.262 9 114322298.442 8  86484049.818 9        49.600          58.900
E26  24233973.547 7  24233976.613 8 127350391.558 7  96339762.097 8        45.600          53.500
G01  20735451.398 8  20735456.398 6  20735455.930 8  20735455.422 9 108965515.734 8  84908234.825 6  84908229.822 8  81370383.162 9        51.200          41.800          48.200          54.800
G03  21442764.898 8  21442770.270 6  21442769.930 7  21442770.641 8 112682380.292 8  87804564.837 6  87804559.833 7  84146032.113 8        49.400          40.200          46.700          52.200
G08  21214531.922 8  21214536.563 6  21214537.168 7  21214536.168 8 111483083.332 8  86869985.499 6  86869981.509 7  83250394.142 8        49.700          40.600          47.000          53.000
G11  20212341.102 8  20212342.957 6                                 106216570.469 8  82766164.187 6                                        48.100          39.100
G14  22476798.352 7  22476800.969 5                                 118116325.302 7  92038745.487 5                                        44.700          31.200
G18  20267669.438 8  20267672.285 6                                 106507319.404 8  82992729.484 6                                        50.900          39.900
G22  20658766.070 8  20658766.047 6                                 108562548.099 8  84594193.437 6                                        50.600          41.600
G28  23260310.594 7  23260312.023 4                                 122233754.252 7  95247088.838 4                                        44.100          26.200
G32  23289549.297 7  23289554.391 5  23289554.277 7  23289553.645 8 122387388.370 7  95366834.766 5  95366832.762 7  91393211.462 8        43.600          31.900          46.200          49.800
R04  22493533.344 7  22493536.059 7 120451847.896 7  93684772.394 7        42.500          42.600
R06  20866173.453 6                 111345811.760 6                        38.700
R20  19698962.758 7  19698968.852 8 105339201.859 7  81930492.924 8        43.900          48.300
R21  21281441.352 8  21281444.516 7 113881199.190 8  88574343.410 7        48.000          43.600
> 2018 04 26 22 14 00.0000000  0 17
E03  26032735.172 7  26032738.789 8 136802947.863 7 103490551.534 8        45.100          53.900
E07  25694008.859 7  25694012.789 9 135022927.385 7 102143943.057 9        45.700          54.800
E08  21748053.102 8  21748054.637 9 114286792.358 8  86457189.701 9        50.300          58.800
E26  24217630.188 7  24217633.773 8 127264509.687 7  96274793.043 8        45.700          53.400
G01  20726512.555 8  20726518.078 7  20726517.539 7  20726516.691 9 108918541.482 8  84871631.522 7  84871626.526 7  81335305.001 9        51.400          42.300          47.800          54.600
G03  21426648.852 8  21426653.148 6  21426653.035 8  21426653.754 8 112597687.104 8  87738570.157 6  87738565.152 8  84082787.219 8        50.800          40.500          48.200          52.600
G08  21222920.680 8  21222925.934 6  21222926.258 7  21222925.246 8 111527165.187 8  86904334.987 6  86904330.998 7  83283312.404 8        50.000          41.100          47.900          53.700
G11  20204480.070 8  20204481.469 6                                 106175257.639 8  82733972.376 6                                        48.500          38.600
G14  22471222.438 7  22471225.145 4                                 118087024.452 7  92015913.667 4                                        43.900          29.700
G18  20266664.094 8  20266666.707 6                                 106502034.602 8  82988611.448 6                                        49.800          40.000
G22  20651979.781 8  20651979.633 7                                 108526885.008 8  84566404.030 7                                        50.800          42.100
G28  23255810.773 7  23255812.832 4                                 122210113.694 7  95228667.617 4                                        43.100          26.900
G32  23293951.844 7  23293957.461 5  23293957.074 7  23293956.133 8 122410521.830 7  95384860.863 5  95384858.860 7  91410486.462 8        42.700          32.400          46.400          50.200
R04  22511614.609 7  22511618.059 7 120548671.610 7  93760079.727 7        43.000          42.800
R06  20843745.273 6                 111226127.726 6                        38.900
R20  19695990.648 7  19695996.242 7 105323309.223 7  81918131.970 7        44.100          47.500
R21  21260273.719 7  21260277.734 7 113767930.849 7  88486245.829 7        47.500          43.800
> 2018 04 26 22 14 30.0000000  0 18
E03  26040757.891 7  26040761.215 8 136845105.983 7 103522443.891 8        44.700          53.700
E07  25674424.391 7  25674428.016 9 134920008.104 7 102066085.315 9        45.900          54.600
E08  21741375.156 8  21741376.441 9 114251698.157 8  86430641.175 9        50.300          58.800
E26  24201294.523 7  24201297.664 8 127178663.377 7  96209850.898 8        45.700          53.600
G01  20717622.180 8  20717627.707 7  20717627.238 8  20717626.730 9 108871821.996 8  84835226.733 7  84835221.737 8  81300417.075 9        51.600          42.500          49.500          54.700
G03  21410604.672 8  21410609.422 6  21410609.395 8  21410610.199 8 112513375.311 8  87672872.663 6  87672867.667 8  84019827.130 8        50.900          40.600          48.200          52.300
G08  21231394.188 8  21231398.871 6  21231399.020 8  21231398.242 8 111571692.785 8  86939031.814 6  86939027.816 8  83316563.528 8        49.600          41.200          49.300          53.500
G11  20196700.688 8  20196702.586 6                                 106134378.530 8  82702118.524 6                                        48.300          39.400
G14  22465750.188 7  22465752.145 5                                 118058264.721 7  91993503.516 5                                        45.400          31.000
G18  20265721.523 8  20265724.219 6                                 106497081.433 8  82984751.836 6                                        50.100          39.800
G22  20645271.461 8  20645271.945 7                                 108491634.202 8  84538935.880 7                                        50.500          42.400
G27  24083735.406 4                                  24083723.660 5 126560733.756 4                                  94509709.066 5        26.400                                          35.800
G28  23251410.602 7  23251412.086 4                                 122186986.284 7  95210646.279 4                                        43.700          26.800
G32  23298454.625 7  23298459.535 5  23298459.141 7  23298459.086 8 122434184.877 7  95403299.608 5  95403297.609 7  91428156.922 8        42.500          32.100          45.400          50.600
R04  22529741.570 7  22529744.594 7 120645736.748 7  93835574.834 7        42.500          43.100
R06  20821407.703 6                 111106936.137 6                        38.900
R20  19693112.844 7  19693119.633 8 105307926.744 7  81906167.826 8        43.000          48.200
R21  21239141.008 7  21239144.043 7 113654843.451 7  88398288.982 7        47.600          44.400
> 2018 04 26 22 15 00.0000000  0 17
E03  26048830.063 7  26048833.117 8 136887525.294 7 103554533.826 8        45.500          53.900
E07  25654874.281 7  25654878.063 9 134817272.769 7 101988366.694 9        46.500          54.500
E08  21734774.367 8  21734775.477 9 114217010.133 8  86404399.917 9        50.600          58.800
E26  24184964.305 7  24184967.676 8 127092847.745 7  96144931.961 8        45.900          53.700
G01  20708779.328 8  20708784.449 7  20708784.367 8  20708783.527 9 108825352.343 8  84799016.620 7  84799011.617 8  81265715.712 9        50.600          42.900          49.800          54.600
G03  21394632.117 8  21394637.648 6  21394637.617 8  21394637.957 8 112429439.922 8  87607468.479 6  87607463.475 8  83957148.122 8        50.300          40.400          48.000          52.100
G08  21239950.727 8  21239955.773 6  21239956.008 8  21239955.027 8 111616658.809 8  86974070.272 6  86974066.268 8  83350142.039 8        49.300          41.000          48.700          53.600
G11  20189003.852 8  20189005.023 6                                 106093928.821 8  82670599.278 6                                        48.200          39.400
G14  22460379.891 7  22460381.652 5                                 118030041.285 7  91971511.234 5                                        44.100          31.400
G18  20264840.953 8  20264843.656 6                                 106492454.404 8  82981146.355 6                                        49.800          40.600
G22  20638640.844 8  20638640.758 7                                 108456789.686 8  84511784.326 7                                        50.900          42.400
G28  23247106.406 7  23247107.961 4                                 122164366.162 7  95193020.225 4                                        43.400          27.100
G32  23303057.617 7  23303062.195 5  23303062.188 7  23303061.273 8 122458370.387 7  95422145.470 5  95422143.463 7  91446217.543 8        42.800          31.600          45.100          50.300
R04  22547910.922 6  22547913.480 7 120743033.603 6  93911250.136 7        41.800          42.400
R06  20799163.086 6                 110988233.667 6                        38.800
R20  19690331.969 7  19690337.695 8 105293050.007 7  81894597.019 8        43.800          48.900
R21  21218041.375 8  21218044.703 7 113541934.280 8  88310470.761 7        48.200          44.700
> 2018 04 26 22 15 30.0000000  0 17
E03  26056950.086 7  26056953.488 9 136930197.358 7 103586814.959 9        45.100          54.200
E07  25635358.398 7  25635362.027 9 134714715.939 7 101910783.134 9        47.000          54.400
E08  21728249.383 8  21728250.594 9 114182721.466 8  86378460.775 9        50.600          58.700
E26  24168639.094 7  24168642.145 8 127007056.737 7  96080031.647 8        45.500          53.900
G01  20699983.008 8  20699988.008 7  20699987.309 7  20699986.793 9 108779126.048 8  84762996.133 7  84762991.137 7  81231196.084 9        50.500          42.300          47.700          54.600
G03  21378730.539 8  21378735.438 6  21378735.520 7  21378736.098 8 112345874.760 8  87542352.787 6  87542347.775 7  83894745.583 8        50.500          40.600          47.100          52.300
G08  21248589.563 8  21248594.410 6  21248594.535 7  21248593.781 8 111662055.764 8  87009444.521 6  87009440.531 7  83384042.370 8        49.600          41.700          47.200          53.500
G11  20181387.070 8  20181388.730 6                                 106053902.737 8  82639410.124 6                                        48.200          38.800
G14  22455109.273 7  22455111.945 5                                 118002347.898 7  91949931.978 5                                        44.900          31.700
G18  20264021.266 8  20264024.109 6                                 106488146.590 8  82977789.627 6                                        50.500          40.400
G22  20632086.164 8  20632086.063 6                                 108422344.103 8  84484943.611 6                                        50.300          41.900
G28  23242897.336 6  23242897.871 4                                 122142246.175 6  95175783.889 4                                        41.500          26.100
G32  23307757.648 7  23307762.422 5  23307762.262 7  23307761.621 8 122483070.192 7  95441392.096 5  95441390.093 7  91464662.225 8        43.400          32.400          46.000          50.500
R04  22566120.602 6  22566124.695 7 120840551.372 6  93987097.263 7        40.900          42.700
R06  20777009.898 6                 110870016.007 6                        39.200
R20  19687644.414 7  19687648.789 8 105278673.453 7  81883415.270 8        43.900          48.800
R21  21196973.336 7  21196977.238 7 113429198.827 7  88222787.671 7        47.600          43.800
> 2018 04 26 22 16 00.0000000  0 18
E03  26065115.617 7  26065118.563 9 136973105.545 7 103619274.732 9        45.600          54.200
E07  25615874.000 7  25615877.422 9 134612324.017 7 101833324.316 9        47.600          54.000
E08  21721797.555 8  21721798.957 9 114148817.116 8  86352812.364 9        50.000          58.600
E26  24152315.258 7  24152318.586 8 126921276.111 7  96015139.201 8        46.300          53.900
G01  20691230.148 8  20691234.820 7  20691234.457 7  20691233.723 9 108733128.568 8  84727153.937 7  84727148.941 7  81196847.320 9        51.700          42.100          47.500          54.600
G03  21362896.492 8  21362901.172 6  21362901.145 7  21362901.422 8 112262665.455 8  87477514.380 6  87477509.375 7  83832608.779 8        50.100          40.600          47.900          52.700
G08  21257307.195 8  21257312.508 6  21257312.277 8  21257311.938 8 111707866.301 8  87045141.043 6  87045137.039 8  83418251.533 8        49.800          41.300          48.500          53.400
G11  20173848.281 8  20173849.668 6                                 106014286.613 8  82608540.427 6                                        48.300          38.500
G14  22449938.000 7  22449940.906 5                                 117975170.149 7  91928754.507 5                                        45.100          31.400
G18  20263259.766 8  20263261.988 6                                 106484143.107 8  82974670.028 6                                        49.900          39.800
G22  20625603.945 8  20625603.672 6                                 108388281.509 8  84458401.330 6                                        50.300          41.900
G27  24133638.992 5                  24133634.484 4  24133669.180 4 126823094.397 5                  98823269.378 4  94705689.646 4        30.800                          25.600          29.100
G28  23238779.641 7  23238781.133 4                                 122120610.829 7  95158925.192 4                                        43.800          27.700
G32  23312552.594 7  23312557.734 5  23312557.332 7  23312556.871 8 122508267.788 7  95461026.593 5  95461024.597 7  91483478.621 8        43.800          33.100          46.000          50.400
R04  22584370.328 6  22584372.848 7 120938271.096 6  94063101.459 7        41.300          42.400
R06  20754943.898 6                 110752270.744 6                        39.200
R20  19685045.641 7  19685051.449 7 105264783.158 7  81872611.687 7        44.200          47.700
R21  21175936.438 7  21175940.418 7 113316624.554 7  88135229.924 7        47.200          43.700
> 2018 04 26 22 16 30.0000000  0 18
E03  26073326.719 7  26073329.645 9 137016254.365 7 103651916.527 9        45.700          54.000
E07  25596422.141 7  25596425.566 9 134510104.552 7 101755995.955 9        47.300          54.100
E08  21715420.063 8  21715421.359 9 114115303.171 8  86327459.286 9        50.400          58.500
E26  24135994.992 7  24135998.391 9 126835512.812 7  95950259.846 9        46.100          54.000
G01  20682521.352 8  20682526.324 7  20682525.922 8  20682525.230 9 108687366.452 8  84691495.152 7  84691490.157 8  81162674.323 9        50.800          42.500          49.800          54.500
G03  21347130.711 8  21347135.746 6  21347135.730 8  21347136.406 8 112179818.770 8  87412958.534 6  87412953.522 8  83770742.759 8        50.200          40.400          48.400          52.200
G08  21266104.016 8  21266109.375 6  21266109.469 8  21266108.750 8 111754095.568 8  87081163.843 6  87081159.847 8  83452773.385 8        49.300          41.300          49.400          53.700
G11  20166388.977 8  20166390.102 6                                 105975087.634 8  82577995.776 6                                        48.300          39.000
G14  22444865.539 7  22444867.926 5                                 117948514.457 7  91907983.866 5                                        44.500          31.500
G18  20262556.828 8  20262559.090 6                                 106480450.135 8  82971792.386 6                                        50.500          39.800
G22  20619196.281 8  20619196.129 7                                 108354607.509 8  84432161.854 7                                        50.800          42.600
G27  24150338.188 5                                                                                                                        30.500
G28  23234755.766 7  23234757.738 4                                 122099465.830 7  95142448.589 4                                        42.800          27.100
G32  23317442.063 7  23317447.516 5  23317447.684 7  23317446.594 8 122533967.866 7  95481052.622 5  95481050.622 7  91502670.223 8        42.800          32.100          45.400          49.900
R04  22602656.805 7  22602659.926 7 121036194.749 7  94139264.285 7        42.700          43.500
R06  20732968.617 6                 110635006.754 6                        39.800
R20  19682541.016 7  19682546.191 7 105251387.221 7  81862192.630 7        43.500          47.400
R21  21154930.922 7  21154934.492 7 113204220.638 7  88047804.662 7        47.300          44.800
> 2018 04 26 22 17 00.0000000  0 17
E03  26081583.859 7  26081586.707 9 137059645.313 7 103684741.486 9        45.100          54.200
E07  25577004.250 7  25577007.617 9 134408062.077 7 101678801.501 9        47.100          54.400
E08  21709117.367 8  21709118.570 9 114082182.682 8  86302403.866 9        49.900          58.400
E26  24119678.711 7  24119682.164 9 126749770.729 7  95885396.556 9        46.100          54.200
G01  20673858.594 8  20673863.781 7  20673863.273 8  20673862.391 9 108641843.292 8  84656022.566 7  84656017.570 8  81128679.769 9        49.900          42.700          49.500          54.400
G03  21331434.820 8  21331439.961 6  21331440.156 7  21331440.684 8 112097338.443 8  87348688.149 6  87348683.139 7  83709150.314 8        49.600          40.400          47.400          52.500
G08  21274981.633 8  21274986.375 6  21274986.750 8  21274985.570 8 111800745.739 8  87117514.629 6  87117510.632 8  83487609.552 8        48.800          41.700          48.300          53.000
G11  20159009.852 8  20159011.238 6                                 105936310.210 8  82547779.603 6                                        48.200          39.600
G14  22439893.344 7  22439896.004 5                                 117922384.693 7  91887623.037 5                                        45.000          31.100
G18  20261913.641 8  20261916.090 6                                 106477070.908 8  82969159.222 6                                        50.800          40.200
G22  20612862.680 8  20612862.426 7                                 108321324.649 8  84406227.176 7                                        51.200          42.900
G28  23230825.281 7  23230827.391 4                                 122078813.837 7  95126356.131 4                                        42.300          27.200
G32  23322429.531 7  23322434.309 5  23322434.613 7  23322433.621 8 122560172.087 7  95501471.517 5  95501469.524 7  91522238.331 8        44.600          32.800          45.100          50.400
R04  22620981.844 7  22620984.957 7 121134322.424 7  94215585.804 7        42.400          43.200
R06  20711085.477 6                 110518229.741 6                        39.200
R20  19680129.461 7  19680134.777 8 105238490.091 7  81852161.517 8        43.900          48.800
R21  21133958.641 7  21133962.355 7 113091993.188 7  87960516.677 7        47.400          44.700
> 2018 04 26 22 17 30.0000000  0 18
E03  26089888.844 7  26089892.125 8 137103290.604 7 103717758.859 8        44.900          53.900
E07  25557622.641 7  25557626.148 9 134306211.788 7 101601752.414 9        46.700          54.700
E08  21702892.430 8  21702893.617 9 114049469.383 8  86277656.476 9        49.800          58.400
E26  24103369.367 7  24103372.855 9 126664064.516 7  95820560.392 9        46.500          54.200
G01  20665244.289 8  20665249.316 7  20665248.918 7  20665248.277 9 108596573.451 8  84620747.375 7  84620742.380 7  81094874.368 9        50.500          42.200          47.300          54.600
G03  21315812.172 8  21315817.418 6  21315817.289 7  21315817.785 8 112015238.897 8  87284714.494 6  87284709.491 7  83647842.232 8        49.000          40.500          46.800          52.300
G08  21283941.234 8  21283945.910 6  21283945.969 7  21283945.574 8 111847828.663 8  87154202.615 6  87154198.619 7  83522768.880 8        50.000          40.900          47.500          53.100
G11  20151713.758 8  20151715.125 6                                 105897969.009 8  82517903.344 6                                        48.000          38.800
G14  22435023.078 7  22435025.988 5                                 117896795.089 7  91867683.067 5                                        43.600          31.900
G18  20261332.977 8  20261335.152 6                                 106474019.491 8  82966781.491 6                                        50.600          39.400
G22  20606606.219 8  20606606.250 7                                 108288446.125 8  84380607.560 7                                        51.100          42.500
G27  24183758.492 5                                                                                                                        33.000
G28  23226992.477 7  23226993.559 4                                 122058668.228 7  95110658.253 4                                        42.600          28.100
G32  23327513.648 7  23327519.473 5  23327519.242 7  23327518.609 8 122586892.816 7  95522292.854 5  95522290.858 7  91542192.114 8        45.000          31.900          45.900          50.000
R04  22639346.867 7  22639349.672 7 121232664.221 7  94292073.858 7        43.200          43.800
R06  20689295.141 6                 110401956.523 6                        39.000
R20  19677813.500 7  19677818.719 7 105226106.813 7  81842530.083 7        43.200          47.900
R21  21113022.055 7  21113026.293 7 112979958.821 7  87873378.859 7        47.600          44.300
> 2018 04 26 22 18 00.0000000  0 17
E03  26098238.656 7  26098241.367 9 137147167.302 7 103750951.307 9        44.100          54.100
E07  25538274.016 7  25538277.531 9 134204533.860 7 101524833.736 9        46.300          55.100
E08  21696740.938 8  21696741.961 9 114017141.987 8  86253201.021 9        50.300          58.500
E26  24087062.922 7  24087066.305 9 126578373.718 7  95755735.891 9        46.800          54.200
G01  20656673.563 8  20656678.434 7  20656677.988 8  20656677.512 9 108551536.106 8  84585653.346 7  84585648.343 8  81061242.590 9        50.000          42.000          48.300          54.500
G03  21300257.586 8  21300262.828 6  21300262.715 8  21300263.430 8 111933499.490 8  87221021.467 6  87221016.470 8  83586803.072 8        49.600          41.300          48.700          52.500
G08  21292978.641 8  21292983.938 6  21292983.863 8  21292983.074 8 111895321.780 8  87191210.238 6  87191206.234 8  83558234.518 8        48.100          41.500          49.000          52.900
G11  20144497.148 8  20144498.387 6                                 105860044.348 8  82488351.656 6                                        48.200          39.200
G14  22430253.102 7  22430254.961 5                                 117871724.943 7  91848147.902 5                                        45.100          31.200
G18  20260810.414 8  20260813.133 6                                 106471274.465 8  82964642.509 6                                        50.100          40.200
G22  20600422.484 8  20600421.953 7                                 108255949.697 8  84355285.684 7                                        50.700          43.100
G28  23223251.750 7  23223252.879 4                                 122039007.349 7  95095338.091 4                                        42.300          26.800
G32  23332693.438 7  23332697.395 5  23332697.461 7  23332696.297 8 122614107.219 7  95543498.879 5  95543496.875 7  91562514.563 8        44.700          32.400          45.500          49.000
R04  22657744.094 7  22657748.063 7 121331194.437 7  94368708.486 7        42.900          43.000
R06  20667596.586 6                 110286168.027 6                        39.400
R20  19675590.359 7  19675595.395 7 105214217.467 7  81833282.822 7        44.600          47.600
R21  21092118.430 7  21092122.258 7 112868098.813 7  87786376.658 7        47.300          44.500
> 2018 04 26 22 18 30.0000000  0 18
E03  26106632.914 7  26106636.047 9 137191280.547 7 103784322.684 9        44.700          54.200
E07  25518959.945 7  25518963.262 9 134103036.442 7 101448051.600 9        46.800          55.400
E08  21690663.680 8  21690664.898 9 113985207.133 8  86229042.517 9        49.900          58.600
E26  24070760.680 7  24070764.414 9 126492705.914 7  95690928.785 9        46.300          54.400
G01  20648149.016 8  20648154.223 7  20648153.902 8  20648153.301 9 108506738.544 8  84550746.154 7  84550741.151 8  81027789.871 9        50.600          42.600          49.100          54.500
G03  21284773.078 8  21284778.117 6  21284777.969 8  21284778.781 8 111852127.553 8  87157614.777 6  87157609.774 8  83526038.338 8        49.800          40.900          48.700          52.600
G08  21302095.469 8  21302100.461 6  21302100.535 8  21302099.539 8 111943230.666 8  87228541.827 6  87228537.830 8  83594010.633 8        48.500          41.300          49.300          52.800
G11  20137360.969 7  20137362.199 6                                 105822544.199 7  82459130.768 6                                        47.500          38.900
G14  22425582.273 7  22425584.020 4                                 117847181.411 7  91829023.073 4                                        44.500          29.800
G18  20260347.531 8  20260350.543 6                                 106468842.751 8  82962747.674 6                                        49.700          39.900
G22  20594312.336 8  20594311.914 7                                 108223841.817 8  84330266.563 7                                        50.200          43.400
G28  23219603.414 7  23219604.570 4                                 122019837.458 7  95080400.520 4                                        44.100          27.200
G32  23337966.523 7  23337972.023 4  23337971.551 7  23337970.633 8 122641820.570 7  95565093.687 4  95565091.673 7  91583209.598 8        43.000          29.700          45.000          49.200
R04  22676181.031 6  22676184.395 7 121429916.490 6  94445492.278 7        41.700          42.900
R06  20645989.781 6                 110170874.064 6                        39.200
R19  22791306.602 5  22791307.355 5 121918064.813 5  94825204.710 5        32.000          33.300
R20  19673460.320 7  19673465.730 8 105202830.050 7  81824425.936 8        43.700          48.300
R21  21071249.742 7  21071252.977 7 112756422.954 7  87699517.670 7        47.900          45.000
> 2018 04 26 22 19 00.0000000  0 18
E03  26115070.141 7  26115073.445 9 137235618.732 7 103817864.240 9        44.100          54.200
E07  25499678.125 7  25499681.789 9 134001710.967 7 101371399.533 9        46.700          55.900
E08  21684659.375 8  21684660.652 9 113953654.763 8  86205173.357 9        50.600          58.700
E26  24054461.180 7  24054464.930 9 126407051.903 7  95626132.108 9        46.700          54.400
G01  20639668.273 8  20639673.816 7  20639673.211 8  20639672.543 9 108462171.233 8  84516018.388 7  84516013.393 8  80994509.097 9        50.600          42.400          49.500          54.500
G03  21269356.695 8  21269361.805 6  21269361.852 7  21269362.406 8 111771113.677 8  87094487.086 6  87094482.089 7  83465540.977 8        49.800          40.500          47.900          52.700
G08  21311288.945 8  21311294.180 6  21311294.457 8  21311293.668 8 111991543.839 8  87266188.465 6  87266184.468 8  83630088.665 8        49.300          40.900          48.500          53.500
G11  20130303.547 7  20130305.277 6                                 105785459.576 7  82430233.666 6                                        47.200          39.600
G14  22421010.523 7  22421012.992 5                                 117823155.326 7  91810301.439 5                                        44.100          31.900
G18  20259942.398 8  20259945.207 6                                 106466714.259 8  82961089.111 6                                        50.200          39.600
G22  20588274.555 8  20588273.941 7                                 108192111.905 8  84305541.956 7                                        49.500          42.400
G27  24234028.578 5                  24234008.203 5  24234007.977 5 127350666.16915                  99234217.30715  95099457.23815        30.500                          30.600          33.900
G28  23216046.789 7  23216048.738 4                                 122001148.136 7  95065837.422 4                                        43.000          26.800
G32  23343332.766 7  23343337.949 4  23343337.609 7  23343337.086 8 122670021.377 7  95587068.351 4  95587066.358 7  91604268.647 8        42.900          29.500          44.600          49.100
R04  22694649.922 6  22694652.910 7 121528816.426 6  94522414.417 7        40.400          42.100
R06  20624475.297 6                 110056066.603 6                        39.700
R20  19671423.109 7  19671428.652 8 105191936.104 7  81815952.852 8        43.900          48.900
R21  21050413.078 8  21050417.215 7 112644923.928 8  87612796.230 7        48.400          44.800
> 2018 04 26 22 19 30.0000000  0 18
E03  26123551.453 7  26123554.703 9 137280187.410 7 103851580.159 9        44.800          54.100
E07  25480430.258 7  25480434.332 9 133900565.890 7 101294883.950 9        46.300          56.300
E08  21678729.078 8  21678730.426 9 113922491.886 8  86181598.852 9        51.000          58.600
E26  24038165.953 7  24038169.520 9 126321419.735 7  95561351.951 9        46.500          54.500
G01  20631232.438 8  20631238.246 7  20631237.758 7  20631236.977 9 108417841.829 8  84481476.000 7  84481470.989 7  80961405.975 9        51.300          42.100          47.800          54.600
G03  21254009.906 8  21254014.434 6  21254014.445 7  21254014.922 8 111690465.587 8  87031644.430 6  87031639.434 7  83405316.762 8        50.000          40.500          47.000          52.700
G08  21320560.555 8  21320566.145 6  21320566.410 8  21320565.574 8 112040267.087 8  87304154.633 6  87304150.636 8  83666472.897 8        49.400          40.900          48.200          53.300
G11  20123327.461 7  20123328.973 6                                 105748798.655 7  82401666.716 6                                        47.900          38.700
G14  22416537.984 7  22416541.258 5                                 117799654.019 7  91791988.755 5                                        43.800          30.800
G18  20259596.977 8  20259599.559 6                                 106464896.384 8  82959672.574 6                                        50.300          40.000
G22  20582309.336 8  20582309.332 7                                 108160765.900 8  84281116.497 7                                        49.600          42.400
G28  23212582.414 6  23212584.598 4                                 121982946.071 6  95051654.010 4                                        41.500          26.800
G32  23348793.781 7  23348798.121 5  23348798.246 7  23348796.555 8 122698715.182 7  95609427.147 5  95609425.145 7  91625695.842 8        43.000          30.900          46.200          48.400
R04  22713153.398 7  22713156.145 7 121627897.954 7  94599477.838 7        42.500          42.500
R06  20603054.250 6                 109941755.508 6                        39.200
R19  22819899.719 5  22819902.703 5 122071031.143 5  94944178.616 5        30.300          31.500
R20  19669479.336 7  19669485.074 8 105181543.752 7  81807869.920 8        43.400          48.000
R21  21029610.641 7  21029615.742 7 112533611.866 7  87526220.202 7        47.400          45.000
> 2018 04 26 22 20 00.0000000  0 18
E03  26132081.875 7  26132084.988 9 137325014.845 7 103885491.813 9        43.800          54.200
E07  25461224.023 7  25461227.559 9 133799632.587 7 101218528.582 9        46.600          56.400
E08  21672879.000 8  21672880.223 9 113891748.311 8  86158341.547 9        50.000          58.600
E26  24021880.633 7  24021884.336 9 126235840.119 7  95496611.565 9        45.900          54.500
G01  20622847.813 8  20622853.500 7  20622852.844 8  20622852.344 9 108373780.742 8  84447142.690 7  84447137.688 8  80928503.221 9        51.800          42.300          49.100          54.700
G03  21238738.078 8  21238743.254 6  21238743.449 8  21238743.801 8 111610213.747 8  86969110.547 6  86969105.536 8  83345388.459 8        49.100          41.100          49.300          52.700
G08  21329915.828 8  21329920.949 6  21329921.328 8  21329920.496 8 112089428.765 8  87342462.424 6  87342458.428 8  83703184.544 8        49.300          41.600          49.200          53.700
G11  20116437.555 8  20116439.426 6                                 105712592.728 8  82373454.303 6                                        48.700          39.000
G14  22412171.984 7  22412173.602 5                                 117776707.830 7  91774108.605 5                                        42.800          30.900
G18  20259316.117 8  20259318.578 6                                 106463419.060 8  82958521.421 6                                        49.500          39.800
G22  20576423.172 8  20576423.281 7                                 108129833.433 8  84257013.277 7                                        50.700          42.600
G28  23209217.859 7  23209219.145 4                                 121965260.501 7  95037873.054 4                                        42.200          27.100
G32  23354352.500 7  23354357.938 5  23354358.047 7  23354357.016 8 122727930.309 7  95632192.200 5  95632190.196 7  91647512.334 8        43.800          32.800          45.900          50.000
R04  22731695.070 7  22731697.535 6 121727187.664 7  94676703.147 6        43.000          41.500
R06  20581730.820 6                 109827974.158 6                        38.700
R19  22834281.813 5  22834282.621 5 122147953.191 5  95004006.796 5        32.600          33.400
R20  19667635.984 7  19667641.867 7 105171685.331 7  81800202.239 7        44.300          47.900
R21  21008851.125 8  21008855.008 7 112422519.976 8  87439815.432 7        48.300          45.200
> 2018 04 26 22 20 30.0000000  0 18
E03  26140660.359 7  26140663.492 9 137370096.432 7 103919595.726 9        44.600          54.400
E07  25442056.672 7  25442060.500 9 133698909.527 7 101142332.242 9        46.700          56.600
E08  21667107.781 8  21667109.090 9 113861420.949 8  86135399.104 9        50.500          58.700
E26  24005604.977 7  24005608.598 9 126150310.934 7  95431909.326 9        46.200          54.600
G01  20614513.953 8  20614519.434 7  20614519.004 8  20614518.336 9 108329985.500 8  84413016.537 7  84413011.533 8  80895798.988 9        51.200          42.800          49.800          54.900
G03  21223542.023 8  21223546.973 6  21223547.137 8  21223547.457 8 111530355.755 8  86906883.556 6  86906878.544 8  83285754.264 8        49.400          40.800          48.800          52.800
G08  21339353.625 8  21339358.555 6  21339359.156 8  21339358.043 8 112139023.999 8  87381108.063 6  87381104.066 8  83740219.949 8        49.700          41.100          49.000          53.000
G11  20109633.930 7  20109635.445 6                                 105676839.616 7  82345594.741 6                                        45.800          39.200
G14  22407910.305 7  22407912.355 5                                 117754313.996 7  91756658.867 5                                        42.800          31.400
G18  20259098.898 8  20259101.613 6                                 106462279.448 8  82957633.412 6                                        49.900          40.500
G22  20570615.008 8  20570614.953 7                                 108099310.776 8  84233229.403 7                                        50.800          42.900
G28  23205950.008 6  23205951.660 4                                 121948087.873 6  95024491.788 4                                        41.900          26.500
G32  23360011.016 7  23360015.824 5  23360015.422 7  23360014.434 8 122757662.277 7  95655359.974 5  95655357.974 7  91669714.776 8        44.900          33.800          45.300          49.900
R04  22750273.547 7  22750277.449 6 121826678.866 7  94754085.201 6        43.600          41.600
R06  20560507.914 6                 109714721.666 6                        39.500
R19  22848718.430 5  22848718.563 5 122225173.712 5  95064067.225 5        34.500          31.800
R20  19665891.641 7  19665897.402 7 105162358.843 7  81792948.317 7        43.900          47.900
R21  20988132.469 7  20988135.988 7 112311648.467 7  87353582.027 7        47.600          45.400
> 2018 04 26 22 21 00.0000000  0 18
E03  26149282.688 7  26149285.719 8 137415405.682 7 103953871.882 8        44.900          53.900
E07  25422925.398 7  25422929.219 9 133598373.146 7 101066277.133 9        46.700          56.800
E08  21661411.492 8  21661412.516 9 113831484.768 8  86112752.591 9        50.500          58.600
E26  23989334.234 7  23989338.023 9 126064808.237 7  95367227.109 9        46.300          54.500
G01  20606226.141 8  20606231.625 7  20606231.043 8  20606230.645 9 108286431.805 8  84379078.600 7  84379073.597 8  80863275.134 9        51.200          42.800          49.200          54.700
G03  21208415.898 8  21208420.539 6  21208420.504 7  21208420.906 8 111450867.275 8  86844944.493 6  86844939.503 7  83226396.000 8        50.200          40.900          47.600          52.600
G08  21348868.750 8  21348873.656 6  21348873.898 7  21348873.324 8 112189026.960 8  87420071.402 6  87420067.413 7  83777559.823 8        49.600          40.900          47.400          52.900
G11  20102912.109 7  20102913.496 6                                 105641515.941 7  82318069.801 6                                        47.200          38.700
G14  22403749.383 7  22403751.313 5                                 117732448.332 7  91739620.696 5                                        43.200          32.200
G18  20258941.633 8  20258944.148 6                                 106461452.790 8  82956989.262 6                                        49.600          40.500
G22  20564879.625 8  20564879.316 7                                 108069172.332 8  84209744.909 7                                        50.200          42.500
G28  23202773.805 6  23202775.820 4                                 121931402.505 6  95011490.213 4                                        40.600          27.300
G32  23365761.508 7  23365766.531 5  23365766.578 7  23365765.258 8 122787884.579 7  95678909.827 5  95678907.823 7  91692283.392 8        44.300          32.800          45.700          49.600
R04  22768884.969 7  22768888.355 6 121926342.721 7  94831601.528 6        43.400          41.600
R06  20539378.359 6                 109601975.539 6                        39.700
R19  22863204.305 5  22863204.652 5 122302665.612 5  95124338.727 5        32.600          33.800
R20  19664242.758 7  19664249.055 8 105153540.103 7  81786089.290 8        44.000          48.900
R21  20967450.805 8  20967454.469 7 112200974.720 8  87267502.477 7        48.400          45.200
> 2018 04 26 22 21 30.0000000  0 17
E03  26157947.586 7  26157950.797 8 137460941.762 7 103988319.630 8        44.900          53.800
E07  25403829.875 7  25403833.641 9 133498025.643 7 100990364.906 9        47.100          56.600
E08  21655789.305 8  21655790.230 9 113801940.434 8  86090402.499 9        51.300          58.600
E26  23973068.883 7  23973072.746 9 125979333.574 7  95302566.116 9        45.700          54.600
G01  20597984.523 8  20597989.762 7  20597989.336 7  20597988.664 9 108243120.902 8  84345329.855 7  84345324.859 7  80830932.590 9        51.400          42.400          47.900          54.600
G03  21193360.023 8  21193365.203 6  21193365.289 7  21193365.512 8 111371749.627 8  86783294.387 6  86783289.389 7  83167314.646 8        49.900          40.000          47.200          53.000
G08  21358461.695 8  21358466.727 6  21358467.063 7  21358466.332 8 112239436.528 8  87459351.585 6  87459347.588 7  83815203.322 8        50.500          40.800          47.900          52.900
G11  20096272.172 7  20096274.000 6                                 105606623.513 7  82290880.902 6                                        47.600          38.800
G14  22399688.742 7  22399691.480 5                                 117711111.963 7  91722994.952 5                                        43.600          31.800
G18  20258843.656 8  20258846.996 6                                 106460939.905 8  82956589.609 6                                        49.000          40.200
G22  20559217.617 8  20559217.703 7                                 108039418.354 8  84186559.995 7                                        49.600          42.600
G28  23199692.023 6  23199693.629 4                                 121915204.793 6  94998868.618 4                                        40.600          27.600
G32  23371606.359 7  23371610.781 5  23371611.016 7  23371609.918 8 122818596.346 7  95702841.074 5  95702839.083 7  91715217.513 8        44.600          33.000          45.900          49.900
R04  22787528.531 7  22787530.852 6 122026176.488 7  94909250.015 6        43.300          40.400
R06  20518346.320 6                 109489739.302 6                        39.400
R20  19662688.875 7  19662695.457 8 105145231.379 7  81779626.928 8        43.700          48.000
R21  20946806.375 7  20946809.836 7 112090502.452 7  87181579.619 7        47.800          45.000
> 2018 04 26 22 22 00.0000000  0 19
E03  26166657.328 7  26166660.250 8 137506710.047 7 104022943.039 8        44.400          53.600
E07  25384771.938 7  25384775.566 9 133397875.406 7 100914601.906 9        47.100          56.400
E08  21650242.977 8  21650244.094 9 113772794.801 8  86068354.021 9        50.700          58.500
E26  23956810.633 7  23956814.246 9 125893894.951 7  95237932.378 9        46.000          54.500
G01  20589790.148 8  20589794.895 7  20589794.621 8  20589794.031 9 108200060.363 8  84311776.190 7  84311771.194 8  80798776.996 9        52.400          43.000          49.100          54.400
G03  21178376.445 8  21178381.422 6  21178381.605 8  21178381.848 8 111293010.347 8  86721939.121 6  86721934.116 8  83108515.854 8        49.600          41.000          48.800          53.000
G08  21368133.102 8  21368138.043 6  21368138.148 8  21368137.066 8 112290258.679 8  87498953.259 6  87498949.255 8  83853154.925 8        50.300          41.400          49.900          53.500
G11  20089716.273 7  20089717.984 6                                 105572170.336 7  82264034.278 6                                        46.600          38.900
G14  22395731.148 7  22395733.605 5                                 117690311.955 7  91706787.171 5                                        42.900          31.700
G18  20258807.477 8  20258810.230 6                                 106460747.888 8  82956439.984 6                                        49.000          40.200
G22  20553630.398 8  20553629.711 7                                 108010054.658 8  84163679.199 7                                        50.400          42.600
G23  24821801.273 6  24821801.500 3                                 130439580.261 6 101641127.803 3                                        37.600          21.500
G28  23196703.125 6  23196705.121 4                                 121899501.490 6  94986632.260 4                                        41.600          26.700
G32  23377543.875 6  23377549.629 5  23377549.582 7  23377548.824 8 122849803.118 6  95727158.037 5  95727156.033 7  91738521.262 8        41.400          30.700          45.700          49.600
R04  22806204.383 7  22806206.813 6 122126183.337 7  94987033.110 6        43.300          40.500
R06  20497410.102 6                 109378022.215 6                        39.400
R19  22892328.180 5  22892329.863 5 122458469.939 5  95245519.834 5        34.800          33.700
R20  19661232.313 7  19661237.910 7 105137441.179 7  81773567.893 7        43.800          47.400
R21  20926201.031 8  20926205.148 7 111980241.893 8  87095821.428 7        48.200          45.500
> 2018 04 26 22 22 30.0000000  0 19
E03  26175411.625 7  26175414.738 8 137552715.664 7 104057745.987 8        44.200          53.500
E07  25365753.211 7  25365756.637 9 133297930.490 7 100838994.247 9        47.300          56.400
E08  21644773.914 8  21644774.816 9 113744054.348 8  86046612.061 9        50.400          58.500
E26  23940560.453 7  23940564.105 9 125808499.897 7  95173331.602 9        45.800          54.500
G01  20581644.883 8  20581649.949 7  20581649.902 8  20581649.027 9 108157257.359 8  84278423.214 7  84278418.218 8  80766813.732 9        51.100          43.200          50.500          54.500
G03  21163466.352 8  21163471.145 6  21163471.070 8  21163471.574 8 111214656.630 8  86660884.287 6  86660879.290 8  83050004.977 8        49.900          40.700          48.300          52.900
G08  21377883.164 8  21377888.332 6  21377888.648 8  21377887.410 8 112341498.441 8  87538880.337 6  87538876.340 8  83891418.386 8        50.600          41.100          49.100          52.500
G11  20083245.172 7  20083246.441 6                                 105538164.400 7  82237536.147 6                                        46.000          39.000
G14  22391876.516 7  22391879.105 5                                 117670055.438 7  91691002.881 5                                        43.800          31.800
G18  20258833.367 8  20258836.320 6                                 106460883.473 8  82956545.638 6                                        49.400          40.600
G22  20548117.734 8  20548117.629 7                                 107981087.729 8  84141107.573 7                                        50.400          43.000
G23  24798455.391 6  24798454.980 3                                 130316899.390 6 101545532.374 3                                        38.100          20.900
G28  23193810.617 6  23193812.766 4                                 121884298.230 6  94974785.561 4                                        41.400          25.800
G32  23383578.391 6  23383583.039 5  23383582.586 7  23383581.711 8 122881509.724 6  95751864.491 5  95751862.487 7  91762198.295 8        41.900          30.700          44.500          49.100
R04  22824912.664 6  22824915.586 6 122226366.652 6  95064953.466 6        41.600          40.100
R06  20476574.266 6                 109266833.814 6                        40.100
R19  22906968.539 5  22906972.348 5 122536793.778 5  95306438.350 5        33.000          33.700
R20  19659875.047 7  19659880.434 8 105130177.300 7  81767918.193 8        43.900          48.500
R21  20905638.633 7  20905641.801 7 111870202.786 7  87010235.449 7        47.900          45.300
> 2018 04 26 22 23 00.0000000  0 19
E03  26184207.891 7  26184210.879 8 137598938.965 7 104092713.609 8        44.800          53.800
E07  25346770.063 7  25346773.750 9 133198174.376 7 100763529.405 9        46.900          56.300
E08  21639378.313 8  21639379.605 9 113715701.021 8  86025162.960 9        50.400          58.600
E26  23924314.891 7  23924318.902 9 125723131.302 7  95108750.839 9        45.300          54.400
G01  20573545.523 8  20573550.598 7  20573550.082 8  20573549.500 9 108114694.578 8  84245257.419 7  84245252.430 8  80735029.841 9        50.800          42.800          48.900          54.500
G03  21148626.023 8  21148631.422 6  21148631.148 7  21148631.965 8 111136671.069 8  86600116.346 6  86600111.341 7  82991769.034 8        49.600          41.400          47.500          53.200
G08  21387709.680 8  21387714.621 6  21387714.832 7  21387713.934 8 112393136.201 8  87579117.554 6  87579113.550 7  83929979.052 8        50.200          40.500          47.800          52.700
G11  20076856.203 7  20076857.211 6                                 105504588.833 7  82211373.366 6                                        47.700          39.800
G14  22388122.430 7  22388124.391 5                                 117650324.957 7  91675628.488 5                                        45.000          32.100
G18  20258917.469 8  20258920.641 6                                 106461329.008 8  82956892.809 6                                        49.100          40.200
G22  20542677.492 8  20542677.480 7                                 107952498.611 8  84118830.350 7                                        50.200          43.300
G23  24775101.781 5  24775102.645 3                                 130194175.754 5 101449903.592 3                                        35.500          20.900
G28  23191008.797 6  23191010.848 4                                 121869576.320 6  94963313.963 4                                        41.500          27.200
G32  23389703.297 7  23389708.230 5  23389707.953 7  23389706.957 8 122913696.793 7  95776945.318 5  95776943.330 7  91786234.081 8        42.700          30.600          44.900          49.500
R04  22843650.352 6  22843652.805 6 122326704.379 6  95142993.925 6        41.900          41.000
R06  20455833.281 6                 109156157.926 6                        39.600
R19  22921661.898 5  22921663.324 5 122615380.911 5  95367561.724 5        32.400          34.000
R20  19658610.055 7  19658616.609 8 105123423.070 7  81762664.899 8        43.500          48.200
R21  20885113.008 8  20885116.027 7 111760369.772 8  86924809.786 7        48.700          44.900
> 2018 04 26 22 23 30.0000000  0 19
E03  26193048.469 7  26193051.758 8 137645397.954 7 104127859.528 8        44.600          53.700
E07  25327826.984 7  25327830.559 9 133098628.000 7 100688223.229 9        47.400          55.900
E08  21634060.008 8  21634061.273 9 113687754.188 8  86004021.367 9        49.800          58.600
E26  23908078.992 7  23908082.660 9 125637809.737 7  95044205.661 9        46.000          54.500
G01  20565495.281 8  20565500.633 7  20565500.297 7  20565499.652 9 108072392.062 8  84212294.429 7  84212289.426 7  80703440.313 9        50.300          42.400          47.600          54.500
G03  21133860.266 8  21133865.145 6  21133864.996 7  21133865.457 8 111059073.742 8  86539650.896 6  86539645.885 7  82933822.984 8        50.500          40.900          47.600          52.800
G08  21397615.336 8  21397620.309 6  21397620.516 7  21397619.621 8 112445190.228 8  87619679.128 6  87619675.125 7  83968850.561 8        49.500          40.400          47.700          53.200
G11  20070552.383 7  20070553.898 6                                 105471464.313 7  82185562.063 6                                        47.600          38.900
G14  22384471.281 7  22384473.668 5                                 117631140.147 7  91660679.297 5                                        44.900          31.200
G18  20259065.461 8  20259067.992 6                                 106462103.749 8  82957496.505 6                                        49.000          39.200
G22  20537312.688 8  20537312.438 7                                 107924306.097 8  84096862.161 7                                        49.600          42.700
G23  24751745.250 6  24751744.855 3                                 130071431.128 6 101354258.435 3                                        38.900          22.500
G28  23188302.727 7  23188304.652 4                                 121855355.055 7  94952232.486 4                                        42.100          26.600
G32  23395922.563 6  23395927.445 5  23395927.652 7  23395927.051 8 122946382.024 6  95802414.358 5  95802412.362 7  91810641.912 8        40.700          30.900          45.000          49.800
R04  22862419.938 6  22862421.832 6 122427213.326 6  95221167.508 6        41.600          40.700
R06  20435193.047 6                 109046017.163 6                        38.600
R19  22936404.297 6  22936407.004 6 122694250.261 6  95428904.560 6        36.900          36.700
R20  19657446.680 7  19657452.578 7 105117199.337 7  81757824.225 7        43.600          47.300
R21  20864631.414 8  20864635.176 7 111650765.848 8  86839562.310 7        48.500          45.300
> 2018 04 26 22 24 00.0000000  0 19
E03  26201932.984 7  26201936.133 8 137692086.247 7 104163178.909 8        44.500          53.600
E07  25308923.414 7  25308926.996 9 132999287.943 7 100613073.119 9        47.300          55.700
E08  21628818.141 8  21628819.570 9 113660208.808 8  85983183.482 9        49.600          58.600
E26  23891851.125 7  23891854.770 9 125552531.279 7  94979693.084 9        46.000          54.500
G01  20557494.414 8  20557499.469 7  20557498.805 8  20557498.375 9 108030345.546 8  84179530.920 7  84179525.932 8  80672041.952 9        51.500          42.600          49.800          54.300
G03  21119166.914 8  21119171.648 6  21119171.867 8  21119172.367 8 110981860.271 8  86479484.590 6  86479479.586 8  82876163.605 8        51.200          41.600          49.200          53.100
G08  21407598.719 8  21407603.742 6  21407603.938 8  21407603.348 8 112497654.083 8  87660560.052 6  87660556.062 8  84008028.111 8        50.200          40.600          49.700          53.200
G11  20064333.445 7  20064335.699 6                                 105438787.071 7  82160099.286 6                                        46.300          39.500
G14  22380923.258 7  22380926.137 5                                 117612496.537 7  91646151.792 5                                        43.200          30.900
G18  20259274.297 8  20259277.105 6                                 106463203.252 8  82958353.267 6                                        49.200          39.500
G22  20532022.227 8  20532022.148 7                                 107896504.573 8  84075198.649 7                                        50.400          42.800
G23  24728381.930 6  24728382.898 3                                 129948663.156 6 101258595.133 3                                        38.600          21.100
G28  23185690.492 6  23185692.664 4                                 121841628.655 6  94941536.595 4                                        41.100          26.800
G32  23402235.703 6  23402240.961 5  23402240.922 7  23402239.746 8 122979559.021 6  95828266.567 5  95828264.567 7  91835416.960 8        41.600          31.500          45.200          49.500
R04  22881218.344 6  22881221.836 6 122527884.547 6  95299467.343 6        40.600          41.600
R06  20414651.844 6                 108936409.311 6                        39.800
R19  22951200.281 5  22951204.441 6 122773395.682 5  95490462.075 6        33.700          37.000
R20  19656381.266 7  19656387.082 8 105111502.563 7  81753393.382 8        43.100          48.400
R21  20844191.430 7  20844194.555 7 111541388.937 7  86754491.391 7        47.600          45.900
> 2018 04 26 22 24 30.0000000  0 20
E03  26210861.609 7  26210864.414 8 137739004.783 7 104198672.468 8        44.700          53.800
E07  25290059.633 7  25290063.293 9 132900158.188 7 100538082.104 9        47.300          56.100
E08  21623653.461 8  21623654.738 9 113633067.369 8  85962651.168 9        50.200          58.600
E26  23875631.852 7  23875635.793 9 125467299.447 7  94915215.790 9        45.100          54.400
G01  20549542.625 8  20549547.930 7  20549547.492 8  20549546.773 9 107988558.223 8  84146969.375 7  84146964.372 8  80640837.143 9        51.800          43.000          50.000          54.200
G03  21104547.266 8  21104551.688 6  21104552.008 8  21104552.465 8 110905033.820 8  86419619.832 6  86419614.828 8  82818793.228 8        50.900          41.300          48.500          52.900
G08  21417660.375 8  21417665.023 6  21417665.195 7  21417664.277 8 112550528.517 8  87701760.895 6  87701756.904 7  84047512.252 8        50.700          41.100          47.900          52.600
G11  20058201.867 7  20058203.191 6                                 105406560.874 7  82134987.972 6                                        46.600          39.500
G14  22377478.914 7  22377481.289 5                                 117594396.831 7  91632048.147 5                                        44.500          31.800
G18  20259546.500 8  20259548.863 6                                 106464630.104 8  82959465.092 6                                        50.200          40.500
G22  20526806.336 8  20526806.594 7                                 107869096.418 8  84053841.647 7                                        49.500          43.500
G23  24705016.789 6  24705016.125 3                                 129825877.051 6 101162917.655 3                                        38.500          19.900
G27  24420072.859 4                  24420065.965 5  24420031.551 6 128328310.57214                  99996065.89415  95829448.39816        28.000                          33.100          36.000
G28  23183173.156 7  23183175.047 4                                 121828399.171 7  94931227.912 4                                        42.200          28.100
G32  23408643.453 7  23408647.832 5  23408647.699 7  23408647.203 8 123013228.710 7  95854502.711 5  95854500.715 7  91860559.909 8        42.400          31.500          44.400          49.900
R04  22900048.750 7  22900050.957 6 122628717.281 7  95377892.799 6        42.300          40.500
R06  20394212.883 6                 108827338.743 6                        39.600
R19  22966046.258 6  22966050.430 6 122852818.575 6  95552235.448 6        38.100          37.500
R20  19655415.961 7  19655421.402 8 105106336.607 7  81749375.421 8        43.600          48.500
R21  20823794.828 8  20823799.063 7 111432244.915 8  86669601.604 7        48.900          45.100
> 2018 04 26 22 25 00.0000000  0 19
E03  26219832.609 7  26219835.289 9 137786147.264 7 104234335.448 9        45.000          54.000
E07  25271235.281 7  25271238.816 9 132801235.375 7 100463247.650 9        47.600          56.200
E08  21618564.797 8  21618565.848 9 113606324.888 8  85942420.670 9        50.200          58.600
E26  23859421.336 7  23859424.715 9 125382110.506 7  94850770.926 9        45.900          54.400
G01  20541639.250 8  20541644.508 7  20541644.074 8  20541643.059 9 107947025.983 8  84114606.597 7  84114601.601 8  80609822.807 9        51.600          42.400          48.400          54.100
G03  21090000.563 8  21090005.168 6  21090005.352 7  21090005.770 8 110828590.131 8  86360053.337 6  86360048.340 7  82761708.670 8        50.800          40.600          47.200          52.900
G08  21427799.109 8  21427803.770 6  21427803.957 7  21427803.203 8 112603807.512 8  87743276.996 6  87743273.000 7  84087298.523 8        50.100          40.200          46.500          53.000
G11  20052154.344 7  20052155.375 6                                 105374782.014 7  82110225.221 6                                        47.200          38.600
G14  22374136.977 7  22374139.230 5                                 117576836.770 7  91618365.003 5                                        43.800          30.800
G18  20259879.328 8  20259881.445 6                                 106466379.855 8  82960828.536 6                                        48.700          40.700
G22  20521664.891 8  20521664.645 7                                 107842075.737 8  84032786.580 7                                        50.300          43.500
G23  24681648.742 6  24681647.117 3                                 129703070.145 6 101067223.961 3                                        38.800          21.100
G28  23180749.172 7  23180751.574 4                                 121815661.325 7  94921302.321 4                                        42.000          27.800
G32  23415142.305 6  23415147.211 5  23415147.617 7  23415146.996 8 123047384.632 6  95881117.708 5  95881115.704 7  91886065.943 8        40.300          30.200          45.700          49.800
R04  22918908.008 6  22918910.059 6 122729703.485 6  95456437.614 6        40.500          41.100
R06  20373873.578 6                 108718804.014 6                        40.200
R19  22980945.492 6  22980948.504 6 122932512.662 6  95614219.714 6        37.600          39.000
R20  19654548.258 7  19654553.938 8 105101697.896 7  81745767.535 8        43.600          48.500
R21  20803442.164 8  20803445.422 7 111323332.116 8  86584891.658 7        48.200          44.900
> 2018 04 26 22 25 30.0000000  0 20
E03  26228843.508 7  26228846.594 9 137833501.832 7 104270158.875 9        43.700          54.100
E07  25252448.484 7  25252451.965 9 132702510.646 7 100388563.039 9        47.200          55.900
E08  21613549.867 8  21613550.637 9 113579970.916 8  85922484.074 9        50.800          58.500
E26  23843216.148 7  23843220.063 9 125296955.132 7  94786351.459 9        46.100          54.500
G01  20533782.750 8  20533787.633 7  20533787.563 8  20533786.477 9 107905739.115 8  84082435.016 7  84082430.034 8  80578991.712 9        52.000          42.200          48.600          54.200
G03  21075524.617 8  21075529.098 6  21075529.309 8  21075530.055 8 110752519.371 8  86300777.442 6  86300772.438 8  82704902.614 8        50.500          41.000          48.400          53.100
G08  21438012.430 8  21438017.309 6  21438017.543 8  21438016.742 8 112657479.231 8  87785099.112 6  87785095.115 8  84127378.046 8        50.000          40.300          48.300          52.700
G11  20046190.586 7  20046192.117 6                                 105343441.483 7  82085804.031 6                                        47.000          39.300
G14  22370896.391 7  22370898.699 5                                 117559806.479 7  91605094.647 5                                        43.900          31.400
G18  20260271.523 8  20260274.012 6                                 106468442.108 8  82962435.488 6                                        49.100          40.200
G22  20516594.555 8  20516594.344 7                                 107815431.654 8  84012024.969 7                                        50.200          43.000
G23  24658273.039 6  24658272.859 3                                 129580234.609 6 100971507.988 3                                        39.400          21.700
G27  24454140.891 4                                                                                                                        28.000
G28  23178417.820 7  23178419.328 4                                 121803403.667 7  94911750.861 4                                        43.800          27.800
G32  23421732.625 6  23421738.434 5  23421738.445 7  23421737.340 8 123082014.880 6  95908102.287 5  95908100.276 7  91911926.177 8        41.600          31.800          46.300          50.300
R04  22937790.961 7  22937794.625 6 122830828.685 7  95535090.522 6        42.200          41.500
R06  20353632.773 6                 108610796.290 6                        39.600
R19  22995892.125 6  22995894.668 6 123012466.442 6  95676405.977 6        38.600          38.500
R20  19653777.688 7  19653783.480 7 105097577.145 7  81742562.484 7        43.600          47.700
R21  20783130.281 8  20783134.145 7 111214642.910 8  86500355.625 7        48.800          44.900
> 2018 04 26 22 26 00.0000000  0 19
E03  26237893.883 7  26237897.039 9 137881061.900 7 104306137.753 9        44.900          54.300
E07  25233698.703 7  25233702.301 9 132603980.338 7 100314025.503 9        47.300          56.100
E08  21608607.625 8  21608608.680 9 113554000.219 8  85902837.411 9        50.300          58.400
E26  23827017.672 7  23827021.270 9 125211829.197 7  94721954.272 9        46.300          54.400
G01  20525971.727 8  20525977.207 7  20525976.695 8  20525976.051 9 107864693.109 8  84050451.121 7  84050446.126 8  80548340.480 9        51.400          43.500          49.800          54.200
G03  21061118.836 8  21061123.809 6  21061123.555 8  21061124.469 8 110676817.021 8  86241788.613 6  86241783.608 8  82648371.657 8        50.300          41.300          49.100          53.100
G08  21448299.383 8  21448304.270 6  21448304.371 8  21448303.992 8 112711537.064 8  87827222.085 6  87827218.087 8  84167745.895 8        50.500          40.100          49.100          53.400
G11  20040309.180 7  20040310.695 6                                 105312535.209 7  82061721.224 6                                        45.600          38.600
G14  22367755.742 7  22367758.074 5                                 117543300.569 7  91592232.916 5                                        43.900          32.600
G18  20260722.844 8  20260725.281 6                                 106470812.152 8  82964282.269 6                                        48.500          40.900
G22  20511594.727 8  20511594.762 7                                 107789157.955 8  83991551.964 7                                        49.500          43.400
G23  24634892.188 6  24634892.422 3                                 129457368.079 6 100875767.841 3                                        40.100          21.800
G28  23176174.648 7  23176176.781 4                                 121791620.475 7  94902569.191 4                                        43.000          28.000
G32  23428411.797 6  23428416.695 5  23428416.652 7  23428415.949 8 123117112.617 6  95935451.185 5  95935449.182 7  91938135.531 8        40.900          31.000          45.300          50.500
R04  22956701.297 6  22956704.059 7 122932084.600 6  95613845.116 7        41.700          42.100
R06  20333489.961 6                 108503313.414 6                        40.200
R19  23010887.070 6  23010888.914 6 123092673.514 6  95738789.277 6        39.400          39.900
R20  19653104.016 7  19653108.813 8 105093970.170 7  81739757.068 8        44.400          48.000
R21  20762860.961 8  20762864.645 7 111106175.418 8  86415992.037 7        48.500          45.000
> 2018 04 26 22 26 30.0000000  0 19
E03  26246987.164 7  26246990.480 8 137928847.338 7 104342287.135 8        44.200          53.900
E07  25214990.313 7  25214993.938 9 132505667.369 7 100239652.393 9        47.000          56.500
E08  21603742.563 8  21603743.621 9 113528434.079 8  85883496.803 9        50.100          58.300
E26  23810828.508 7  23810832.266 9 125126755.279 7  94657596.423 9        45.200          54.400
G01  20518211.352 8  20518216.730 7  20518216.152 8  20518215.223 9 107823910.191 8  84018672.230 7  84018667.228 8  80517885.715 9        52.800          42.600          50.700          54.300
G03  21046787.109 8  21046792.141 6  21046791.980 8  21046793.039 8 110601505.046 8  86183103.962 6  86183098.973 8  82592132.205 8        50.300          41.100          48.300          53.500
G08  21458663.906 8  21458668.230 6  21458668.707 8  21458667.723 8 112766001.019 8  87869661.548 6  87869657.545 8  84208417.046 8        50.100          40.100          48.600          52.600
G11  20034514.891 7  20034516.379 6                                 105282085.767 7  82037994.392 6                                        46.000          39.200
G14  22364718.523 7  22364721.059 5                                 117527341.018 7  91579796.911 5                                        43.900          31.600
G18  20261236.469 8  20261239.348 6                                 106473511.503 8  82966385.668 6                                        49.500          40.000
G22  20506669.672 8  20506669.707 7                                 107763276.075 8  83971384.276 7                                        49.400          43.300
G23  24611509.938 6  24611509.438 3                                 129334494.637 6 100780022.319 3                                        38.600          20.600
G28  23174026.484 7  23174028.129 4                                 121780332.689 7  94893773.562 4                                        44.200          26.400
G32  23435182.797 6  23435187.844 5  23435187.965 7  23435187.688 8 123152697.675 6  95963179.823 5  95963177.820 7  91964708.788 8        40.800          30.600          45.200          50.400
R04  22975637.281 7  22975640.758 7 123033489.965 7  95692715.966 7        42.200          42.300
R06  20313451.633 6                 108396379.231 6                        40.200
R19  23025930.953 6  23025933.293 6 123173154.371 6  95801385.515 6        37.300          38.600
R20  19652528.992 7  19652534.488 8 105090900.472 7  81737369.524 8        44.000          48.600
R21  20742637.023 8  20742640.898 7 110997954.519 8  86331820.241 7        48.900          45.900
> 2018 04 26 22 27 00.0000000  0 19
E03  26256121.086 7  26256123.891 9 137976844.493 7 104378596.667 9        44.100          54.000
E07  25196321.500 7  25196324.977 9 132407560.966 7 100165435.555 9        47.600          56.400
E08  21598952.016 8  21598953.129 9 113503260.169 8  85864452.905 9        50.400          58.300
E26  23794647.469 7  23794650.895 9 125041722.211 7  94593269.482 9        45.700          54.400
G01  20510498.328 8  20510503.977 7  20510503.516 8  20510502.293 9 107783378.776 8  83987089.313 7  83987084.317 8  80487618.755 9        51.600          42.700          48.300          54.100
G03  21032528.219 8  21032532.543 6  21032532.863 7  21032533.734 8 110526571.798 8  86124714.420 6  86124709.423 7  82536175.569 8        50.800          41.000          46.700          53.200
G08  21469102.688 8  21469107.102 6  21469107.367 7  21469106.824 8 112820857.342 8  87912406.732 6  87912402.735 7  84249381.176 8        49.800          39.900          46.800          53.300
G11  20028805.398 7  20028807.180 6                                 105252081.990 7  82014614.830 6                                        46.000          39.200
G14  22361783.242 7  22361785.734 5                                 117511915.894 7  91567777.335 5                                        44.800          31.900
G18  20261810.266 8  20261813.367 6                                 106476528.324 8  82968736.429 6                                        48.100          40.500
G22  20501816.461 8  20501816.789 7                                 107737772.729 8  83951511.543 7                                        48.600          43.100
G23  24588124.953 6  24588125.273 3                                 129211604.379 6 100684263.698 3                                        39.200          19.900
G28  23171970.078 7  23171971.871 4                                 121769527.243 7  94885353.738 4                                        43.400          27.800
G32  23442045.070 6  23442050.188 5  23442050.074 7  23442048.797 8 123188756.188 6  95991277.345 5  95991275.349 7  91991635.588 8        41.200          30.500          45.800          49.300
R04  22994598.516 6  22994601.645 7 123135028.433 6  95771690.311 7        41.900          42.600
R06  20293511.883 6                 108289983.809 6                        40.100
R19  23041024.492 6  23041027.227 6 123253895.792 6  95864184.397 6        38.600          38.800
R20  19652053.375 7  19652058.805 8 105088356.416 7  81735390.812 8        43.700          48.400
R21  20722457.711 8  20722461.086 7 110889971.040 8  86247833.101 7        48.600          44.900
> 2018 04 26 22 27 30.0000000  0 19
E03  26265294.891 7  26265297.758 8 138025052.740 7 104415065.897 8        43.900          53.800
E07  25177692.398 7  25177695.695 9 132309663.538 7 100091376.787 9        47.600          56.100
E08  21594236.406 8  21594237.520 9 113478479.187 8  85845706.265 9        50.100          58.400
E26  23778474.219 7  23778477.609 9 124956731.938 7  94528974.911 9        45.600          54.400
G01  20502833.398 8  20502838.746 7  20502838.574 8  20502837.355 9 107743100.472 8  83955703.619 7  83955698.616 8  80457540.803 9        52.000          42.600          48.900          54.200
G03  21018341.367 8  21018345.957 6  21018346.277 8  21018346.852 8 110452018.710 8  86066621.106 6  86066616.095 8  82480502.816 8        50.200          41.100          48.800          53.200
G08  21479615.438 8  21479620.855 6  21479621.176 8  21479620.168 8 112876105.246 8  87955457.038 6  87955453.042 8  84290637.720 8        50.200          40.400          48.800          53.200
G11  20023181.313 7  20023182.719 6                                 105222526.262 7  81991584.389 6                                        46.400          39.200
G14  22358950.484 7  22358952.129 5                                 117497026.336 7  91556175.102 5                                        44.700          31.700
G18  20262445.227 8  20262448.082 6                                 106479863.435 8  82971335.211 6                                        48.300          40.200
G22  20497035.367 8  20497035.566 7                                 107712648.081 8  83931933.904 7                                        49.800          42.800
G23  24564737.375 6  24564736.043 3                                 129088700.871 6 100588494.739 3                                        37.800          19.000
G28  23170006.336 7  23170007.855 4                                 121759204.554 7  94877310.068 4                                        43.000          25.800
G32  23448996.859 6  23449001.742 5  23449001.570 7  23449000.586 8 123225287.416 6  96019743.222 5  96019741.215 7  92018915.396 8        41.700          31.100          45.400          48.800
R04  23013585.438 6  23013588.641 7 123236698.029 6  95850766.642 7        41.100          43.200
R06  20273675.656 6                 108184130.737 6                        39.900
R19  23056167.727 6  23056169.797 6 123334897.496 6  95927185.671 6        36.400          40.100
R20  19651675.742 7  19651681.836 8 105086340.290 7  81733822.705 8        43.700          48.000
R21  20702323.656 8  20702327.598 7 110782229.185 8  86164033.887 7        48.100          46.100
> 2018 04 26 22 28 00.0000000  0 19
E03  26274509.773 7  26274512.887 8 138073478.881 7 104451699.960 8        43.900          53.600
E07  25159104.672 7  25159108.094 9 132211984.841 7 100017483.491 9        46.300          56.200
E08  21589597.070 8  21589598.000 9 113454099.308 8  85827263.057 9        50.600          58.500
E26  23762311.188 7  23762314.445 9 124871793.923 7  94464719.878 9        45.800          54.400
G01  20495218.633 8  20495224.250 7  20495223.766 8  20495222.688 9 107703084.271 8  83924522.169 7  83924517.173 8  80427658.584 9        51.500          42.600          50.300          54.500
G03  21004228.102 8  21004232.922 6  21004233.027 8  21004233.527 8 110377854.602 8  86008830.898 6  86008825.895 8  82425120.539 8        50.500          41.400          48.900          53.200
G08  21490204.734 8  21490209.730 6  21490209.863 8  21490209.219 8 112931751.549 8  87998817.790 6  87998813.793 8  84332191.781 8        48.800          40.500          49.300          52.700
G11  20017643.617 7  20017645.527 6                                 105193427.880 7  81968910.324 6                                        46.000          39.200
G14  22356220.195 7  22356223.078 5                                 117482680.807 7  91544996.772 5                                        42.900          30.400
G18  20263141.766 8  20263144.691 6                                 106483525.415 8  82974188.705 6                                        48.700          40.600
G22  20492328.203 8  20492328.000 7                                 107687910.275 8  83912657.701 7                                        48.900          42.800
G23  24541349.211 6  24541348.602 3                                 128965794.809 6 100492723.834 3                                        38.400          19.900
G28  23168134.844 7  23168136.387 4                                 121749372.518 7  94869648.755 4                                        43.700          28.000
G32  23456039.500 6  23456044.262 4  23456043.785 7  23456043.457 8 123262297.883 6  96048582.569 4  96048580.576 7  92046553.098 8        41.100          29.700          44.100          49.200
R04  23032596.406 7  23032599.863 7 123338503.144 7  95929948.409 7        42.000          42.300
R06  20253942.766 6                 108078830.270 6                        40.200
R19  23071358.938 6  23071362.082 6 123416166.194 6  95990394.668 6        38.800          40.600
R20  19651400.063 7  19651405.254 8 105084861.735 7  81732672.724 8        43.600          48.000
R21  20682237.031 8  20682240.613 7 110674740.447 8  86080431.556 7        48.400          45.800
> 2018 04 26 22 28 30.0000000  0 19
E03  26283764.734 7  26283767.504 8 138122112.129 7 104488490.682 8        44.600          53.700
E07  25140556.859 7  25140560.539 9 132114516.953 7  99943749.665 9        47.100          56.400
E08  21585032.242 8  21585033.445 9 113430110.995 8  85809116.068 9        49.300          58.500
E26  23746156.102 7  23746159.629 9 124786899.849 7  94400498.075 9        45.500          54.400
G01  20487652.172 8  20487657.621 7  20487657.125 8  20487656.172 9 107663321.525 8  83893538.219 7  83893533.215 8  80397965.625 9        51.200          42.600          50.000          54.200
G03  20990187.641 8  20990192.152 7  20990192.121 8  20990192.520 8 110304070.623 8  85951336.911 7  85951331.907 8  82370022.130 8        50.600          42.100          48.800          53.200
G08  21500867.828 8  21500872.520 6  21500872.977 7  21500872.242 8 112987785.757 8  88042480.802 6  88042476.806 7  84374035.497 8        50.900          40.500          47.300          52.700
G11  20012192.273 7  20012193.328 6                                 105164778.805 7  81946586.377 6                                        46.400          39.800
G14  22353591.617 7  22353594.594 5                                 117468870.038 7  91534235.123 5                                        44.100          31.200
G18  20263898.953 8  20263901.672 6                                 106487504.978 8  82977289.655 6                                        49.000          40.700
G22  20487692.000 8  20487692.152 7                                 107663548.955 8  83893674.857 7                                        49.200          43.000
G23  24517959.398 6  24517958.887 3                                 128842879.652 6 100396945.817 3                                        39.400          20.400
G28  23166354.984 7  23166356.996 4                                 121740020.525 7  94862361.515 4                                        43.900          26.500
G32  23463171.789 7  23463176.176 4  23463176.227 7  23463175.488 8 123299776.609 7  96077786.787 4  96077784.787 7  92074540.469 8        42.100          29.900          43.800          48.700
R04  23051631.164 6  23051634.156 7 123440431.648 6  96009226.148 7        41.300          42.700
R06  20234311.250 6                 107974076.020 6                        40.100
R19  23086600.492 6  23086602.195 6 123497691.623 6  96053803.332 6        39.800          40.400
R20  19651222.063 7  19651228.289 8 105083912.431 7  81731934.383 8        43.500          48.600
R21  20662196.508 8  20662199.680 7 110567498.750 8  85997021.359 7        48.100          45.700
> 2018 04 26 22 29 00.0000000  0 19
E03  26293056.797 7  26293059.781 8 138170944.344 7 104525431.927 8        44.000          53.400
E07  25122048.242 7  25122052.121 9 132017254.747 7  99870171.454 9        46.400          56.200
E08  21580540.781 8  21580541.906 9 113406507.480 8  85791260.175 9        50.300          58.600
E26  23730008.758 7  23730012.277 9 124702044.203 7  94336305.353 9        46.700          54.500
G01  20480132.258 8  20480137.527 7  20480137.270 7  20480136.371 9 107623806.347 8  83862747.179 7  83862742.175 7  80368457.546 9        51.100          42.600          47.700          54.900
G03  20976218.273 8  20976223.203 6  20976223.281 7  20976223.688 8 110230660.680 8  85894134.361 6  85894129.356 7  82315203.028 8        50.500          41.200          47.200          53.400
G08  21511602.625 8  21511607.824 6  21511607.930 7  21511606.727 8 113044199.094 8  88086439.252 6  88086435.247 7  84416162.349 8        50.000          40.100          47.100          52.300
G11  20006824.672 7  20006825.754 6                                 105136573.152 7  81924607.942 6                                        46.000          39.400
G14  22351063.875 7  22351066.344 5                                 117455587.738 7  91523885.307 5                                        43.700          30.700
G18  20264715.500 7  20264718.219 6                                 106491796.064 7  82980633.361 6                                        47.300          39.500
G22  20483126.602 8  20483126.289 7                                 107639556.602 8  83874979.517 7                                        48.200          42.500
G23  24494566.508 6  24494566.734 3                                 128719950.926 6 100301157.178 3                                        40.800          21.100
G28  23164665.766 7  23164667.145 4                                 121731141.293 7  94855442.659 4                                        43.700          27.900
G32  23470390.820 6  23470396.008 4  23470396.031 7  23470394.500 8 123337715.284 6  96107349.399 4  96107347.403 7  92102871.316 8        41.600          29.100          45.100          48.000
R04  23070685.203 6  23070689.734 6 123542473.237 6  96088591.785 6        41.300          41.800
R06  20214781.984 6                 107869863.430 6                        40.000
R19  23101886.141 6  23101888.828 6 123579465.724 6  96117405.414 6        40.800          40.500
R20  19651143.258 7  19651148.414 8 105083486.796 7  81731603.318 8        43.800          48.200
R21  20642199.984 8  20642204.719 7 110460500.517 8  85913800.536 7        48.100          45.400
> 2018 04 26 22 29 30.0000000  0 19
E03  26302389.945 7  26302393.121 8 138219990.606 7 104562535.102 8        43.400          53.400
E07  25103582.516 7  25103586.129 9 131920216.284 7  99796762.488 9        46.600          55.700
E08  21576125.359 8  21576126.527 9 113383305.158 8  85773707.771 9        49.900          58.600
E26  23713871.969 7  23713875.352 9 124617244.771 7  94272155.147 9        47.400          54.600
G01  20472663.445 8  20472669.070 7  20472668.488 8  20472667.684 9 107584556.015 8  83832162.513 7  83832157.510 8  80339147.249 9        51.200          43.500          48.600          54.500
G03  20962323.070 8  20962328.059 7  20962327.984 8  20962328.250 8 110157641.861 8  85837236.592 7  85837231.595 8  82260675.997 8        50.100          42.100          49.100          53.000
G08  21522413.070 8  21522418.109 6  21522418.234 8  21522417.426 8 113101007.066 8  88130705.195 6  88130701.205 8  84458583.886 8        50.700          40.100          48.300          52.600
G11  20001544.805 7  20001546.758 6                                 105108829.340 7  81902989.389 6                                        45.500          39.900
G14  22348641.008 7  22348642.742 5                                 117442850.684 7  91513960.354 5                                        44.300          31.700
G18  20265594.859 7  20265597.887 6                                 106496415.378 7  82984232.831 6                                        47.800          40.300
G22  20478634.703 8  20478634.078 7                                 107615949.475 8  83856584.360 7                                        48.300          43.100
G23  24471174.609 6  24471174.023 3                                 128597027.974 6 100205373.067 3                                        40.400          21.300
G28  23163069.031 6  23163071.250 4                                 121722750.769 6  94848904.616 4                                        41.900          26.300
G32  23477701.094 6  23477705.668 4  23477705.227 7  23477704.746 7 123376128.751 6  96137281.988 4  96137279.985 7  92131556.712 7        41.700          29.600          43.900          47.800
R04  23089766.234 6  23089769.305 6 123644641.419 6  96168055.930 6        40.300          41.800
R06  20195357.195 6                 107766211.206 6                        39.600
R19  23117222.391 6  23117225.391 6 123661504.176 6  96181213.078 6        41.400          40.800
R20  19651165.430 7  19651170.418 7 105083602.960 7  81731693.675 7        44.500          47.500
R21  20622255.164 8  20622259.078 7 110353765.929 8  85830784.745 7        48.400          46.300
> 2018 04 26 22 30 00.0000000  0 19
E03  26311763.852 7  26311767.203 8 138269250.459 7 104599799.856 8        43.800          53.400
E07  25085159.875 7  25085163.594 9 131823403.952 7  99723524.590 9        46.500          56.200
E08  21571786.523 8  21571787.711 9 113360504.774 8  85756459.443 9        50.000          58.600
E26  23697745.813 7  23697749.691 9 124532503.561 7  94208048.994 9        46.700          54.500
G01  20465245.141 8  20465250.480 7  20465250.434 8  20465249.094 9 107545572.250 8  83801785.554 7  83801780.559 8  80310035.995 9        50.900          43.400          50.600          54.500
G03  20948502.820 8  20948507.793 6  20948507.828 8  20948508.336 8 110085015.645 8  85780644.752 6  85780639.755 8  82206442.146 8        50.200          41.900          49.400          53.000
G08  21533298.344 8  21533303.453 6  21533303.617 8  21533302.707 8 113158208.996 8  88175278.124 6  88175274.134 8  84501299.596 8        50.600          40.300          48.600          52.200
G11  19996354.094 7  19996354.848 6                                 105081548.878 7  81881731.895 6                                        47.400          38.900
G14  22346320.156 7  22346323.246 5                                 117430660.276 7  91504461.332 5                                        42.900          32.400
G18  20266535.977 8  20266538.652 6                                 106501363.985 8  82988088.876 6                                        48.800          40.200
G22  20474215.180 8  20474215.273 7                                 107592727.766 8  83838489.529 7                                        49.800          43.100
G23  24447785.484 6  24447784.957 3                                 128474114.527 6 100109596.402 3                                        41.500          22.800
G28  23161566.125 6  23161567.922 4                                 121714849.367 6  94842747.671 4                                        41.400          27.200
G32  23485100.836 6  23485105.563 4  23485105.750 7  23485104.992 8 123415016.318 6  96167583.968 4  96167581.964 7  92160596.118 8        40.300          28.500          42.800          48.100
R04  23108867.328 6  23108870.867 6 123746934.156 6  96247616.922 6        40.100          41.300
R06  20176039.523 6                 107663123.015 6                        40.300
R19  23132608.375 6  23132611.602 6 123743806.702 6  96245226.190 6        40.800          41.800
R20  19651287.648 7  19651293.473 8 105084262.823 7  81732206.891 8        44.300          48.300
R21  20602359.422 8  20602363.469 7 110247299.311 8  85747977.392 7        48.600          46.700
> 2018 04 26 22 30 30.0000000  0 19
E03  26321176.336 7  26321179.563 8 138318712.307 7 104637217.417 8        44.200          53.500
E07  25066778.281 7  25066782.176 9 131726809.140 7  99650451.260 9        46.200          56.700
E08  21567522.445 8  21567523.551 9 113338096.104 8  85739507.438 9        51.000          58.600
E26  23681629.852 7  23681633.270 9 124447811.676 7  94143980.155 9        47.200          54.700
G01  20457875.750 8  20457880.602 7  20457880.203 8  20457879.387 9 107506845.687 8  83771609.017 7  83771604.021 8  80281116.824 9        51.600          42.700          49.000          54.500
G03  20934755.469 8  20934760.359 7  20934760.555 8  20934760.375 8 110012772.404 8  85724351.330 7  85724346.333 8  82152494.288 8        51.100          42.000          48.400          52.800
G08  21544256.047 8  21544261.055 6  21544261.238 7  21544260.367 8 113215793.185 8  88220148.927 6  88220144.938 7  84544300.780 8        49.600          39.700          46.800          52.600
G11  19991249.555 7  19991251.008 6                                 105054722.880 7  81860828.521 6                                        47.500          39.400
G14  22344103.664 7  22344105.938 5                                 117419005.965 7  91495380.049 5                                        43.700          33.100
G18  20267538.789 8  20267541.418 6                                 106506631.938 8  82992193.776 6                                        48.000          40.300
G22  20469867.711 8  20469867.582 7                                 107569880.426 8  83820686.411 7                                        49.300          42.900
G23  24424396.289 6  24424395.543 3                                 128351202.958 6 100013821.139 3                                        40.500          21.700
G28  23160152.078 6  23160154.566 4                                 121707425.590 6  94836962.894 4                                        40.900          27.500
G32  23492588.617 6  23492593.512 4  23492593.492 7  23492592.297 8 123454366.008 6  96198246.086 4  96198244.087 7  92189980.646 8        39.400          28.300          44.500          48.100
R04  23127990.438 6  23127994.805 7 123849337.643 6  96327264.080 7        39.900          42.300
R06  20156823.750 6                 107560590.979 6                        40.400
R19  23148041.398 6  23148043.516 6 123826361.911 6  96309435.795 6        41.300          41.100
R20  19651511.805 7  19651516.691 8 105085457.488 7  81733136.077 8        44.600          48.100
R21  20582512.156 8  20582516.246 7 110141093.410 8  85665372.814 7        48.700          46.800
> 2018 04 26 22 31 00.0000000  0 19
E03  26330627.664 7  26330630.531 8 138368378.746 7 104674789.770 8        43.100          53.100
E07  25048439.742 7  25048443.223 9 131630437.337 7  99577546.634 9        46.200          56.300
E08  21563333.375 8  21563334.574 9 113316082.946 8  85722854.635 9        50.700          58.500
E26  23665523.891 7  23665527.340 9 124363174.293 7  94079952.542 9        46.200          54.800
G01  20450556.219 8  20450561.055 7  20450561.020 7  20450560.313 9 107468381.139 8  83741636.655 7  83741631.652 7  80252393.307 9        52.400          42.700          47.500          54.600
G03  20921081.430 8  20921086.047 6  20921086.289 7  20921086.594 8 109940916.697 8  85668359.896 6  85668354.892 7  82098835.831 8        49.500          41.400          47.800          53.100
G08  21555287.219 8  21555291.875 6  21555292.227 7  21555290.836 8 113273761.903 8  88265319.360 6  88265315.363 7  84587589.117 8        50.300          39.400          47.700          51.600
G11  19986231.719 7  19986233.508 6                                 105028356.674 7  81840283.425 6                                        45.500          39.500
G14  22341988.547 7  22341990.625 5                                 117407891.727 7  91486719.609 5                                        42.700          31.900
G18  20268603.063 7  20268605.617 6                                 106512223.718 7  82996551.007 6                                        47.800          39.900
G22  20465591.930 8  20465591.297 7                                 107547410.704 8  83803177.539 7                                        48.100          42.700
G23  24401007.336 6  24401008.035 3                                 128228299.953 6  99918052.596 3                                        40.900          22.800
G28  23158830.992 6  23158833.430 4                                 121700482.699 6  94831552.852 4                                        39.400          26.900
G32  23500165.164 7  23500169.789 5  23500169.840 7  23500168.809 8 123494180.295 7  96229270.218 5  96229268.222 7  92219712.086 8        42.300          30.900          45.100          48.400
R04  23147135.180 6  23147138.645 7 123951853.106 6  96406998.327 7        40.500          42.100
R06  20137715.422 6                 107458621.147 6                        40.200
R19  23163521.836 6  23163524.547 6 123909172.443 6  96373843.990 6        41.700          41.400
R20  19651835.609 7  19651841.211 7 105087192.074 7  81734485.195 7        43.900          47.700
R21  20562714.906 8  20562718.859 7 110035155.933 8  85582977.032 7        49.100          45.900
> 2018 04 26 22 31 30.0000000  0 19
E03  26340119.203 7  26340122.285 8 138418259.184 7 104712523.996 8        43.600          53.100
E07  25030145.672 7  25030148.949 9 131534300.916 7  99504820.046 9        46.700          56.200
E08  21559221.633 8  21559222.852 9 113294475.973 8  85706509.107 9        50.000          58.500
E26  23649430.656 7  23649433.957 9 124278603.438 7  94015975.262 9        46.600          54.800
G01  20443288.656 8  20443294.078 7  20443293.449 8  20443292.863 9 107430190.213 8  83711877.484 7  83711872.489 8  80223874.114 9        50.800          43.400          49.200          54.700
G03  20907483.875 8  20907488.773 6  20907488.941 8  20907489.023 8 109869459.866 8  85612679.248 6  85612674.236 8  82045475.213 8        49.400          41.400          49.500          53.000
G08  21566392.977 8  21566398.188 6  21566398.234 8  21566397.680 8 113332124.704 8  88310796.869 6  88310792.873 8  84631171.736 8        50.400          39.700          48.200          52.200
G11  19981304.375 7  19981306.156 6                                 105002462.000 7  81820105.753 6                                        45.000          39.600
G14  22339978.211 7  22339980.617 5                                 117397329.062 7  91478488.970 5                                        43.400          32.000
G18  20269730.570 8  20269733.957 6                                 106518150.191 8  83001169.031 6                                        48.700          40.100
G22  20461389.719 8  20461389.461 7                                 107525329.047 8  83785971.057 7                                        48.800          42.800
G23  24377623.930 6  24377624.543 3                                 128105418.888 6  99822301.122 3                                        39.300          21.800
G28  23157603.500 6  23157605.895 4                                 121694030.764 6  94826525.360 4                                        40.600          26.000
G32  23507831.656 6  23507836.375 4  23507836.621 7  23507835.512 8 123534468.237 6  96260663.422 4  96260661.415 7  92249797.232 8        40.700          29.300          44.900          48.400
R04  23166302.242 6  23166304.980 7 124054488.291 6  96486825.678 7        39.700          42.600
R06  20118713.758 6                 107357227.467 6                        40.400
R19  23179051.859 6  23179054.363 7 123992248.329 6  96438458.577 7        40.900          42.300
R20  19652264.039 7  19652269.016 7 105089478.707 7  81736263.683 7        44.600          47.900
R21  20542971.648 8  20542974.738 7 109929501.168 8  85500801.118 7        49.100          45.900
> 2018 04 26 22 32 00.0000000  0 19
E03  26349649.055 7  26349652.254 8 138468338.883 7 104750408.960 8        44.500          53.200
E07  25011893.578 7  25011897.453 9 131438387.976 7  99432262.535 9        46.100          56.500
E08  21555184.602 8  21555185.832 9 113273261.646 8  85690460.619 9        49.300          58.500
E26  23633347.883 7  23633351.020 9 124194086.997 7  93952039.152 9        46.600          54.800
G01  20436071.023 8  20436075.863 7  20436075.719 8  20436074.766 9 107392260.281 8  83682321.708 7  83682316.712 8  80195549.821 9        50.000          43.400          49.900          54.700
G03  20893959.672 8  20893964.516 6  20893964.543 8  20893964.770 8 109798389.028 8  85557299.396 6  85557294.384 8  81992402.851 8        49.000          41.800          49.400          53.200
G08  21577570.938 8  21577576.293 6  21577576.473 8  21577575.840 8 113390866.959 8  88356570.042 6  88356566.045 8  84675037.696 8        49.900          39.300          48.100          51.800
G11  19976464.305 7  19976465.621 6                                 104977026.818 7  81800286.143 6                                        45.300          39.400
G14  22338070.516 7  22338072.801 5                                 117387304.410 7  91470677.578 5                                        43.600          30.900
G18  20270920.039 8  20270922.426 6                                 106524398.389 8  83006037.759 6                                        48.100          40.200
G22  20457258.797 8  20457258.656 7                                 107503621.371 8  83769055.996 7                                        49.000          43.200
G23  24354242.680 6  24354243.570 3                                 127982549.164 6  99726558.472 3                                        39.500          22.000
G28  23156467.758 7  23156469.000 4                                 121688056.035 7  94821869.704 4                                        42.700          26.700
G32  23515585.461 6  23515590.754 5  23515590.359 7  23515589.539 8 123575214.684 6  96292413.896 5  96292411.889 7  92280224.792 8        41.100          30.200          44.100          49.000
R04  23185487.406 6  23185490.281 6 124157226.458 6  96566733.129 6        41.100          41.200
R06  20099818.820 6                 107256397.781 6                        39.900
R19  23194628.570 6  23194632.234 7 124075574.935 6  96503268.151 7        41.400          42.100
R20  19652792.125 7  19652797.359 8 105092304.826 7  81738461.777 8        43.900          48.600
R21  20523278.070 8  20523282.102 7 109824118.953 8  85418837.172 7        48.700          46.800
> 2018 04 26 22 32 30.0000000  0 19
E03  26359216.234 7  26359219.695 8 138518616.374 7 104788443.554 8        43.600          53.100
E07  24993684.984 7  24993688.688 9 131342700.021 7  99359875.244 9        46.600          56.400
E08  21551222.266 8  21551223.574 9 113252439.792 8  85674709.037 9        49.400          58.500
E26  23617275.305 7  23617278.629 9 124109626.192 7  93888145.119 9        46.700          54.900
G01  20428903.188 8  20428907.980 7  20428907.715 8  20428907.059 9 107354592.276 8  83652970.025 7  83652965.029 8  80167421.128 9        51.800          43.200          48.900          54.600
G03  20880508.898 8  20880513.730 6  20880513.793 8  20880514.098 8 109727704.741 8  85502220.748 6  85502215.743 8  81939619.152 8        50.800          41.600          48.600          53.500
G08  21588821.117 8  21588826.363 6  21588826.727 7  21588826.203 8 113449986.618 8  88402637.315 6  88402633.319 7  84719185.492 8        48.900          39.700          46.800          52.300
G11  19971711.664 7  19971713.293 6                                 104952052.313 7  81780825.493 6                                        47.100          40.000
G14  22336265.133 7  22336267.320 5                                 117377817.949 7  91463285.523 5                                        43.100          31.500
G18  20272169.805 7  20272173.148 6                                 106530968.474 7  83011157.310 6                                        47.800          40.000
G22  20453199.055 8  20453198.875 7                                 107482286.851 8  83752431.702 7                                        50.200          42.800
G23  24330864.102 6  24330864.699 3                                 127859693.640 6  99630826.909 3                                        40.000          23.200
G28  23155420.172 6  23155422.902 4                                 121682557.311 6  94817585.021 4                                        41.100          28.700
G32  23523426.125 6  23523431.355 5  23523431.055 7  23523429.848 8 123616418.041 6  96324520.395 5  96324518.399 7  92310993.521 8        40.300          30.200          45.100          48.700
R04  23204691.930 6  23204695.031 6 124260064.225 6  96646718.030 6        40.900          41.900
R06  20081028.844 6                 107156134.955 6                        39.600
R19  23210252.250 6  23210254.938 6 124159150.825 6  96568271.633 6        40.800          41.200
R20  19653421.594 7  19653426.914 8 105095671.904 7  81741080.597 8        44.300          48.100
R21  20503636.109 8  20503640.871 7 109719012.695 8  85337087.895 7        49.100          45.900
> 2018 04 26 22 33 00.0000000  0 19
E03  26368822.523 7  26368825.355 8 138569095.188 7 104826630.446 8        43.500          52.800
E07  24975520.164 7  24975523.871 9 131247243.398 7  99287662.923 9        46.700          56.000
E08  21547335.523 8  21547336.930 9 113232015.063 8  85659257.870 9        50.300          58.500
E26  23601214.695 7  23601217.824 9 124025227.072 7  93824297.753 9        46.500          54.900
G01  20421785.695 8  20421790.871 7  20421790.422 8  20421789.773 9 107317191.775 8  83623826.779 7  83623821.783 8  80139492.178 9        49.600          42.800          48.000          54.700
G03  20867132.508 8  20867136.992 6  20867137.203 7  20867137.887 8 109657412.318 8  85447447.434 6  85447442.437 7  81887128.063 8        49.000          41.300          47.800          53.200
G08  21600144.266 8  21600149.355 6  21600149.797 7  21600148.316 8 113509487.088 8  88449001.311 6  88448997.314 7  84763617.657 8        50.000          40.200          47.300          51.700
G11  19967048.008 7  19967049.980 6                                 104927544.275 7  81761728.319 6                                        47.200          39.100
G14  22334563.203 7  22334565.328 5                                 117368874.510 7  91456316.622 5                                        43.500          32.100
G18  20273482.547 8  20273485.227 6                                 106537865.608 8  83016531.694 6                                        48.500          40.200
G22  20449211.398 8  20449210.711 7                                 107461330.110 8  83736101.787 7                                        49.900          43.000
G23  24307489.461 6  24307490.039 3                                 127736859.424 6  99535112.003 3                                        38.300          22.300
G28  23154465.797 7  23154467.672 4                                 121677538.891 7  94813674.579 4                                        43.000          27.600
G32  23531354.086 6  23531359.473 4  23531359.109 7  23531358.145 8 123658081.303 6  96356985.263 4  96356983.281 7  92342105.698 8        39.400          29.700          46.400          48.200
R04  23223914.820 6  23223918.426 6 124363003.857 6  96726782.203 6        40.600          41.200
R06  20062347.406 6                 107056446.301 6                        40.000
R19  23225924.094 6  23225926.309 6 124242979.662 6  96633471.871 6        40.500          41.100
R20  19654152.836 7  19654158.531 7 105099585.748 7  81744124.711 7        44.400          47.800
R21  20484047.156 8  20484052.215 7 109614190.758 8  85255559.727 7        48.800          45.900
> 2018 04 26 22 33 30.0000000  0 19
E03  26378460.828 7  26378463.703 8 138619743.531 7 104864945.588 8        43.500          53.100
E07  24957393.688 7  24957397.598 9 131151989.286 7  99215603.806 9        46.900          56.200
E08  21543518.750 8  21543519.773 9 113211956.994 8  85644084.074 9        49.900          58.400
E26  23585160.477 7  23585163.586 9 123940860.619 7  93760475.102 9        46.300          55.000
G01  20414713.945 8  20414719.234 7  20414718.758 8  20414718.137 9 107280029.327 8  83594869.037 7  83594864.041 8  80111741.013 9        50.300          42.900          49.600          54.900
G03  20853825.305 8  20853829.738 7  20853830.309 8  20853831.160 8 109587481.958 8  85392956.251 7  85392951.246 8  81834907.349 8        48.700          42.000          49.200          53.400
G08  21611532.969 8  21611537.695 6  21611538.219 8  21611537.418 8 113569336.717 8  88495637.388 6  88495633.391 8  84808310.579 8        49.800          39.900          48.700          52.700
G11  19962467.203 7  19962468.719 6                                 104903473.679 7  81742972.016 6                                        45.300          39.400
G14  22332959.320 7  22332961.574 5                                 117360444.047 7  91449747.433 5                                        43.200          31.800
G18  20274851.570 7  20274854.563 6                                 106545059.944 7  83022137.662 6                                        47.600          40.800
G22  20445289.234 8  20445288.871 7                                 107440719.637 8  83720041.681 7                                        49.100          43.200
G23  24284113.969 6  24284115.043 4                                 127614019.289 6  99439392.396 4                                        39.700          24.800
G28  23153595.789 6  23153598.023 4                                 121672969.249 6  94810113.820 4                                        41.800          27.900
G32  23539363.984 6  23539368.668 4  23539368.578 7  23539367.922 8 123700172.518 6  96389783.618 4  96389781.622 7  92373537.419 8        39.600          29.100          44.900          49.100
R04  23243150.414 6  23243153.863 6 124466011.135 6  96806898.976 6        41.700          40.700
R06  20043768.313 6                 106957303.265 6                        40.300
R19  23241635.625 6  23241639.148 7 124327029.571 6  96698844.028 7        40.800          42.700
R20  19654982.586 7  19654987.977 8 105104016.555 7  81747570.890 8        44.300          48.600
R21  20464506.883 8  20464510.574 7 109509625.694 8  85174231.347 7        48.100          46.000
> 2018 04 26 22 34 00.0000000  0 19
E03  26388133.094 7  26388136.848 8 138670575.181 7 104903399.403 8        42.300          53.300
E07  24939309.555 7  24939313.246 9 131056954.347 7  99143710.506 9        46.600          56.600
E08  21539774.508 8  21539775.566 9 113192280.444 8  85629198.906 9        50.300          58.300
E26  23569115.172 7  23569118.488 9 123856543.181 7  93696689.532 9        46.800          55.100
G01  20407690.367 8  20407695.508 7  20407695.070 8  20407694.527 9 107243120.841 8  83566109.184 7  83566104.188 8  80084179.488 9        51.100          42.800          50.200          55.000
G03  20840589.742 8  20840594.180 6  20840594.078 8  20840595.016 8 109517929.274 8  85338759.366 6  85338754.369 8  81782968.676 8        50.600          41.900          49.200          53.500
G08  21622991.156 8  21622995.984 6  21622996.379 7  21622995.359 8 113629548.790 8  88542555.878 6  88542551.889 7  84853274.120 8        50.000          40.200          47.800          51.800
G11  19957973.313 7  19957974.820 6                                 104879856.901 7  81724569.334 6                                        45.700          40.000
G14  22331455.570 7  22331457.707 5                                 117352541.675 7  91443589.752 5                                        43.600          31.900
G18  20276279.859 8  20276282.438 6                                 106552566.604 8  83027987.013 6                                        49.200          40.300
G22  20441435.727 8  20441435.281 7                                 107420470.033 8  83704262.774 7                                        48.700          43.200
G23  24260741.133 6  24260741.633 4                                 127491190.681 6  99343681.831 4                                        39.200          25.200
G28  23152814.953 7  23152816.703 4                                 121668862.851 7  94806914.042 4                                        42.000          27.700
G32  23547457.547 6  23547462.824 4  23547462.527 7  23547462.141 8 123742704.944 6  96422925.780 4  96422923.780 7  92405298.668 8        40.900          29.400          44.400          49.300
R04  23262401.219 6  23262404.969 6 124569098.214 6  96887077.848 6        41.700          41.400
R06  20025294.523 6                 106858723.319 6                        39.900
R19  23257390.758 6  23257394.684 7 124411314.719 6  96764399.130 7        39.800          42.400
R20  19655910.523 7  19655916.027 8 105108980.795 7  81751431.939 8        44.100          49.000
R21  20445018.352 8  20445022.223 7 109405336.178 8  85093117.299 7        48.200          46.600
> 2018 04 26 22 34 30.0000000  0 19
E03  26397840.727 7  26397844.066 8 138721588.563 7 104941990.682 8        42.300          53.300
E07  24921266.844 7  24921270.410 9 130962139.829 7  99071983.948 9        46.700          56.500
E08  21536102.609 8  21536103.922 9 113172985.098 8  85614602.104 9        50.400          58.400
E26  23553079.602 7  23553082.969 9 123772275.856 7  93632941.873 9        46.300          55.100
G01  20400715.438 8  20400720.746 7  20400720.152 8  20400719.766 9 107206467.016 8  83537547.770 7  83537542.773 8  80056808.124 9        51.900          42.800          48.800          54.900
G03  20827426.055 8  20827430.875 7  20827430.938 7  20827431.711 8 109448754.538 8  85284856.988 7  85284851.977 7  81731312.231 8        50.300          42.400          47.500          53.400
G08  21634517.805 8  21634522.996 6  21634522.875 7  21634521.961 8 113690121.503 8  88589755.396 6  88589751.407 7  84898507.007 8        49.600          38.900          46.500          51.800
G11  19953565.227 7  19953567.066 6                                 104856694.608 7  81706520.800 6                                        45.000          39.600
G14  22330051.914 7  22330053.688 5                                 117345167.028 7  91437843.317 5                                        44.300          32.100
G18  20277768.063 8  20277770.645 6                                 106560385.859 8  83034079.937 6                                        48.600          40.700
G22  20437650.844 8  20437650.629 7                                 107400580.716 8  83688764.613 7                                        49.300          43.100
G23  24237370.078 6  24237369.875 3                                 127368376.438 6  99247982.402 3                                        40.100          23.000
G28  23152121.555 7  23152122.914 4                                 121665218.478 7  94804074.294 4                                        42.400          26.700
G32  23555635.164 6  23555639.949 5  23555639.727 7  23555638.734 8 123785676.694 6  96456410.273 5  96456408.271 7  92437387.980 8        41.600          30.000          45.200          49.800
R04  23281666.797 6  23281669.957 6 124672262.271 6  96967316.550 6        41.700          40.400
R06  20006926.758 6                 106760708.431 6                        39.700
R19  23273191.305 6  23273193.883 7 124495833.658 6  96830136.083 7        40.000          42.400
R20  19656937.945 7  19656943.668 8 105114479.364 7  81755708.614 8        44.000          48.100
R21  20425581.906 8  20425585.285 7 109301325.655 8  85012220.227 7        49.600          46.300
> 2018 04 26 22 35 00.0000000  0 20
E03  26407583.359 6  26407586.070 8 138772784.909 6 104980720.377 8        41.800          52.800
E07  24903266.945 7  24903270.477 9 130867549.883 7  99000427.271 9        47.200          56.400
E08  21532503.891 8  21532504.980 9 113154073.292 8  85600295.451 9        49.900          58.400
E26  23537054.797 7  23537057.594 9 123688062.543 7  93569235.066 9        46.800          55.200
G01  20393789.148 8  20393794.887 7  20393794.379 8  20393793.793 9 107170071.287 8  83509187.469 7  83509182.466 8  80029629.508 9        50.900          42.700          48.400          54.900
G03  20814334.922 8  20814339.813 6  20814340.043 8  20814340.473 8 109379960.854 8  85231251.532 6  85231246.513 8  81679940.340 8        50.400          41.700          48.300          53.400
G08  21646113.141 8  21646118.535 6  21646118.789 8  21646117.969 8 113751055.954 8  88637236.783 6  88637232.788 8  84944010.006 8        49.400          38.900          48.600          52.200
G11  19949245.469 7  19949246.848 6                                 104833990.679 7  81688829.428 6                                        45.000          39.600
G14  22328749.508 7  22328752.242 5                                 117338322.903 7  91432510.223 5                                        45.200          33.800
G17  24983064.406 6  24983066.129 4  24983066.527 6                 131286744.685 6 102301480.070 4 102301484.080 6                        39.700          24.100          40.400
G18  20279315.953 7  20279319.219 6                                 106568520.528 7  83040418.642 6                                        47.300          39.900
G22  20433935.180 8  20433934.836 7                                 107381053.334 8  83673548.479 7                                        48.100          42.800
G23  24214001.898 6  24214003.102 4                                 127245581.417 6  99152298.041 4                                        37.900          25.100
G28  23151515.891 7  23151517.582 4                                 121662038.185 7  94801596.124 4                                        42.100          28.700
G32  23563895.758 6  23563900.957 5  23563900.895 7  23563899.801 8 123829088.650 6  96490237.740 5  96490235.744 7  92469805.979 8        41.000          30.400          45.200          48.600
R04  23300945.344 6  23300948.980 6 124775502.624 6  97047614.634 6        40.900          40.000
R06  19988665.445 6                 106663263.098 6                        39.800
R19  23289035.383 6  23289037.699 6 124580587.611 6  96896055.846 6        39.900          41.900
R20  19658066.813 7  19658072.809 7 105120515.917 7  81760403.704 7        43.900          47.600
R21  20406197.711 8  20406201.121 7 109197600.127 8  84931544.833 7        49.800          46.000
> 2018 04 26 22 35 30.0000000  0 20
E03  26417361.531 7  26417364.668 8 138824170.479 7 105019593.214 8        42.600          52.600
E07  24885311.414 7  24885315.160 9 130773193.639 7  98929047.394 9        47.400          56.500
E08  21528979.477 8  21528980.652 9 113135552.477 8  85586284.586 9        50.000          58.600
E26  23521040.867 7  23521044.543 9 123603912.175 7  93505575.877 9        45.900          55.300
G01  20386914.563 8  20386919.527 7  20386918.934 8  20386918.434 9 107133942.155 8  83481034.898 7  83481029.896 8  80002649.965 9        50.300          43.600          50.000          54.900
G03  20801318.477 8  20801323.105 7  20801323.035 8  20801323.473 8 109311556.313 8  85177949.307 7  85177944.302 8  81628859.043 8        49.300          42.200          50.000          53.700
G08  21657779.031 8  21657783.289 6  21657783.730 8  21657782.602 8 113812358.497 8  88685005.001 6  88685001.005 8  84989787.869 8        50.200          39.200          48.500          51.600
G11  19945013.328 7  19945014.906 6                                 104811753.801 7  81671501.991 6                                        46.900          39.400
G14  22327549.250 7  22327552.148 5                                 117332016.851 7  91427596.408 5                                        43.500          33.100
G17  24959868.742 6  24959871.199 3  24959871.023 6                 131164852.713 6 102206499.430 3 102206503.448 6                        38.800          22.300          40.500
G18  20280925.352 8  20280927.723 6                                 106576978.389 8  83047009.169 6                                        48.100          39.800
G22  20430289.305 8  20430288.758 7                                 107361894.973 8  83658619.901 7                                        49.600          43.100
G23  24190642.227 6  24190642.266 4                                 127122816.453 6  99056636.996 4                                        39.900          24.200
G28  23151000.008 6  23151001.820 4                                 121659328.374 6  94799484.597 4                                        41.300          28.300
G32  23572242.016 6  23572246.875 4  23572246.488 7  23572245.719 8 123872946.605 6  96524412.768 4  96524410.783 7  92502557.041 8        41.200          29.900          43.700          49.800
R04  23320240.586 7  23320243.813 6 124878823.916 7  97127975.668 6        42.500          41.600
R06  19970512.695 6                 106566397.400 6                        39.400
R19  23304925.305 6  23304927.621 6 124665583.250 6  96962163.574 6        40.500          40.700
R20  19659297.984 7  19659304.348 8 105127099.240 7  81765524.055 8        43.700          48.000
R21  20386869.688 8  20386873.203 7 109094171.080 8  84851100.035 7        49.000          47.000
> 2018 04 26 22 36 00.0000000  0 20
E03  26427180.039 7  26427182.578 8 138875765.008 7 105058624.146 8        42.700          52.500
E07  24867404.930 7  24867408.566 9 130679093.675 7  98857861.393 9        46.900          56.400
E08  21525533.477 8  21525534.648 9 113117443.553 8  85572585.311 9        49.900          58.600
E26  23505044.063 7  23505047.441 9 123519847.171 7  93441981.265 9        46.300          55.400
G01  20380094.289 8  20380099.453 7  20380099.059 8  20380098.121 9 107098101.592 8  83453107.193 7  83453102.190 8  79975885.914 9        50.900          43.200          50.500          55.100
G03  20788379.367 8  20788384.363 7  20788384.258 8  20788384.965 8 109243562.525 8  85124967.151 7  85124962.140 8  81578084.479 8        48.800          42.000          49.400          53.500
G08  21669518.031 8  21669522.734 6  21669523.043 7  21669521.871 8 113874048.310 8  88733074.990 6  88733070.994 7  85035854.942 8        50.000          38.900          47.100          51.700
G11  19940874.992 7  19940876.715 6                                 104790006.193 7  81654555.805 6                                        45.200          39.700
G14  22326456.164 7  22326457.785 5                                 117326269.895 7  91423118.273 5                                        44.700          30.900
G17  24936689.594 5  24936692.125 3  24936692.512 7                 131043046.467 5 102111585.478 3 102111589.512 7                        33.800          22.200          42.300
G18  20282600.727 8  20282603.340 6                                 106585781.100 8  83053868.424 6                                        48.800          41.100
G22  20426717.547 8  20426717.473 7                                 107343126.165 8  83643994.866 7                                        48.500          43.100
G23  24167290.031 6  24167290.813 3                                 127000105.114 6  98961017.772 3                                        39.900          22.900
G28  23150577.227 6  23150580.051 4                                 121657109.070 6  94797755.265 4                                        41.000          27.000
G32  23580676.984 7  23580681.246 5  23580681.383 7  23580680.676 8 123917269.897 7  96558950.419 5  96558948.412 7  92535655.602 8        42.200          30.200          45.100          49.400
R04  23339553.086 6  23339556.902 6 124982244.754 6  97208414.109 6        40.400          40.600
R06  19952473.453 6                 106470135.214 6                        39.500
R19  23320861.930 6  23320865.660 6 124750840.537 6  97028474.834 6        38.500          40.200
R20  19660636.148 7  19660641.879 8 105134251.942 7  81771087.274 8        43.700          48.300
R21  20367601.117 8  20367604.793 7 108991063.132 8  84770904.981 7        48.700          47.200
> 2018 04 26 22 36 30.0000000  0 20
E03  26437033.250 7  26437037.035 8 138927549.284 7 105097798.602 8        42.400          52.700
E07  24849543.523 7  24849547.598 9 130585233.658 7  98786856.903 9        47.300          56.200
E08  21522162.313 8  21522163.559 9 113099728.400 8  85559183.918 9        50.100          58.600
E26  23489059.867 7  23489063.516 9 123435850.952 7  93378438.684 9        46.700          55.500
G01  20373326.000 8  20373331.305 7  20373330.902 8  20373330.031 9 107062532.595 8  83425391.086 7  83425386.090 8  79949324.646 9        51.700          43.200          48.400          55.000
G03  20775515.078 8  20775520.207 6  20775519.965 7  20775520.574 8 109175962.068 8  85072291.469 6  85072286.465 7  81527603.627 8        50.600          41.800          47.800          53.500
G08  21681326.852 8  21681331.871 6  21681331.844 7  21681330.484 8 113936105.996 8  88781431.621 6  88781427.624 7  85082196.713 8        49.200          39.000          46.700          51.100
G11  19936826.375 7  19936828.430 6                                 104768731.236 7  81637977.920 6                                        46.200          39.400
G14  22325465.945 7  22325467.242 5                                 117321064.263 7  91419061.960 5                                        45.100          31.900
G17  24913525.664 6  24913526.738 3  24913526.918 6                 130921310.315 6 102016726.232 3 102016730.220 6                        40.900          22.200          41.700
G18  20284337.859 8  20284340.945 6                                 106594910.948 8  83060982.576 6                                        48.300          40.300
G22  20423216.563 8  20423216.352 7                                 107324728.082 8  83629658.706 7                                        48.400          42.800
G23  24143946.352 6  24143946.066 3                                 126877432.305 6  98865428.574 3                                        38.900          22.800
G28  23150245.242 7  23150247.242 4                                 121655361.993 7  94796393.908 4                                        42.100          28.200
G32  23589196.109 7  23589200.480 4  23589200.641 7  23589199.676 8 123962038.912 7  96593835.353 4  96593833.356 7  92569087.000 8        42.300          29.100          45.100          49.600
R04  23358882.305 6  23358884.797 6 125085744.313 6  97288913.782 6        41.600          40.000
R06  19934543.695 6                 106374460.423 6                        39.400
R19  23336847.195 6  23336848.922 6 124836340.585 6  97094974.875 6        37.400          38.600
R20  19662076.797 7  19662082.871 8 105141956.753 7  81777079.890 8        44.300          49.300
R21  20348389.984 8  20348394.793 7 108888261.945 8  84690948.518 7        49.000          46.000
> 2018 04 26 22 37 00.0000000  0 20
E03  26446922.070 6  26446925.582 8 138979513.343 6 105137109.053 8        41.500          52.300
E07  24831727.344 7  24831730.863 9 130491606.402 7  98716028.504 9        47.400          56.000
E08  21518864.625 8  21518865.652 9 113082398.174 8  85546073.717 9        50.200          58.600
E26  23473088.055 7  23473091.293 9 123351916.213 7  93314942.616 9        46.300          55.500
G01  20366607.719 8  20366612.668 7  20366612.090 8  20366611.398 9 107027227.371 8  83397880.532 7  83397875.536 8  79922960.371 9        51.300          43.700          48.300          54.900
G03  20762724.734 8  20762729.371 6  20762729.512 8  20762730.207 8 109108746.725 8  85019915.889 6  85019910.885 8  81477410.366 8        49.500          41.900          48.600          53.700
G08  21693204.273 8  21693209.215 6  21693209.688 7  21693208.469 8 113998521.248 8  88830066.879 6  88830062.888 7  85128805.512 8        49.400          38.900          47.800          51.700
G11  19932866.234 7  19932867.508 6                                 104747921.186 7  81621762.291 6                                        46.300          39.200
G14  22324576.383 7  22324578.816 5                                 117316391.083 7  91415420.546 5                                        44.500          33.100
G17  24890368.617 5  24890372.578 3  24890372.621 6                 130799638.148 5 101921916.840 3 101921920.852 6                        35.300          23.600          41.100
G18  20286135.789 8  20286138.262 6                                 106604359.729 8  83068345.266 6                                        49.600          39.900
G22  20419784.156 8  20419783.906 7                                 107306691.495 8  83615604.222 7                                        51.100          42.700
G23  24120608.617 6  24120608.789 3                                 126754792.123 6  98769864.811 3                                        38.400          22.800
G28  23150001.398 7  23150003.004 4                                 121654077.204 7  94795392.772 4                                        42.200          28.000
G32  23597797.164 7  23597802.656 4  23597802.488 7  23597801.910 8 124007243.230 7  96629059.480 4  96629057.478 7  92602843.479 8        43.600          29.900          44.700          49.100
R04  23378222.391 6  23378224.250 6 125189310.613 6  97369465.350 6        41.900          39.600
R06  19916723.234 6                 106279366.247 6                        40.000
R19  23352871.109 6  23352873.734 6 124922072.938 6  97161655.666 6        36.400          38.500
R20  19663620.586 7  19663624.984 8 105150205.733 7  81783495.738 8        44.300          48.000
R21  20329236.836 8  20329239.695 7 108785762.175 8  84611226.480 7        49.400          46.000
> 2018 04 26 22 37 30.0000000  0 20
E03  26456844.164 7  26456847.105 8 139031652.715 7 105176552.141 8        42.100          52.200
E07  24813954.461 7  24813958.289 9 130398210.387 7  98645375.034 9        47.200          56.200
E08  21515639.375 8  21515640.453 9 113065449.537 8  85533252.194 9        50.400          58.500
E26  23457126.789 7  23457130.266 9 123268041.222 7  93251491.746 9        46.300          55.600
G01  20359938.844 8  20359943.949 7  20359943.281 8  20359942.676 9 106992183.767 8  83370573.834 7  83370568.830 8  79896791.450 9        50.900          43.100          50.000          54.900
G03  20750006.352 8  20750011.840 7  20750011.656 8  20750012.266 8 109041913.880 8  84967838.377 7  84967833.380 8  81427502.747 8        49.800          42.300          50.000          53.800
G08  21705148.727 8  21705153.832 6  21705153.883 7  21705153.320 8 114061289.568 8  88878977.249 6  88878973.252 7  85175677.963 8        49.000          38.600          47.900          52.400
G11  19928994.820 7  19928996.410 6                                 104727574.133 7  81605907.447 6                                        45.100          39.600
G14  22323787.086 7  22323789.652 5                                 117312247.215 7  91412191.557 5                                        43.800          32.700
G17  24867229.141 6  24867231.652 4  24867231.879 7                 130678029.422 6 101827156.883 4 101827160.880 7                        40.700          24.600          43.600
G18  20287994.094 8  20287996.809 6                                 106614124.464 8  83075954.146 6                                        48.600          40.200
G22  20416419.969 8  20416420.199 7                                 107289012.818 8  83601828.644 7                                        48.200          43.200
G23  24097277.313 6  24097277.273 3                                 126632184.227 6  98674326.212 3                                        39.400          22.900
G28  23149843.414 6  23149845.086 4                                 121653250.603 6  94794748.672 4                                        41.400          27.900
G32  23606481.906 7  23606485.945 4  23606485.969 7  23606485.262 8 124052877.879 7  96664618.955 4  96664616.960 7  92636921.310 8        43.000          29.100          43.900          49.400
R04  23397574.188 6  23397576.035 6 125292937.790 6  97450064.268 6        40.400          40.900
R06  19899010.680 6                 106184851.867 6                        39.500
R19  23368942.695 6  23368944.402 6 125008033.509 6  97228513.886 6        37.700          38.900
R20  19665263.813 7  19665268.723 7 105158996.979 7  81790333.384 7        43.400          47.900
R21  20310138.391 8  20310141.254 7 108683564.025 8  84531739.054 7        49.200          46.900
> 2018 04 26 22 38 00.0000000  0 20
E03  26466799.555 7  26466802.602 8 139083968.987 7 105216129.072 8        42.300          52.200
E07  24796227.008 7  24796230.402 9 130305049.931 7  98574899.773 9        47.600          56.100
E08  21512487.164 8  21512488.297 9 113048885.179 8  85520721.372 9        49.800          58.500
E26  23441177.875 7  23441181.555 9 123184230.253 7  93188089.307 9        46.700          55.600
G01  20353321.203 8  20353325.945 7  20353325.641 8  20353324.613 9 106957405.583 8  83343473.964 7  83343468.968 8  79870820.738 9        50.700          43.000          50.200          55.000
G03  20737362.484 8  20737367.352 6  20737367.383 8  20737367.777 8 108975466.938 8  84916061.541 6  84916056.544 8  81377883.286 8        50.200          41.800          49.100          53.500
G08  21717160.359 8  21717165.527 6  21717165.695 7  21717164.957 8 114124412.343 8  88928163.834 6  88928159.844 7  85222815.095 8        48.400          38.400          47.300          52.000
G11  19925211.789 7  19925212.898 6                                 104707693.989 7  81590416.428 6                                        44.800          39.600
G14  22323100.078 7  22323101.715 5                                 117308635.769 7  91409377.450 5                                        43.800          30.900
G17  24844101.500 6  24844102.934 4  24844103.582 7                 130556489.942 6 101732450.876 4 101732454.857 7                        40.600          25.600          42.600
G18  20289913.172 8  20289915.738 6                                 106624208.340 8  83083811.718 6                                        48.800          39.500
G22  20413124.523 8  20413123.754 7                                 107271694.110 8  83588333.550 7                                        48.000          43.100
G23  24073952.367 6  24073953.500 4                                 126509614.251 6  98578817.146 4                                        38.600          24.600
G28  23149773.820 7  23149775.734 4                                 121652884.355 7  94794463.315 4                                        42.400          27.400
G32  23615247.930 7  23615252.602 5  23615252.707 7  23615251.680 8 124098944.064 7  96700514.693 5  96700512.690 7  92671321.384 8        43.700          30.500          44.900          48.900
R04  23416935.734 6  23416939.508 6 125396625.641 6  97530710.374 6        41.100          39.700
R06  19881408.891 6                 106090922.203 6                        40.600
R19  23385055.219 6  23385056.438 6 125094223.924 6  97295550.864 6        38.700          39.300
R20  19667009.477 7  19667015.094 8 105168334.039 7  81797595.531 8        43.900          49.000
R21  20291097.617 8  20291100.941 7 108581674.132 8  84452491.374 7        49.800          46.700
> 2018 04 26 22 38 30.0000000  0 20
E03  26476785.719 7  26476788.918 8 139136448.385 7 105255829.396 8        43.400          52.400
E07  24778541.602 8  24778545.105 9 130212114.167 8  98504594.460 9        48.000          56.000
E08  21509405.469 8  21509406.672 9 113032692.367 8  85508471.623 9        50.100          58.500
E26  23425239.266 7  23425242.809 9 123100472.183 7  93124726.891 9        46.900          55.700
G01  20346751.031 8  20346756.105 7  20346755.531 8  20346754.598 9 106922881.277 8  83316571.914 7  83316566.911 8  79845039.612 9        51.000          43.200          48.300          55.000
G03  20724788.734 8  20724794.164 6  20724794.316 7  20724794.531 8 108909393.808 8  84864576.001 6  84864570.989 7  81328542.970 8        49.100          41.800          47.500          53.400
G08  21729237.398 8  21729241.961 6  21729242.094 7  21729241.219 8 114187875.335 8  88977615.505 6  88977611.508 7  85270206.287 8        49.300          38.800          46.500          51.600
G11  19921515.344 7  19921516.988 6                                 104688269.462 7  81575280.424 6                                        45.400          39.600
G14  22322512.195 7  22322514.383 5                                 117305543.854 7  91406968.210 5                                        43.300          31.400
G17  24820983.328 6  24820986.305 4  24820986.152 6                 130435009.318 6 101637790.672 4 101637794.684 6                        39.600          26.100          39.700
G18  20291890.523 8  20291893.043 6                                 106634599.244 8  83091908.520 6                                        49.000          39.600
G22  20409895.133 8  20409894.918 7                                 107254722.264 8  83575108.747 7                                        48.600          43.200
G23  24050634.344 6  24050634.449 4                                 126387072.792 6  98483330.342 4                                        40.200          25.400
G28  23149790.125 7  23149791.395 4                                 121652964.958 7  94794526.091 4                                        43.100          28.100
G32  23624093.813 7  23624098.305 5  23624098.117 7  23624097.500 8 124145427.434 7  96736735.499 5  96736733.500 7  92706032.981 8        43.900          30.800          45.100          48.800
R04  23436308.250 6  23436310.051 6 125500358.690 6  97611391.640 6        41.700          38.100
R06  19863914.180 6                 105997566.563 6                        39.900
R19  23401206.469 6  23401210.008 6 125180630.035 6  97362755.614 6        39.200          39.600
R20  19668856.023 7  19668861.313 8 105178205.632 7  81805273.429 8        44.400          48.600
R21  20272113.195 8  20272116.082 7 108480083.467 8  84373476.398 7        49.600          46.900
> 2018 04 26 22 39 00.0000000  0 20
E03  26486807.516 7  26486810.594 8 139189111.175 7 105295668.452 8        42.600          52.700
E07  24760903.680 7  24760907.191 9 130119426.110 7  98434476.556 9        47.000          56.200
E08  21506399.102 8  21506400.289 9 113016892.498 8  85496519.137 9        49.500          58.400
E26  23409315.484 7  23409318.625 9 123016790.011 7  93061421.896 9        46.800          55.600
G01  20340233.945 8  20340239.273 7  20340238.727 8  20340238.176 9 106888633.321 8  83289885.194 7  83289880.198 8  79819464.840 9        51.600          43.300          49.100          55.000
G03  20712291.391 8  20712295.680 6  20712295.805 8  20712296.164 8 108843716.549 8  84813398.938 6  84813393.926 8  81279498.285 8        50.400          41.800          48.900          53.400
G08  21741381.719 8  21741387.297 6  21741387.563 7  21741387.078 8 114251698.351 8  89027347.725 6  89027343.729 7  85317866.331 8        48.600          37.800          47.500          52.300
G11  19917910.234 7  19917911.316 6                                 104669323.113 7  81560517.048 6                                        46.100          38.700
G14  22322026.672 7  22322028.758 5                                 117302993.080 7  91404980.590 5                                        43.500          32.700
G17  24797881.938 6  24797884.844 4  24797885.035 7                 130313611.483 6 101543195.067 4 101543199.094 7                        40.100          27.800          42.100
G18  20293929.727 8  20293933.246 6                                 106645319.310 8  83100261.824 6                                        48.900          39.800
G22  20406735.523 8  20406734.727 7                                 107238118.222 8  83562170.547 7                                        49.500          42.800
G23  24027325.258 6  24027324.605 4                                 126264583.759 6  98387884.355 4                                        39.600          25.600
G28  23149893.688 7  23149895.539 4                                 121653512.464 7  94794952.729 4                                        42.700          27.100
G32  23633021.875 7  23633027.438 5  23633026.934 7  23633026.516 8 124192347.854 7  96773296.883 5  96773294.879 7  92741070.971 8        43.200          31.000          44.000          48.800
R04  23455692.078 6  23455693.070 6 125604156.221 6  97692123.118 6        41.400          37.900
R06  19846531.164 6                 105904809.432 6                        40.000
R19  23417404.398 6  23417407.277 6 125267272.620 6  97430144.291 6        40.700          40.200
R20  19670806.609 7  19670811.086 7 105188634.415 7  81813384.695 7        44.400          47.300
R21  20253188.672 8  20253192.297 7 108378817.411 8  84294713.931 7        49.300          46.800
> 2018 04 26 22 39 30.0000000  0 19
E03  26496863.578 7  26496866.945 8 139241958.001 7 105335646.731 8        42.700          52.500
E07  24743313.781 7  24743316.977 9 130026989.275 7  98364548.704 9        47.700          56.200
E08  21503467.594 8  21503468.770 9 113001487.264 8  85484865.181 9        50.200          58.300
E26  23393406.359 7  23393409.531 9 122933187.115 7  92998176.860 9        47.100          55.600
G01  20333769.820 8  20333775.195 7  20333774.613 8  20333773.629 9 106854664.644 8  83263416.106 7  83263411.110 8  79794098.631 9        51.200          43.700          50.200          55.000
G03  20699868.828 8  20699873.680 7  20699873.723 8  20699874.105 8 108778437.584 8  84762532.222 7  84762527.225 8  81230751.021 8        50.800          42.300          50.200          53.500
G08  21753595.836 8  21753600.848 6  21753601.238 7  21753600.863 8 114315882.071 8  89077361.020 6  89077357.021 7  85365795.728 8        49.000          38.400          47.600          51.900
G11  19914396.109 7  19914397.945 6                                 104650858.313 7  81546128.892 6                                        44.900          39.600
G14  22321644.375 7  22321646.531 5                                 117300985.456 7  91403416.201 5                                        42.700          30.600
G17  24774798.266 7  24774799.938 4  24774800.992 7                 130192301.351 7 101448667.760 4 101448671.749 7                        42.600          27.400          42.600
G18  20296033.344 8  20296036.250 6                                 106656370.797 8  83108873.365 6                                        48.200          40.100
G22  20403645.578 7  20403645.508 7                                 107221883.274 7  83549519.939 7                                        47.800          42.600
G23  24004027.875 6  24004027.230 4                                 126142152.281 6  98292483.239 4                                        39.500          25.300
G28  23150086.922 7  23150088.711 4                                 121654528.577 7  94795744.505 4                                        42.300          27.200
G32  23642033.289 7  23642038.918 4  23642038.699 7  23642037.766 8 124239705.425 7  96810198.888 4  96810196.884 7  92776435.388 8        42.300          27.900          43.200          48.800
R06  19829261.875 6                 105812654.115 6                        39.500
R19  23433643.992 6  23433647.039 6 125354152.786 6  97497717.759 6        40.100          38.900
R20  19672860.563 7  19672866.566 8 105199623.250 7  81821931.558 8        44.400          48.400
R21  20234326.602 8  20234330.500 7 108277881.662 8  84216208.367 7        49.900          47.100
> 2018 04 26 22 40 00.0000000  0 19
E03  26506953.344 7  26506956.723 8 139294980.041 7 105375757.539 8        43.200          52.400
E07  24725770.141 7  24725773.590 9 129934797.565 7  98294806.272 9        47.800          56.200
E08  21500609.555 8  21500610.941 9 112986468.827 8  85473503.839 9        49.800          58.400
E26  23377511.070 7  23377514.445 9 122849657.287 7  92934987.105 9        46.400          55.600
G01  20327357.523 8  20327363.023 7  20327362.426 8  20327361.574 9 106820968.582 8  83237159.434 7  83237154.430 8  79768935.993 9        52.000          43.600          49.500          55.100
G03  20687521.555 8  20687526.105 7  20687526.078 8  20687526.648 8 108713549.731 8  84711970.271 7  84711965.268 8  81182295.827 8        51.000          42.000          49.300          53.400
G08  21765876.578 8  21765881.820 6  21765881.898 7  21765880.547 8 114380417.245 8  89127648.167 6  89127644.170 7  85413987.589 8        48.500          38.700          46.900          51.300
G11  19910972.758 7  19910974.086 6                                 104632868.187 7  81532110.609 6                                        47.500          39.600
G14  22321363.938 7  22321366.781 5                                 117299512.962 7  91402268.828 5                                        43.400          31.100
G17  24751729.242 7  24751731.492 4  24751731.738 6                 130071073.938 7 101354204.896 4 101354208.854 6                        42.300          27.700          40.500
G18  20298198.172 8  20298200.629 6                                 106667746.386 8  83117737.459 6                                        48.400          39.900
G22  20400624.945 8  20400624.770 7                                 107206008.959 8  83537150.354 7                                        50.100          43.400
G23  23980739.805 6  23980739.555 4                                 126019773.328 6  98197123.003 4                                        40.600          25.400
G28  23150367.969 7  23150370.066 4                                 121656004.550 7  94796894.613 4                                        42.000          27.700
G32  23651127.313 7  23651131.660 4  23651132.086 7  23651131.383 8 124287490.752 7  96847434.193 4  96847432.197 7  92812119.226 8        42.600          28.800          43.400          48.500
R06  19812103.977 6                 105721095.082 6                        40.000
R19  23449928.375 6  23449932.492 6 125441261.087 6  97565468.671 6        40.600          38.700
R20  19675019.766 7  19675025.039 8 105211165.199 7  81830908.639 8        43.700          48.800
R21  20215525.164 8  20215528.672 7 108177272.243 8  84137956.602 7        50.100          47.100
> 2018 04 26 22 40 30.0000000  0 19
E03  26517075.148 7  26517078.289 8 139348169.302 7 105415994.872 8        43.700          52.200
E07  24708272.164 7  24708275.555 9 129842845.861 7  98225245.420 9        47.900          56.300
E08  21497824.195 8  21497825.250 9 112971830.341 8  85462429.934 9        50.600          58.300
E26  23361628.859 7  23361632.063 9 122766195.365 7  92871848.718 9        46.900          55.700
G01  20320996.258 8  20321001.207 7  20321000.750 8  20321000.406 9 106787539.468 8  83211110.782 7  83211105.786 8  79743972.705 9        50.900          42.900          48.000          55.100
G03  20675246.703 8  20675251.711 7  20675251.410 7  20675251.906 8 108649046.820 8  84661708.275 7  84661703.278 7  81134128.084 8        51.000          42.400          47.500          53.800
G08  21778222.742 8  21778227.512 6  21778227.770 7  21778226.648 8 114445295.612 8  89178202.743 6  89178198.747 7  85462435.717 8        49.000          38.200          47.200          52.100
G11  19907638.508 7  19907640.328 6                                 104615347.389 7  81518458.050 6                                        46.400          38.900
G14  22321184.961 7  22321186.816 5                                 117298568.820 7  91401533.146 5                                        44.500          32.600
G17  24728674.977 7  24728677.254 4  24728677.012 6                 129949924.891 7 101259803.078 4 101259807.105 6                        42.400          28.400          39.700
G18  20300422.969 8  20300426.137 6                                 106679439.466 8  83126848.948 6                                        49.000          39.400
G22  20397671.391 8  20397671.531 7                                 107190488.149 8  83525056.222 7                                        49.100          42.500
G23  23957460.656 6  23957460.914 4                                 125897443.274 6  98101800.870 4                                        38.200          25.800
G28  23150734.430 7  23150736.973 4                                 121657932.604 7  94798396.998 4                                        42.800          27.500
G32  23660300.000 7  23660305.031 4  23660305.598 7  23660304.402 8 124335695.400 7  96884996.256 4  96884994.267 7  92848116.200 8        42.200          28.900          44.900          48.700
R06  19795056.234 6                 105630128.144 6                        40.000
R19  23466255.711 6  23466256.508 6 125528589.769 6  97633390.988 6        40.000          38.500
R20  19677280.586 7  19677285.965 7 105223254.714 7  81840311.588 7        44.300          47.400
R21  20196784.406 8  20196787.797 7 108076985.925 8  84059956.137 7        49.100          46.800
> 2018 04 26 22 41 00.0000000  0 19
E03  26527226.508 7  26527229.723 8 139401514.166 7 105456349.916 8        43.600          52.700
E07  24690818.328 7  24690821.699 9 129751125.325 7  98155859.441 9        47.500          56.200
E08  21495108.867 8  21495109.781 9 112957561.157 8  85451635.395 9        50.400          58.300
E26  23345757.563 7  23345761.008 9 122682792.369 7  92808754.920 9        46.700          55.600
G01  20314683.938 8  20314689.262 7  20314688.566 8  20314688.047 9 106754367.868 8  83185262.789 7  83185257.793 8  79719201.716 9        51.600          43.200          49.200          55.200
G03  20663043.805 8  20663048.398 7  20663048.430 8  20663048.766 8 108584918.935 8  84611738.506 7  84611733.509 8  81086240.395 8        50.500          42.600          49.200          53.700
G08  21790631.297 8  21790636.344 6  21790636.668 8  21790635.773 8 114510505.196 8  89229015.410 6  89229011.413 8  85511131.191 8        48.800          38.300          48.200          51.700
G11  19904391.648 7  19904393.625 6                                 104598286.425 7  81505163.793 6                                        46.400          39.800
G14  22321103.766 7  22321105.555 5                                 117298142.291 7  91401200.792 5                                        44.600          32.300
G17  24705635.000 7  24705636.434 4  24705636.809 6                 129828846.690 7 101165456.485 4 101165460.500 6                        43.300          28.300          40.500
G18  20302706.695 8  20302709.305 6                                 106691440.396 8  83136200.316 6                                        48.400          39.700
G22  20394783.195 8  20394782.852 7                                 107175310.209 8  83513229.253 7                                        49.900          43.400
G23  23934189.500 6  23934190.758 4                                 125775154.266 6  98006510.789 4                                        38.800          26.100
G28  23151185.586 7  23151187.355 4                                 121660301.415 7  94800242.829 4                                        42.600          26.900
G32  23669551.031 7  23669555.879 4  23669555.621 7  23669554.723 8 124384307.142 7  96922875.548 4  96922873.545 7  92884417.191 8        42.600          28.500          44.100          48.100
R06  19778117.563 6                 105539744.064 6                        40.100
R19  23482618.445 6  23482621.504 6 125616127.047 6  97701475.574 6        39.200          37.200
R20  19679641.859 7  19679647.668 7 105235881.810 7  81850132.647 7        44.300          47.300
R21  20178101.438 8  20178106.074 7 107977015.684 8  83982201.533 7        49.600          46.800
> 2018 04 26 22 41 30.0000000  0 19
E03  26537409.617 7  26537413.082 8 139455027.893 7 105496832.708 8        43.300          52.900
E07  24673411.008 7  24673414.977 9 129659651.941 7  98086660.427 9        47.000          56.100
E08  21492466.461 8  21492467.488 9 112943675.552 8  85441131.033 9        50.400          58.300
E26  23329900.555 7  23329904.246 9 122599464.265 7  92745717.761 9        47.000          55.600
G01  20308423.289 8  20308428.449 7  20308428.074 8  20308427.645 9 106721469.273 8  83159627.525 7  83159622.522 8  79694634.589 9        52.600          43.500          50.300          55.000
G03  20650914.672 8  20650919.668 7  20650919.891 8  20650920.035 8 108521180.961 8  84562072.571 7  84562067.567 8  81038643.874 8        51.900          42.700          50.200          53.700
G08  21803106.289 8  21803111.371 6  21803111.566 7  21803110.625 8 114576058.721 8  89280096.053 6  89280092.062 7  85560083.485 8        48.400          38.100          47.900          51.900
G11  19901235.844 7  19901237.426 6                                 104581701.031 7  81492240.106 6                                        45.300          39.800
G14  22321123.820 7  22321125.316 5                                 117298248.251 7  91401283.358 5                                        44.200          31.100
G17  24682610.539 6  24682613.223 4  24682612.945 6                 129707856.154 6 101071178.185 4 101071182.196 6                        41.400          24.700          38.700
G18  20305051.492 8  20305054.891 6                                 106703763.885 8  83145803.030 6                                        49.000          40.300
G22  20391962.883 8  20391962.242 7                                 107160488.556 8  83501679.931 7                                        49.600          43.600
G23  23910930.047 6  23910929.699 4                                 125652923.941 6  97911266.406 4                                        40.000          25.700
G28  23151722.602 7  23151724.195 4                                 121663124.209 7  94802442.422 4                                        42.500          26.500
G32  23678881.664 7  23678886.387 5  23678885.688 7  23678884.703 8 124433338.729 7  96961081.977 5  96961079.980 7  92921031.688 8        43.700          30.100          43.000          48.800
R06  19761291.563 6                 105449959.934 6                        39.800
R19  23499024.664 6  23499025.855 5 125703886.294 6  97769732.803 5        37.700          35.800
R20  19682106.273 7  19682112.051 8 105249062.352 7  81860384.188 8        43.900          48.500
R21  20159483.227 8  20159486.844 8 107877380.072 8  83904707.158 8        50.500          48.000
> 2018 04 26 22 42 00.0000000  0 18
E03  26547624.313 7  26547627.902 8 139508708.042 7 105537441.367 8        43.000          53.000
E07  24656051.859 7  24656055.297 9 129568426.018 7  98017648.626 9        47.200          56.100
E08  21489896.906 8  21489897.973 9 112930172.035 8  85430915.710 9        50.500          58.400
E26  23314057.719 7  23314061.531 9 122516211.338 7  92682737.481 9        46.600          55.600
G01  20302215.000 8  20302220.070 7  20302219.691 8  20302219.383 9 106688843.489 8  83134204.843 7  83134199.840 8  79670271.185 9        52.000          43.100          49.500          55.100
G03  20638859.953 8  20638864.469 7  20638864.383 8  20638865.188 8 108457832.124 8  84512709.854 7  84512704.856 8  80991337.940 8        52.000          42.700          49.200          53.900
G08  21815645.422 8  21815650.254 6  21815650.656 7  21815649.746 8 114641953.548 8  89331442.679 6  89331438.681 7  85609290.656 8        48.300          38.300          46.500          52.200
G11  19898170.680 8  19898171.746 6                                 104565591.012 8  81479686.859 6                                        48.200          39.400
G14  22321244.930 7  22321246.574 5                                 117298885.022 7  91401779.583 5                                        45.300          31.900
G17  24659604.297 6  24659606.309 4  24659605.809 6                 129586954.635 6 100976969.239 4 100976973.245 6                        41.700          28.100          40.500
G18  20307458.281 8  20307460.996 6                                 106716409.000 8  83155656.366 6                                        48.900          40.000
G22  20389209.805 8  20389209.449 7                                 107146021.438 8  83490406.854 7                                        49.900          43.400
G23  23887682.164 6  23887682.504 4                                 125530753.937 6  97816069.048 4                                        40.700          26.500
G28  23152345.945 7  23152347.438 4                                 121666398.869 7  94804994.092 4                                        43.000          27.600
G32  23688291.195 7  23688295.543 4  23688295.602 7  23688295.090 8 124482787.080 7  96999613.180 4  96999611.176 7  92957957.410 8        43.500          29.300          43.400          49.200
R06  19744579.492 6                 105360776.325 6                        39.700
R20  19684674.156 7  19684681.008 8 105262795.967 7  81871065.875 8        44.100          49.400
R21  20140926.242 8  20140930.363 7 107778081.423 8  83827474.882 7        50.100          47.300
> 2018 04 26 22 42 30.0000000  0 18
E03  26557871.398 7  26557874.934 8 139562556.357 7 105578177.261 8        43.000          52.700
E07  24638739.992 7  24638743.383 9 129477452.156 7  97948827.493 9        47.700          56.000
E08  21487400.547 8  21487401.383 9 112917053.423 8  85420991.577 9        50.800          58.400
E26  23298230.945 7  23298234.234 9 122433038.092 7  92619817.487 9        46.500          55.800
G01  20296059.406 8  20296064.180 7  20296063.723 8  20296063.203 9 106656494.486 8  83108997.832 7  83108992.828 8  79646114.467 9        52.500          42.900          48.100          55.000
G03  20626879.617 8  20626883.969 7  20626884.121 7  20626884.750 8 108394875.910 8  84463653.079 7  84463648.083 7  80944325.203 8        52.200          42.600          47.500          53.700
G08  21828249.664 7  21828254.684 6  21828255.039 7  21828254.000 8 114708191.060 7  89383056.313 6  89383052.323 7  85658753.727 8        47.800          38.400          47.200          51.900
G11  19895195.969 7  19895197.367 6                                 104549960.448 7  81467507.188 6                                        45.600          40.000
G14  22321467.258 7  22321469.941 5                                 117300055.441 7  91402691.615 5                                        43.300          32.300
G17  24636615.781 7  24636616.922 4  24636617.066 6                 129466148.069 7 100882834.303 4 100882838.287 6                        43.000          26.800          40.600
G18  20309925.773 8  20309928.711 6                                 106729379.325 8  83165763.104 6                                        48.200          39.200
G22  20386524.742 8  20386524.473 7                                 107131911.106 8  83479411.795 7                                        49.200          42.700
G23  23864446.102 6  23864446.930 4                                 125408650.046 6  97720923.154 4                                        40.900          26.000
G28  23153054.570 7  23153056.887 4                                 121670127.298 7  94807899.384 4                                        42.500          27.600
G32  23697779.625 7  23697784.402 4  23697784.340 7  23697783.715 8 124532653.401 7  97038470.047 4  97038468.059 7  92995195.271 8        42.600          29.200          43.900          49.100
R06  19727980.445 6                 105272198.583 6                        39.800
R20  19687347.992 7  19687352.559 8 105277086.358 7  81882180.614 8        44.500          48.000
R21  20122434.633 8  20122438.531 7 107679126.758 8  83750510.153 7        49.500          46.200
> 2018 04 26 22 43 00.0000000  0 18
E03  26568147.664 7  26568150.699 8 139616555.844 7 105619027.532 8        43.900          52.300
E07  24621473.461 7  24621476.941 9 129386716.059 7  97880186.233 9        47.100          56.400
E08  21484974.188 8  21484975.297 9 112904303.659 8  85411346.470 9        49.900          58.400
E26  23282416.180 7  23282419.270 9 122349930.236 7  92556946.948 9        46.700          55.600
G01  20289953.109 8  20289958.129 7  20289957.715 8  20289957.383 9 106624407.521 8  83083995.011 7  83083990.015 8  79622153.430 9        52.300          43.100          49.300          55.200
G03  20614971.188 8  20614975.484 7  20614975.551 8  20614976.320 8 108332296.928 8  84414890.246 7  84414885.242 8  80897594.158 8        50.700          43.200          48.800          53.900
G08  21840916.211 8  21840921.117 6  21840921.605 7  21840921.020 8 114774753.833 8  89434923.399 6  89434919.402 7  85708459.699 8        48.100          38.300          47.600          51.600
G11  19892310.297 7  19892311.715 6                                 104534794.683 7  81455689.714 6                                        45.800          39.900
G14  22321788.133 7  22321790.941 5                                 117301743.534 7  91404007.008 5                                        44.300          31.400
G17  24613642.727 7  24613643.809 4  24613643.813 6                 129345423.705 7 100788763.392 4 100788767.403 6                        42.600          25.400          37.800
G18  20312453.461 7  20312455.230 6                                 106742659.133 7  83176111.010 6                                        47.600          39.900
G22  20383904.172 8  20383903.941 7                                 107118140.737 8  83468681.642 7                                        48.800          43.400
G23  23841220.563 7  23841220.992 4                                 125286599.185 7  97625818.575 4                                        42.500          25.600
G28  23153847.664 6  23153849.539 4                                 121674292.637 6  94811145.075 4                                        41.800          27.800
G32  23707344.891 7  23707350.105 4  23707350.184 7  23707349.480 8 124582920.167 7  97077638.944 4  97077636.956 7  93032732.122 8        42.700          28.200          43.400          48.500
R06  19711492.469 6                 105184212.167 6                        39.400
R20  19690120.000 7  19690125.754 7 105291918.467 7  81893716.700 7        43.200          47.600
R21  20104004.773 8  20104007.777 7 107580503.563 8  83673803.231 7        49.100          47.400
> 2018 04 26 22 43 30.0000000  0 18
E03  26578453.172 7  26578456.539 8 139670712.248 7 105659996.512 8        44.000          52.300
E07  24604253.602 7  24604257.445 9 129296226.254 7  97811731.301 9        46.500          56.500
E08  21482619.719 8  21482620.633 9 112891929.464 8  85401985.481 9        50.500          58.400
E26  23266615.016 7  23266618.496 9 122266896.268 7  92494132.313 9        47.700          55.700
G01  20283898.719 8  20283903.602 7  20283903.293 8  20283902.563 9 106592590.594 8  83059202.603 7  83059197.605 8  79598394.044 9        52.700          43.500          50.700          55.000
G03  20603136.242 8  20603140.316 7  20603140.230 8  20603140.859 8 108270102.612 8  84366427.149 7  84366422.153 8  80851150.363 8        52.700          43.100          49.900          53.600
G08  21853645.734 7  21853650.875 6  21853650.969 7  21853650.246 8 114841647.223 7  89487048.133 6  89487044.129 7  85758412.553 8        47.400          37.700          47.000          51.500
G11  19889513.969 7  19889515.609 6                                 104520101.670 7  81444240.617 6                                        46.600          39.500
G14  22322209.391 7  22322212.109 5                                 117303955.979 7  91405731.002 5                                        44.200          31.600
G17  24590686.609 7  24590688.961 4  24590688.594 6                 129224790.510 7 100694763.500 4 100694767.526 6                        42.100          25.900          39.600
G18  20315040.773 8  20315043.625 6                                 106756256.037 8  83186705.999 6                                        48.500          39.700
G22  20381349.680 8  20381349.543 7                                 107104717.737 8  83458222.176 7                                        49.200          43.200
G23  23818007.555 7  23818007.422 4                                 125164611.552 7  97530763.266 4                                        43.600          26.200
G28  23154725.805 7  23154727.098 4                                 121678900.928 7  94814735.955 4                                        43.500          27.200
G32  23716987.898 7  23716992.563 4  23716992.539 7  23716992.055 8 124633592.428 7  97117123.839 4  97117121.836 7  93070571.806 8        42.200          27.700          42.600          48.500
R06  19695117.000 6                 105096826.059 6                        39.600
R20  19692997.914 7  19693003.445 8 105307300.045 7  81905680.139 8        43.800          49.100
R21  20085637.836 8  20085642.375 7 107482222.635 8  83597362.520 7        48.900          47.300
> 2018 04 26 22 44 00.0000000  0 18
E03  26588788.492 7  26588791.668 8 139725024.122 7 105701083.093 8        43.600          52.700
E07  24587081.547 7  24587084.758 9 129205983.962 7  97743463.604 9        47.600          56.400
E08  21480336.172 8  21480337.328 9 112879930.295 8  85392908.190 9        50.300          58.300
E26  23250828.383 7  23250832.047 9 122183937.412 7  92431374.496 9        46.800          55.600
G01  20277895.516 8  20277900.457 7  20277900.043 8  20277899.418 9 106561044.437 8  83034621.187 7  83034616.191 8  79574836.852 9        52.500          42.900          49.400          54.900
G03  20591374.219 8  20591378.754 7  20591378.801 8  20591379.297 8 108208293.090 8  84318263.888 7  84318258.884 8  80804993.907 8        52.200          42.700          48.400          53.700
G08  21866437.461 7  21866442.691 6  21866442.910 7  21866442.004 8 114908869.240 7  89539428.918 6  89539424.921 7  85808610.811 8        47.900          37.900          46.600          51.700
G11  19886808.164 7  19886809.875 6                                 104505882.127 7  81433160.459 6                                        46.300          39.500
G14  22322730.281 7  22322732.422 5                                 117306692.253 7  91407863.174 5                                        45.400          33.000
G17  24567747.906 6  24567750.016 4  24567750.352 6                 129104250.946 6 100600836.631 4 100600840.586 6                        40.600          25.100          39.400
G18  20317688.547 8  20317691.340 6                                 106770170.208 8  83197548.206 6                                        48.600          39.600
G22  20378861.242 8  20378861.301 7                                 107091640.503 8  83448032.115 7                                        50.500          42.300
G23  23794806.773 7  23794806.238 4                                 125042689.489 7  97435759.090 4                                        43.400          27.000
G28  23155685.852 6  23155687.672 4                                 121683950.829 6  94818670.951 4                                        41.200          26.800
G32  23726707.484 7  23726712.250 4  23726711.766 7  23726711.977 8 124684668.136 7  97156923.104 4  97156921.107 7  93108712.753 8        42.500          28.200          42.800          49.000
R06  19678852.516 6                 105010041.993 6                        40.200
R20  19695976.617 7  19695982.141 8 105323231.881 7  81918071.564 8        43.600          48.500
R21  20067337.391 8  20067340.695 7 107384287.384 8  83521190.670 7        49.100          47.100
> 2018 04 26 22 44 30.0000000  0 18
E03  26599151.977 7  26599155.535 8 139779486.386 7 105742283.430 8        42.300          52.700
E07  24569955.180 7  24569959.000 9 129115986.885 7  97675381.402 9        47.300          56.400
E08  21478123.438 8  21478124.508 9 112868302.066 8  85384111.518 9        50.200          58.400
E26  23235055.695 7  23235059.219 9 122101051.391 7  92368671.773 9        47.400          55.800
G01  20271943.461 8  20271948.043 7  20271947.598 8  20271947.121 9 106529766.203 8  83010248.552 7  83010243.549 8  79551479.739 9        52.500          43.100          48.100          55.000
G03  20579684.375 8  20579689.023 7  20579689.359 8  20579689.980 8 108146864.948 8  84270397.814 7  84270392.804 8  80759122.258 8        52.900          42.300          48.000          53.700
G08  21879290.883 8  21879296.582 6  21879296.641 7  21879295.367 8 114976414.376 8  89592061.482 6  89592057.485 7  85859050.358 8        48.000          38.300          47.300          51.400
G11  19884191.727 7  19884193.316 6                                 104492133.145 7  81422446.961 6                                        46.000          39.000
G14  22323349.414 7  22323351.820 5                                 117309948.448 7  91410400.462 5                                        44.000          30.900
G17  24544828.422 6  24544830.297 3  24544830.309 6                 128983804.225 6 100506982.096 3 100506986.070 6                        41.200          22.300          38.700
G18  20320396.234 8  20320398.246 6                                 106784398.080 8  83208634.858 6                                        48.500          39.500
G22  20376437.563 8  20376437.617 7                                 107078904.581 8  83438108.026 7                                        49.400          42.600
G23  23771617.766 6  23771617.480 4                                 124920832.309 6  97340805.467 4                                        41.400          26.500
G28  23156729.188 6  23156732.254 4                                 121689437.166 6  94822946.010 4                                        40.900          27.900
G32  23736502.375 7  23736507.320 4  23736507.031 7  23736506.633 8 124736141.612 7  97197032.300 4  97197030.312 7  93147150.736 8        42.500          28.300          43.700          48.300
R06  19662702.742 6                 104923857.768 6                        40.600
R20  19699058.828 7  19699063.641 7 105339710.535 7  81930888.283 7        44.600          47.600
R21  20049099.984 8  20049103.199 7 107286697.640 8  83445287.542 7        49.500          46.700
> 2018 04 26 22 45 00.0000000  0 18
E03  26609548.242 7  26609551.344 8 139834117.861 7 105783611.763 8        42.400          52.700
E07  24552880.109 7  24552883.781 9 129026256.541 7  97607500.998 9        47.000          56.400
E08  21475984.867 8  21475985.891 9 112857064.503 8  85375610.386 9        50.200          58.400
E26  23219301.094 7  23219304.367 9 122018259.758 7  92306040.457 9        47.300          55.700
G01  20266046.406 8  20266051.613 7  20266051.234 8  20266050.754 9 106498777.008 8  82986101.126 7  82986096.123 8  79528338.454 9        52.300          43.700          50.100          55.000
G03  20568072.070 8  20568076.574 7  20568076.527 8  20568077.176 9 108085838.557 8  84222844.786 7  84222839.782 8  80713550.606 9        53.000          43.200          49.500          54.000
G08  21892209.539 7  21892214.410 6  21892214.809 7  21892214.074 8 115044301.212 7  89644960.323 6  89644956.328 7  85909745.072 8        47.300          37.700          46.700          51.900
G11  19881669.156 7  19881670.457 6                                 104478875.913 7  81412116.652 6                                        45.600          39.500
G14  22324072.344 7  22324074.688 5                                 117313744.024 7  91413358.066 5                                        43.700          31.400
G17  24521931.203 7  24521932.230 3  24521931.977 6                 128863473.367 7 100413217.760 3 100413221.756 6                        43.800          23.400          40.000
G18  20323167.102 8  20323170.016 6                                 106798959.990 8  83219981.798 6                                        48.600          39.900
G22  20374082.563 8  20374082.602 7                                 107066529.296 8  83428464.965 7                                        48.500          42.400
G23  23748444.820 6  23748446.141 4                                 124799062.622 6  97245919.990 4                                        39.900          24.700
G28  23157860.703 6  23157862.758 4                                 121695378.801 6  94827575.869 4                                        40.900          27.400
G32  23746377.430 7  23746381.039 4  23746381.023 7  23746381.113 8 124788030.986 7  97237465.574 4  97237463.578 7  93185899.285 8        42.500          27.400          42.900          48.500
R06  19646668.063 6                 104838295.992 6                        40.500
R20  19702246.203 7  19702252.352 8 105356757.271 7  81944146.853 8        44.300          48.500
R21  20030931.211 8  20030936.117 8 107189477.686 8  83369672.038 8        49.000          48.100
