     3.03           OBSERVATION DATA    M (MIXED)           RINEX VERSION / TYPE
cnvtToRINEX 3.05.0  convertToRINEX OPR  27-Apr-18 09:36 UTC PGM / RUN BY / DATE 
gfzrnx-1.10-7329    FILE CONVERSION     20180626 074807 UTC COMMENT             
----------------------------------------------------------- COMMENT             
FIELD                                                       MARKER NAME         
FIELD                                                       MARKER NUMBER       
GEODETIC                                                    MARKER TYPE         
lugarcia            UPV                                     OBSERVER / AGENCY   
5042451519          TRIMBLE R8 GNSS3    4.71                REC # / TYPE / VERS 
                    TRM60158.00     NONE                    ANT # / TYPE        
  4929459.7746   -29217.9357  4033767.9959                  APPROX POSITION XYZ 
        0.0000        0.0000        0.0000                  ANTENNA: DELTA H/E/N
     0                                                      RCV CLOCK OFFS APPL 
 18 R01  1 R02 -4 R04  6 R06 -4 R07  5 R08  6 R09 -2 R10 -7 GLONASS SLOT / FRQ #
    R11  0 R12 -1 R16 -1 R17  4 R19  3 R20  2 R21  4 R22 -3 GLONASS SLOT / FRQ #
    R23  3 R24  2                                           GLONASS SLOT / FRQ #
R L2P  0.00000                                              SYS / PHASE SHIFT   
G L2X -0.25000                                              SYS / PHASE SHIFT   
    18                  GPS                                 LEAP SECONDS        
DBHZ                                                        SIGNAL STRENGTH UNIT
 C1C    0.000 C2P    0.000                                  GLONASS COD/PHS/BIS 
E    6 C1X C8X L1X L8X S1X S8X                              SYS / # / OBS TYPES 
G   12 C1C C2W C2X C5X L1C L2W L2X L5X S1C S2W S2X S5X      SYS / # / OBS TYPES 
R    6 C1C C2P L1C L2P S1C S2P                              SYS / # / OBS TYPES 
    49                                                      # OF SATELLITES     
   E01    71    71    71    71    71    71                  PRN / # OF OBS      
   E03   199   199   199   199   199   199                  PRN / # OF OBS      
   E04    36    36    36    36    36    36                  PRN / # OF OBS      
   E07   884   883   884   883   884   883                  PRN / # OF OBS      
   E08   529   529   529   529   529   529                  PRN / # OF OBS      
   E12   370   370   370   370   370   370                  PRN / # OF OBS      
   E19   364   364   364   364   364   364                  PRN / # OF OBS      
   E26   749   749   749   749   749   749                  PRN / # OF OBS      
   E30   353   353   353   353   353   353                  PRN / # OF OBS      
   G01   545   545   545   545   545   545   545   545   545PRN / # OF OBS      
         545   545   545                                    PRN / # OF OBS      
   G02   453   453               453   453               453PRN / # OF OBS      
         453                                                PRN / # OF OBS      
   G03   672   664   669   671   672   664   669   671   672PRN / # OF OBS      
         664   669   671                                    PRN / # OF OBS      
   G05   288   288   288         288   288   288         288PRN / # OF OBS      
         288   288                                          PRN / # OF OBS      
   G06   629   628   628   628   628   628   628   628   629PRN / # OF OBS      
         628   628   628                                    PRN / # OF OBS      
   G07   477   477   477         477   477   477         477PRN / # OF OBS      
         477   477                                          PRN / # OF OBS      
   G08   264   258   263   263   263   258   263   263   264PRN / # OF OBS      
         258   263   263                                    PRN / # OF OBS      
   G09   717   717   717   717   717   717   717   717   717PRN / # OF OBS      
         717   717   717                                    PRN / # OF OBS      
   G10    20    20    20    20    20    20    20    20    20PRN / # OF OBS      
          20    20    20                                    PRN / # OF OBS      
   G11   462   459               462   459               462PRN / # OF OBS      
         459                                                PRN / # OF OBS      
   G13   163   163               163   163               163PRN / # OF OBS      
         163                                                PRN / # OF OBS      
   G14   322   322               322   322               322PRN / # OF OBS      
         322                                                PRN / # OF OBS      
   G17   522   522   522         522   522   522         522PRN / # OF OBS      
         522   522                                          PRN / # OF OBS      
   G18   403   397               401   397               403PRN / # OF OBS      
         397                                                PRN / # OF OBS      
   G19   479   479               479   479               479PRN / # OF OBS      
         479                                                PRN / # OF OBS      
   G22   531   522               531   522               531PRN / # OF OBS      
         522                                                PRN / # OF OBS      
   G23   708   708               708   708               708PRN / # OF OBS      
         708                                                PRN / # OF OBS      
   G27    98    95    98    98    98    95    98    98    98PRN / # OF OBS      
          95    98    98                                    PRN / # OF OBS      
   G28   346   344               345   344               346PRN / # OF OBS      
         344                                                PRN / # OF OBS      
   G30   376   376   376   376   376   376   376   376   376PRN / # OF OBS      
         376   376   376                                    PRN / # OF OBS      
   G31   140   132   135         135   132   135         140PRN / # OF OBS      
         132   135                                          PRN / # OF OBS      
   G32   189   189   189   189   189   189   189   189   189PRN / # OF OBS      
         189   189   189                                    PRN / # OF OBS      
   R01   357   357   357   357   357   357                  PRN / # OF OBS      
   R02    57    57    57    57    57    57                  PRN / # OF OBS      
   R04   115   115   115   115   115   115                  PRN / # OF OBS      
   R06   578         578         578                        PRN / # OF OBS      
   R07   712   703   712   703   712   703                  PRN / # OF OBS      
   R08   602   602   602   602   602   602                  PRN / # OF OBS      
   R09   391   391   391   391   391   391                  PRN / # OF OBS      
   R10   374   374   374   374   374   374                  PRN / # OF OBS      
   R11   238   238   238   238   238   238                  PRN / # OF OBS      
   R12    81          81          81                        PRN / # OF OBS      
   R16   251   251   251   251   251   251                  PRN / # OF OBS      
   R17   172   172   172   172   172   172                  PRN / # OF OBS      
   R19    92    92    92    92    92    92                  PRN / # OF OBS      
   R20   349   349   349   349   349   349                  PRN / # OF OBS      
   R21   534   534   534   534   534   534                  PRN / # OF OBS      
   R22   528   528   528   528   528   528                  PRN / # OF OBS      
   R23   434   434   434   434   434   434                  PRN / # OF OBS      
   R24   331   330   331   330   331   330                  PRN / # OF OBS      
    30.000                                                  INTERVAL            
  2018     4    26    21    42    0.0000000     GPS         TIME OF FIRST OBS   
  2018     4    27     5    39   30.0000000     GPS         TIME OF LAST OBS    
                                                            END OF HEADER      
> 2018 04 26 21 42 00.0000000  0 20
E01  27760466.547 7  27760469.547 8 145882235.629 7 110358936.451 8        43.500          50.400
E03  25343321.898 7  25343324.020 9 133180054.384 7 100749820.710 9        47.800          55.600
E08  22041624.289 8  22041625.051 9 115829603.745 8  87624250.781 9        49.500          58.100
G01  21097763.523 8  21097768.574 6  21097768.359 8  21097766.773 8 110869492.149 8  86391845.373 6  86391841.369 8  82792166.519 8        51.500          40.800          49.100          53.100
G03  22302156.914 7  22302162.090 6  22302162.383 7  22302161.934 8 117198627.626 7  91323614.488 6  91323629.492 7  87518471.708 8        45.700          37.400          46.800          49.900
G08  20570665.422 8  20570669.773 7  20570670.363 8  20570668.852 9 108099569.398 8  84233457.940 7  84233483.941 8  80723720.626 9        51.200          43.200          49.800          54.100
G10  24318798.406 6  24318802.809 4  24318802.680 6  24318801.301 7 127796118.054 6  99581429.514 4  99581430.528 6  95432201.929 7        39.100          25.000          40.800          45.700
G11  20567961.039 8  20567962.324 6                                 108085479.657 8  84222370.980 6                                        49.600          39.700
G14  22732292.523 7  22732294.535 5                                 119458997.342 7  93084949.853 5                                        43.100          30.500
G18  20162264.711 8  20162267.211 6                                 105953415.025 8  82561112.553 6                                        50.400          41.200
G22  20952804.914 8  20952804.109 6                                 110107729.939 8  85798192.479 6                                        48.300          41.400
G27  22784319.750 7  22784324.207 5  22784324.355 7  22784322.992 8 119732403.520 7  93297996.677 5  93297996.664 7  89410589.504 8        45.100          35.800          47.800          49.400
G28  23445312.539 7  23445314.156 4                                 123205948.076 7  96004648.121 4                                        42.600          27.000
G32  22928928.578 7  22928932.277 5  22928932.453 7  22928931.121 8 120492325.152 7  93890143.447 5  93890148.436 7  89978049.575 8        46.200          34.700          46.600          50.300
R04  21182078.484 7  21182080.727 7 113429067.813 7  88222614.950 7        46.600          46.100
R06  22145693.516 6                 118173652.420 6                        36.600
R11  23625825.000 6  23625830.762 7 126249288.577 6  98193875.236 7        40.800          42.400
R19  21613149.836 7  21613150.395 7 115615765.348 7  89923391.570 7        44.700          43.300
R20  19769685.469 7  19769689.539 8 105717458.262 7  82224633.364 8        44.100          49.200
R21  22367272.875 7  22367276.379 6 119691938.134 7  93093637.892 6        45.300          41.900
> 2018 04 26 21 42 30.0000000  0 20
E01  27756077.039 7  27756080.180 8 145859167.994 7 110341485.952 8        43.000          51.000
E03  25343584.836 7  25343587.051 9 133181436.399 7 100750866.191 9        46.400          56.000
E08  22026131.211 8  22026132.219 9 115748188.919 8  87562661.009 9        49.200          58.200
G01  21082017.883 8  21082022.754 6  21082022.656 8  21082021.367 8 110786748.506 8  86327369.821 6  86327365.816 8  82730377.445 8        49.400          41.400          48.900          53.100
G03  22277914.922 7  22277919.969 6  22277920.281 7  22277919.867 8 117071235.597 7  91224347.989 6  91224362.986 7  87423341.315 8        45.100          36.900          46.600          49.800
G08  20569435.914 8  20569439.703 7  20569440.176 8  20569438.898 9 108093106.140 8  84228421.638 7  84228447.632 8  80718894.161 9        51.000          43.700          49.800          54.100
G10  24330130.930 6  24330135.563 3  24330135.043 6  24330133.703 7 127855672.811 6  99627835.810 3  99627836.828 6  95476674.646 7        39.200          22.900          40.800          45.800
G11  20551507.031 7  20551507.938 6                                 107999013.656 7  84154994.880 6                                        47.500          39.800
G14  22716748.320 7  22716750.121 5                                 119377314.943 7  93021301.238 5                                        45.100          30.500
G18  20153418.859 8  20153421.383 6                                 105906930.033 8  82524890.491 6                                        50.500          40.900
G22  20937036.859 8  20937036.383 6                                 110024869.651 8  85733626.039 6                                        49.500          41.100
G27  22794507.297 7  22794511.258 5  22794511.570 7  22794510.219 8 119785938.634 7  93339712.349 5  93339712.352 7  89450567.018 8        45.600          35.700          46.700          49.000
G28  23430804.656 7  23430806.512 4                                 123129704.999 7  95945237.971 4                                        43.800          26.600
G32  22922720.828 7  22922724.996 5  22922724.855 7  22922724.016 8 120459705.274 7  93864725.373 5  93864730.369 7  89953690.580 8        44.700          35.100          46.300          50.800
R04  21191932.148 7  21191933.262 7 113481830.654 7  88263652.703 7        46.500          45.800
R06  22114696.078 6                 118008239.016 6                        37.300
R11  23627245.117 6  23627250.586 6 126256874.230 6  98199775.139 6        38.300          41.800
R19  21619081.828 7  21619082.867 7 115647502.439 7  89948075.991 7        44.300          43.300
R20  19757448.609 7  19757453.211 8 105652025.983 7  82173741.603 8        44.100          49.200
R21  22340997.102 7  22341001.156 6 119551333.151 7  92984278.471 6        43.500          41.700
> 2018 04 26 21 43 00.0000000  0 21
E01  27751803.258 7  27751805.805 8 145836706.957 7 110324494.320 8        43.600          51.300
E03  25343954.070 7  25343956.293 9 133183376.857 7 100752334.144 9        47.200          55.900
E08  22010750.047 8  22010750.477 9 115667357.732 8  87501512.754 9        49.000          58.200
E26  24935539.719 6  24935543.203 8 131037140.849 6  99128724.982 8        41.200          51.900
G01  21066353.727 8  21066358.414 6  21066358.262 7  21066356.793 8 110704433.905 8  86263228.569 6  86263224.565 7  82668908.771 8        51.300          41.500          47.300          53.000
G03  22253771.664 7  22253776.297 6  22253776.641 7  22253776.137 8 116944357.543 7  91125482.002 6  91125496.993 7  87328594.749 8        46.500          36.900          46.900          49.200
G08  20568337.586 8  20568341.770 7  20568342.273 8  20568340.848 9 108087336.164 8  84223925.555 7  84223951.557 8  80714585.423 9        52.000          43.900          50.200          54.400
G10  24341515.703 6  24341519.082 3  24341519.137 6  24341517.926 7 127915495.214 6  99674450.674 3  99674451.667 6  95521347.213 7        41.100          23.900          40.800          47.500
G11  20535157.023 8  20535157.844 6                                 107913092.130 8  84088043.037 6                                        50.300          39.200
G14  22701329.578 7  22701331.594 5                                 119296288.070 7  92958163.423 5                                        45.700          31.700
G18  20144672.461 8  20144674.461 6                                 105860967.245 8  82489075.344 6                                        50.600          41.600
G22  20921387.258 8  20921387.039 6                                 109942632.806 8  85669545.393 6                                        49.300          40.900
G27  22804781.414 7  22804785.543 6  22804785.707 7  22804784.621 8 119839930.138 7  93381783.667 6  93381783.659 7  89490885.373 8        46.200          36.000          47.100          48.900
G28  23416426.984 7  23416428.359 4                                 123054151.215 7  95886364.895 4                                        43.000          27.500
G32  22916660.180 7  22916664.082 5  22916664.297 7  22916663.160 8 120427855.982 7  93839907.736 5  93839912.728 7  89929907.022 8        45.300          34.600          46.500          50.200
R04  21201914.258 7  21201916.270 7 113535286.348 7  88305229.349 7        47.000          46.500
R06  22083788.727 6                 117843320.363 6                        37.000
R11  23628812.172 6  23628817.539 6 126265251.050 6  98206290.418 6        40.000          40.400
R19  21625117.766 7  21625118.652 7 115679787.976 7  89973186.952 7        45.100          43.500
R20  19745323.719 7  19745328.387 8 105587190.690 7  82123314.153 8        44.100          48.000
R21  22314767.117 7  22314770.160 7 119410964.597 7  92875102.950 7        44.600          42.700
> 2018 04 26 21 43 30.0000000  0 21
E01  27747641.328 6  27747644.027 8 145814836.916 6 110307949.776 8        41.900          50.800
E03  25344426.617 7  25344428.891 9 133185859.749 7 100754212.444 9        46.800          55.800
E08  21995476.539 8  21995477.316 9 115587096.181 8  87440795.425 9        49.200          58.200
E26  24915188.164 7  24915192.145 8 130930194.520 7  99047820.813 8        42.300          52.300
G01  21050768.711 8  21050773.523 6  21050773.082 8  21050772.016 8 110622533.872 8  86199410.386 6  86199406.382 8  82607749.669 8        48.100          40.800          49.000          53.200
G03  22229722.586 7  22229727.133 6  22229727.211 7  22229727.090 8 116817980.051 7  91027006.054 6  91027021.043 7  87234221.971 8        46.200          37.300          46.700          49.600
G08  20567368.688 8  20567373.066 7  20567373.512 8  20567372.262 8 108082244.132 8  84219957.740 7  84219983.734 8  80710782.929 8        52.300          44.400          50.500          53.900
G10  24352946.445 6  24352951.039 4  24352950.727 6  24352949.184 7 127975568.586 6  99721261.091 4  99721262.088 6  95566207.172 7        41.100          24.200          40.900          46.900
G11  20518907.664 7  20518909.023 6                                 107827702.039 7  84021505.307 6                                        47.200          40.300
G14  22686033.125 7  22686035.133 5                                 119215903.809 7  92895526.356 5                                        43.300          30.400
G18  20136022.898 8  20136024.555 6                                 105815511.824 8  82453655.544 6                                        50.000          40.800
G22  20905853.969 8  20905853.895 6                                 109861004.452 8  85605938.903 6                                        49.000          41.500
G27  22815139.203 7  22815143.191 5  22815143.230 7  22815142.035 8 119894361.693 7  93424197.860 5  93424197.853 7  89531532.324 8        45.500          35.400          47.100          48.800
G28  23402178.008 7  23402179.543 4                                 122979273.443 7  95828018.628 4                                        42.600          26.400
G32  22910743.250 7  22910746.969 5  22910747.207 7  22910745.988 8 120396762.528 7  93815679.090 5  93815684.086 7  89906687.905 8        46.400          35.300          46.800          50.700
R04  21212022.648 7  21212024.727 7 113589415.842 7  88347330.075 7        46.800          45.300
R06  22052974.148 6                 117678885.010 6                        36.400
R11  23630526.500 6  23630531.078 7 126274401.120 6  98213407.115 7        40.900          42.800
R19  21631252.953 7  21631254.387 7 115712606.373 7  89998712.375 7        43.900          44.400
R20  19733308.805 7  19733313.512 8 105522939.478 7  82073340.989 8        43.800          49.100
R21  22288576.953 7  22288580.391 7 119270819.280 7  92766101.062 7        44.300          42.400
> 2018 04 26 21 44 00.0000000  0 21
E01  27743585.828 7  27743588.738 8 145793526.943 7 110291828.919 8        42.900          50.700
E03  25344996.180 7  25344998.559 9 133188853.768 7 100756477.398 9        46.900          55.800
E08  21980305.852 8  21980306.875 9 115507375.043 8  87380486.917 9        50.200          58.400
E26  24894865.688 7  24894869.703 8 130823399.786 7  98967031.357 8        42.100          52.400
G01  21035256.969 8  21035261.973 6  21035261.703 8  21035260.465 8 110541018.707 8  86135892.088 6  86135888.084 8  82546877.976 8        50.900          41.700          49.100          53.000
G03  22205763.398 7  22205767.766 6  22205767.879 7  22205767.664 8 116692074.503 7  90928897.859 6  90928912.854 7  87140201.620 8        46.900          37.300          46.800          49.900
G08  20566523.500 8  20566527.441 7  20566528.070 8  20566526.461 9 108077800.083 8  84216494.843 7  84216520.845 8  80707464.319 9        51.900          43.800          50.300          54.300
G10  24364420.523 7  24364423.625 4  24364423.258 6  24364422.410 7 128035860.929 7  99768242.148 4  99768243.167 6  95611230.706 7        42.500          26.500          40.400          47.800
G11  20502754.414 8  20502755.031 6                                 107742814.521 8  83955359.201 6                                        50.000          39.600
G14  22670854.000 7  22670855.176 5                                 119136134.157 7  92833368.172 5                                        43.600          32.400
G18  20127463.813 8  20127465.887 6                                 105770533.956 8  82418607.865 6                                        50.900          41.000
G22  20890430.969 8  20890430.613 6                                 109779955.314 8  85542783.748 6                                        48.500          40.500
G27  22825575.148 7  22825579.488 6  22825579.660 7  22825578.336 8 119949201.672 7  93466930.311 6  93466930.311 7  89572484.257 8        44.800          36.200          46.500          48.700
G28  23388052.273 7  23388053.500 4                                 122905041.845 7  95770175.841 4                                        42.600          27.300
G32  22904964.391 7  22904968.633 5  22904968.293 7  22904967.188 8 120366394.961 7  93792016.057 5  93792021.053 7  89884010.820 8        44.500          35.200          47.400          50.700
R04  21222249.969 7  21222252.387 7 113644184.673 7  88389928.041 7        47.100          46.200
R06  22022244.961 6                 117514905.808 6                        36.400
R11  23632376.070 6  23632380.273 6 126284290.604 6  98221098.927 6        40.900          40.300
R19  21637481.070 7  21637482.832 7 115745926.935 7  90024628.360 7        43.900          44.500
R20  19721397.477 7  19721401.461 8 105459243.523 7  82023799.703 8        44.000          48.400
R21  22262423.359 7  22262428.113 7 119130868.522 7  92657250.533 7        43.900          43.200
> 2018 04 26 21 44 30.0000000  0 20
E01  27739632.664 6  27739635.578 8 145772752.126 6 110276112.911 8        41.800          50.800
E03  25345658.398 7  25345660.766 9 133192333.621 7 100759109.886 9        46.700          55.800
E08  21965233.836 8  21965234.852 9 115428171.100 8  87320569.656 9        49.800          58.400
E26  24874567.484 7  24874571.660 8 130716733.111 7  98886338.768 8        42.100          52.300
G01  21019813.961 8  21019818.652 6  21019818.352 8  21019817.203 8 110459864.696 8  86072655.201 6  86072651.204 8  82486275.964 8        50.700          41.100          49.000          53.100
G03  22181889.992 7  22181894.449 6  22181894.805 7  22181894.406 8 116566618.193 7  90831139.717 6  90831154.713 7  87046516.737 8        46.400          37.600          46.600          50.000
G08  20565795.883 8  20565800.133 7  20565800.473 8  20565799.270 9 108073979.193 8  84213517.523 7  84213543.532 8  80704611.051 9        51.500          43.800          50.100          54.600
G10  24375930.047 6  24375934.266 4  24375933.832 7  24375932.996 8 128096346.419 6  99815373.719 4  99815374.708 7  95656398.438 8        40.800          26.500          42.200          48.700
G11  20486691.938 8  20486693.086 6                                 107658407.147 8  83889587.227 6                                        49.500          39.600
G14  22655786.461 7  22655788.160 5                                 119056956.983 7  92771671.693 5                                        43.300          31.300
G18  20118991.250 8  20118993.207 6                                 105726009.923 8  82383913.818 6                                        50.300          41.300
G22  20875113.430 8  20875113.348 6                                 109699461.212 8  85480061.086 6                                        49.100          40.900
G27  22836083.727 7  22836087.359 6  22836087.262 7  22836086.559 8 120004424.458 7  93509961.063 6  93509961.077 7  89613722.069 8        45.800          36.400          47.000          48.800
G28  23374045.258 6  23374046.621 4                                 122831433.630 6  95712818.800 4                                        41.800          27.200
G32  22899319.070 7  22899323.434 5  22899323.477 7  22899322.219 8 120336729.337 7  93768899.984 5  93768904.987 7  89861857.927 8        45.400          34.900          47.000          50.800
R04  21232593.203 7  21232594.332 7 113699564.595 7  88433001.325 7        47.300          46.200
R06  21991595.750 6                 117351361.601 6                        37.300
R19  21643799.602 7  21643801.023 7 115779724.917 7  90050915.669 7        44.700          44.400
R20  19709584.938 7  19709590.324 8 105396080.552 7  81974672.957 8        43.800          49.400
R21  22236303.266 7  22236306.711 7 118991089.985 7  92548533.919 7        44.100          43.100
> 2018 04 26 21 45 00.0000000  0 20
E01  27735778.258 6  27735780.738 8 145752494.246 6 110260787.949 8        40.600          51.200
E03  25346409.602 7  25346411.973 9 133196280.652 7 100762095.804 9        46.900          55.900
E08  21950257.273 8  21950258.047 9 115349467.710 8  87261031.071 9        49.900          58.500
E26  24854290.750 7  24854294.621 8 130610177.454 7  98805730.169 8        42.800          52.000
G01  21004435.984 8  21004440.941 6  21004440.539 8  21004439.375 8 110379054.717 8  86009686.400 6  86009682.404 8  82425930.863 8        51.300          41.100          48.800          53.500
G03  22158098.617 7  22158103.352 6  22158103.453 7  22158102.961 8 116441595.089 7  90733719.133 6  90733734.129 7  86953155.349 8        45.300          37.300          47.200          50.200
G08  20565184.344 8  20565188.785 7  20565189.242 8  20565187.516 9 108070764.245 8  84211012.368 7  84211038.370 8  80702210.278 9        51.700          43.800          50.600          54.400
G10  24387473.039 6  24387477.305 4  24387477.246 7  24387475.977 8 128157005.679 6  99862640.698 4  99862641.697 7  95701695.920 8        41.700          27.500          43.100          48.700
G11  20470718.148 8  20470719.453 6                                 107574463.781 8  83824176.822 6                                        48.200          39.400
G14  22640828.938 7  22640831.430 5                                 118978356.603 7  92710424.645 5                                        44.600          30.900
G18  20110601.492 8  20110603.570 6                                 105681922.256 8  82349559.802 6                                        50.900          41.300
G22  20859898.227 7  20859897.953 6                                 109619504.459 7  85417757.140 6                                        47.600          40.600
G27  22846661.141 7  22846665.871 5  22846665.484 7  22846664.777 8 120060011.042 7  93553275.278 5  93553275.273 7  89655231.541 8        44.100          35.500          47.000          48.600
G28  23360152.750 6  23360155.402 4                                 122758432.197 6  95655934.602 4                                        41.700          27.100
G32  22893804.445 7  22893808.641 5  22893808.508 7  22893807.133 8 120307748.124 7  93746317.231 5  93746322.232 7  89840216.119 8        45.800          34.600          47.000          50.500
R04  21243045.000 7  21243045.898 7 113755533.879 7  88476532.982 7        46.900          45.700
R06  21961027.508 6                 117188238.244 6                        37.200
R19  21650204.164 7  21650205.457 7 115813982.309 7  90077560.307 7        44.100          43.800
R20  19697870.820 7  19697874.414 8 105333434.771 7  81925948.460 8        43.600          49.000
R21  22210211.672 7  22210214.746 7 118851467.535 7  92439938.725 7        45.000          43.000
> 2018 04 26 21 45 30.0000000  0 20
E01  27732018.906 6  27732022.133 8 145732742.535 6 110245845.874 8        41.200          51.100
E03  25347247.320 7  25347249.594 9 133200683.810 7 100765426.765 9        47.100          55.900
E08  21935374.102 8  21935374.988 9 115271255.889 8  87201864.347 9        49.300          58.500
E26  24834033.586 7  24834036.988 8 130503723.622 7  98725198.576 8        43.100          52.000
G01  20989122.375 8  20989127.277 6  20989126.879 8  20989125.711 8 110298579.313 8  85946978.305 6  85946974.293 8  82365835.604 8        48.600          41.300          49.000          53.200
G03  22134388.820 7  22134392.902 6  22134393.184 7  22134392.977 8 116316996.734 7  90636629.536 6  90636644.527 7  86860111.153 8        47.000          37.800          47.500          49.800
G08  20564685.758 8  20564690.121 7  20564690.477 8  20564689.023 9 108068145.066 8  84208971.444 7  84208997.453 8  80700254.396 9        51.800          43.700          49.900          54.000
G10  24399046.773 6  24399052.039 4  24399051.793 7  24399049.887 8 128217827.097 6  99910034.010 4  99910035.006 7  95747114.515 8        41.600          29.100          44.300          48.700
G11  20454831.383 7  20454832.570 6                                 107490977.220 7  83759122.370 6                                        46.800          39.700
G14  22625980.211 7  22625982.422 5                                 118900325.488 7  92649621.191 5                                        42.400          31.600
G18  20102293.039 8  20102295.164 6                                 105638261.291 8  82315538.272 6                                        50.200          40.900
G22  20844784.039 7  20844783.434 6                                 109540076.386 7  85355865.151 6                                        47.300          40.900
G27  22857306.102 7  22857310.406 5  22857310.477 7  22857309.543 8 120115950.063 7  93596864.115 5  93596864.110 7  89697004.178 8        44.400          35.000          46.300          48.800
G28  23346375.711 7  23346376.711 4                                 122686029.093 7  95599516.609 4                                        42.500          27.400
G32  22888417.492 7  22888421.957 5  22888421.801 7  22888420.625 8 120279441.559 7  93724260.184 5  93724265.184 7  89819078.107 8        45.700          35.600          46.700          50.600
R04  21253603.344 7  21253604.883 7 113812078.408 7  88520512.063 7        47.600          46.500
R06  21930535.703 6                 117025529.315 6                        36.600
R19  21656692.141 7  21656693.152 7 115848688.959 7  90104554.365 7        44.100          43.700
R20  19686250.680 7  19686254.840 8 105271298.413 7  81877620.185 8        43.500          48.900
R21  22184146.867 7  22184150.141 7 118711993.363 7  92331458.861 7        43.500          42.800
> 2018 04 26 21 46 00.0000000  0 21
E01  27728355.484 7  27728358.477 8 145713490.150 7 110231281.584 8        42.300          51.200
E03  25348170.781 7  25348172.926 9 133205535.834 7 100769097.287 9        47.200          55.900
E07  26514146.656 7  26514149.559 8 139332778.646 7 105404315.981 8        43.700          52.500
E08  21920583.195 8  21920584.152 9 115193530.464 8  87143065.575 9        49.700          58.500
E26  24813794.469 7  24813797.934 8 130397366.082 7  98644739.837 8        42.800          52.000
G01  20973870.766 8  20973875.832 6  20973875.395 8  20973874.441 8 110218432.907 8  85884526.562 6  85884522.564 8  82305986.028 8        49.800          40.900          48.700          53.400
G03  22110757.688 7  22110762.840 6  22110763.328 7  22110762.797 8 116192818.539 7  90539867.318 6  90539882.315 7  86767380.706 8        46.600          38.200          47.400          50.200
G08  20564299.609 8  20564303.488 7  20564304.039 8  20564302.449 9 108066115.297 8  84207389.812 7  84207415.813 8  80698738.655 9        51.500          44.300          50.800          54.200
G10  24410650.883 6  24410654.629 4  24410654.230 7  24410652.715 8 128278802.783 6  99957547.540 4  99957548.545 7  95792648.307 8        41.400          29.000          43.400          49.100
G11  20439030.141 8  20439031.445 6                                 107407941.978 8  83694419.593 6                                        48.100          40.000
G14  22611239.039 7  22611241.352 5                                 118822859.344 7  92589257.989 5                                        42.500          31.400
G18  20094064.750 8  20094066.703 6                                 105595021.239 8  82281844.728 6                                        50.600          40.500
G22  20829768.078 7  20829768.188 6                                 109461170.979 7  85294380.428 6                                        47.500          41.700
G27  22868016.914 7  22868020.816 5  22868020.672 7  22868020.188 8 120172233.938 7  93640721.701 5  93640721.704 7  89739034.370 8        44.100          34.200          46.100          49.300
G28  23332710.938 7  23332712.570 4                                 122614219.408 7  95543561.017 4                                        42.200          27.400
G32  22883157.977 7  22883162.207 5  22883162.070 7  22883160.758 8 120251803.653 7  93702724.161 5  93702729.149 7  89798439.429 8        44.900          35.100          47.000          50.200
R04  21264268.602 7  21264269.953 7 113869188.228 7  88564930.812 7        47.000          45.600
R06  21900121.281 5                 116863232.188 5                        35.500
R19  21663262.180 7  21663264.094 7 115883838.337 7  90131892.780 7        43.900          43.800
R20  19674724.797 7  19674729.953 8 105209667.365 7  81829684.932 8        43.900          49.000
R21  22158111.008 7  22158113.328 7 118572663.240 7  92223091.033 7        44.300          43.400
> 2018 04 26 21 46 30.0000000  0 21
E01  27724784.391 6  27724787.219 8 145694722.463 6 110217083.945 8        40.200          50.600
E03  25349176.508 7  25349179.004 9 133210821.684 7 100773096.006 9        47.100          55.700
E07  26489291.469 7  26489294.480 8 139202163.936 7 105305506.821 8        43.600          52.200
E08  21905882.867 8  21905883.621 9 115116278.399 8  87084624.909 9        50.200          58.500
E26  24793570.539 7  24793574.617 8 130291091.567 7  98564343.921 8        42.900          52.000
G01  20958679.461 8  20958684.699 6  20958684.359 8  20958682.840 8 110138601.974 8  85822320.665 6  85822316.654 8  82246372.041 8        51.900          41.700          49.000          53.300
G03  22087205.773 7  22087210.238 6  22087210.164 7  22087210.254 8 116069048.088 7  90443422.842 6  90443437.838 7  86674954.748 8        46.600          37.900          46.900          50.000
G08  20564023.031 8  20564027.301 7  20564027.633 8  20564026.262 9 108064660.606 8  84206256.286 7  84206282.288 8  80697652.366 9        51.000          43.800          50.400          54.300
G10  24422280.109 6  24422284.582 5  24422284.488 7  24422282.430 8 128339917.181 6 100005169.160 5 100005170.160 7  95838285.674 8        40.700          30.300          44.600          49.600
G11  20423312.156 8  20423313.719 6                                 107325345.872 8  83630058.991 6                                        48.200          40.100
G14  22596603.688 7  22596604.488 5                                 118745946.323 7  92529325.763 5                                        45.000          31.000
G18  20085914.336 8  20085916.363 6                                 105552188.599 8  82248468.650 6                                        50.300          41.400
G22  20814849.984 8  20814849.738 6                                 109382774.396 8  85233292.202 6                                        48.500          41.100
G27  22878789.922 7  22878794.148 5  22878794.023 7  22878793.168 8 120228847.315 7  93684836.025 5  93684836.030 7  89781310.594 8        45.000          35.100          46.600          48.700
G28  23319156.117 6  23319157.289 4                                 122542989.666 6  95488057.349 4                                        41.800          26.700
G32  22878022.992 7  22878027.672 5  22878027.617 7  22878026.164 8 120224820.558 7  93681698.368 5  93681703.364 7  89778289.714 8        45.300          35.300          47.000          50.500
R04  21275036.320 7  21275037.977 7 113926845.435 7  88609775.307 7        46.700          45.900
R06  21869780.172 5                 116701336.348 5                        35.700
R19  21669913.781 7  21669915.145 7 115919416.401 7  90159564.582 7        44.100          44.200
R20  19663291.609 7  19663296.000 8 105148529.715 7  81782133.424 8        43.900          48.500
R21  22132098.305 7  22132101.316 7 118433465.286 7  92114825.993 7        44.700          42.800
> 2018 04 26 21 47 00.0000000  0 21
E01  27721302.125 6  27721305.188 8 145676425.057 6 110203242.071 8        41.900          50.500
E03  25350262.125 7  25350264.707 9 133216526.599 7 100777411.749 9        46.800          55.700
E07  26464469.141 7  26464471.984 8 139071721.850 7 105206828.243 8        44.000          52.200
E08  21891269.938 8  21891270.539 9 115039486.984 8  87026532.716 9        49.700          58.500
E26  24773360.953 7  24773364.375 8 130184887.113 7  98484000.990 8        42.800          51.900
G01  20943545.820 8  20943550.602 6  20943550.332 8  20943549.211 8 110059073.438 8  85760350.388 6  85760346.375 8  82186983.866 8        51.300          41.400          48.400          53.100
G03  22063728.102 7  22063732.727 6  22063732.746 7  22063732.684 8 115945673.145 7  90347286.544 6  90347301.540 7  86582824.129 8        46.500          37.900          47.600          50.100
G08  20563852.938 8  20563857.227 7  20563857.438 8  20563856.129 8 108063767.668 8  84205560.482 7  84205586.484 8  80696985.553 8        51.500          44.300          50.600          53.900
G10  24433933.359 6  24433937.906 5  24433937.379 7  24433935.988 8 128401154.930 6 100052886.891 5 100052887.893 7  95884015.182 8        41.200          30.400          45.100          49.100
G11  20407675.922 8  20407677.250 6                                 107243177.043 8  83566031.349 6                                        49.700          39.500
G14  22582070.469 7  22582071.957 5                                 118669574.506 7  92469815.269 5                                        43.000          31.900
G18  20077838.289 8  20077840.273 6                                 105509750.123 8  82215399.723 6                                        50.500          40.600
G22  20800025.797 7  20800025.770 6                                 109304873.241 7  85172590.015 6                                        47.500          40.900
G27  22889623.094 7  22889627.273 5  22889627.031 7  22889626.527 8 120285775.083 7  93729195.329 5  93729195.331 7  89823821.598 8        44.300          34.600          46.100          49.300
G28  23305709.109 6  23305710.910 4                                 122472327.394 6  95432995.862 4                                        41.100          25.600
G32  22873011.063 7  22873015.488 5  22873015.586 7  22873014.215 8 120198478.676 7  93661172.249 5  93661177.245 7  89758618.837 8        46.700          35.700          47.200          50.500
R04  21285901.102 7  21285903.160 7 113985031.997 7  88655031.529 7        46.800          46.000
R06  21839515.836 5                 116539831.406 5                        35.700
R19  21676641.602 7  21676643.672 7 115955408.783 7  90187558.673 7        44.100          45.200
R20  19651949.313 7  19651953.863 8 105087874.039 7  81734956.797 8        43.500          49.000
R21  22106108.000 7  22106110.531 7 118294387.728 7  92006654.604 7        44.000          42.400
> 2018 04 26 21 47 30.0000000  0 21
E01  27717909.508 6  27717912.465 8 145658596.210 6 110189754.660 8        41.800          50.200
E03  25351427.195 7  25351429.469 9 133222648.552 7 100782042.964 9        47.200          55.500
E07  26439679.719 7  26439682.766 8 138941453.401 7 105108281.026 8        43.800          51.800
E08  21876744.680 8  21876745.324 9 114963156.223 8  86968789.000 9        49.400          58.400
E26  24753163.961 7  24753167.492 8 130078752.478 7  98403710.877 8        44.200          51.600
G01  20928469.164 8  20928474.301 6  20928473.918 8  20928472.793 8 109979846.941 8  85698615.466 6  85698611.462 8  82127821.235 8        48.400          41.600          48.500          53.400
G03  22040326.211 7  22040330.227 6  22040330.297 7  22040330.242 8 115822694.361 7  90251458.940 6  90251473.944 7  86490989.354 8        47.000          38.100          47.000          50.000
G08  20563789.703 8  20563793.613 7  20563794.184 8  20563792.691 8 108063435.058 8  84205301.313 7  84205327.321 8  80696737.179 8        51.700          43.800          51.100          53.800
G10  24445608.922 6  24445614.238 5  24445613.645 7  24445611.734 8 128462513.527 6 100100698.762 5 100100699.758 7  95929834.889 8        40.900          30.200          45.600          49.000
G11  20392121.344 7  20392122.621 6                                 107161436.400 7  83502337.352 6                                        46.400          39.200
G14  22567640.398 7  22567642.129 5                                 118593745.278 7  92410727.567 5                                        43.300          32.100
G18  20069837.258 8  20069839.500 6                                 105467705.144 8  82182637.402 6                                        48.800          41.100
G22  20785296.211 8  20785295.563 6                                 109227466.842 8  85112273.351 6                                        49.700          40.900
G27  22900514.828 7  22900519.426 5  22900519.598 7  22900518.855 8 120343014.927 7  93773797.814 5  93773797.802 7  89866565.643 8        43.700          34.200          45.800          49.200
G28  23292371.539 6  23292372.832 4                                 122402232.809 6  95378376.729 4                                        41.900          26.800
G32  22868120.391 7  22868124.781 5  22868124.762 7  22868123.215 8 120172777.175 7  93641145.104 5  93641150.100 7  89739426.166 8        45.100          34.800          47.500          50.200
R04  21296866.078 7  21296867.203 7 114043743.440 7  88700695.978 7        46.600          46.300
R06  21809324.875 6                 116378719.914 6                        37.000
R19  21683448.047 7  21683449.359 7 115991814.779 7  90215874.436 7        44.100          43.900
R20  19640696.211 7  19640701.027 8 105027701.052 7  81688155.587 8        45.200          49.400
R21  22080139.125 7  22080143.379 7 118155431.776 7  91898577.803 7        44.500          42.500
> 2018 04 26 21 48 00.0000000  0 21
E01  27714604.273 6  27714607.168 8 145641226.224 6 110176614.378 8        41.300          50.600
E03  25352669.266 7  25352671.910 9 133229177.427 7 100786982.022 9        46.300          55.500
E07  26414922.328 7  26414924.906 8 138811351.379 7 105009859.703 8        44.000          52.100
E08  21862305.586 8  21862306.242 9 114887278.034 8  86911387.654 9        50.000          58.500
E26  24732979.016 7  24732982.582 8 129972679.394 7  98323467.320 8        43.000          51.700
G01  20913448.641 8  20913454.020 6  20913453.840 8  20913452.336 8 109900913.954 8  85637109.255 6  85637105.251 8  82068877.787 8        50.800          41.500          49.500          53.700
G03  22016997.508 7  22017002.031 6  22017002.008 7  22017002.105 8 115700104.257 7  90155934.210 6  90155949.207 7  86399444.816 8        46.400          37.800          47.400          50.300
G08  20563830.945 8  20563835.395 7  20563835.758 8  20563834.180 8 108063653.806 8  84205471.758 7  84205497.760 8  80696900.523 8        51.700          43.900          50.400          53.800
G10  24457306.398 6  24457311.059 4  24457310.930 7  24457309.551 8 128523982.276 6 100148596.482 4 100148597.479 7  95975736.880 8        40.500          29.700          45.900          48.800
G11  20376646.680 7  20376648.063 6                                 107080116.418 7  83438971.143 6                                        47.300          38.900
G14  22553311.875 7  22553314.492 5                                 118518451.614 7  92352057.204 5                                        45.100          31.200
G18  20061909.703 8  20061911.766 6                                 105426045.099 8  82150175.027 6                                        48.900          41.100
G22  20770658.203 8  20770657.910 6                                 109150546.699 8  85052335.587 6                                        50.000          40.900
G27  22911464.891 7  22911469.137 5  22911469.219 7  22911468.688 8 120400556.384 7  93818635.304 5  93818635.291 7  89909534.906 8        43.900          33.100          45.700          49.400
G28  23279138.164 6  23279140.145 4                                 122332697.822 6  95324193.642 4                                        41.400          26.000
G32  22863349.648 7  22863353.496 5  22863353.500 7  22863352.398 8 120147707.149 7  93621610.017 5  93621615.013 7  89720705.046 8        45.100          35.200          46.600          50.500
R04  21307924.703 7  21307926.762 7 114102966.676 7  88746758.493 7        45.900          46.200
R06  21779205.703 6                 116217996.478 6                        36.500
R19  21690329.172 7  21690330.395 7 116028625.066 7  90244504.650 7        44.500          44.600
R20  19629532.430 7  19629537.660 8 104968004.138 7  81641724.665 8        43.200          48.500
R21  22054193.523 7  22054197.371 7 118016590.648 7  91790590.300 7        44.900          42.500
> 2018 04 26 21 48 30.0000000  0 21
E01  27711383.117 6  27711386.566 8 145624301.781 6 110163811.131 8        41.200          50.600
E03  25353986.883 7  25353988.988 9 133236099.645 7 100792218.640 9        47.400          55.500
E07  26390194.203 7  26390196.980 8 138681405.101 7 104911556.194 8        43.600          51.300
E08  21847950.297 8  21847950.922 9 114811840.854 8  86854319.930 9        49.900          58.400
E26  24712803.383 7  24712806.883 8 129866656.060 7  98243261.412 8        43.600          51.900
G01  20898482.344 8  20898486.949 6  20898486.699 8  20898485.383 8 109822262.524 8  85575822.428 6  85575818.424 8  82010144.587 8        48.700          41.600          48.700          53.000
G03  21993741.359 7  21993745.867 6  21993746.406 7  21993746.000 8 115577891.790 7  90060703.729 6  90060718.718 7  86308182.276 8        47.100          37.600          47.300          50.800
G08  20563975.555 8  20563979.711 7  20563980.156 8  20563978.613 9 108064411.155 8  84206061.909 7  84206087.911 8  80697466.080 9        51.800          44.000          50.800          54.100
G10  24469021.313 6  24469026.500 4  24469026.453 7  24469024.055 8 128585547.098 6 100196569.079 4 100196570.068 7  96021710.604 8        39.500          28.400          46.100          48.500
G11  20361249.930 8  20361251.254 6                                 106999206.464 8  83375924.431 6                                        48.800          39.800
G14  22539084.250 7  22539086.043 5                                 118443683.018 7  92293795.975 5                                        42.300          30.400
G18  20054053.008 8  20054054.879 6                                 105384757.724 8  82118003.054 6                                        49.600          41.000
G22  20756110.828 7  20756110.813 6                                 109074100.495 7  84992767.134 6                                        46.600          40.800
G27  22922470.016 7  22922473.184 5  22922473.098 7  22922472.969 8 120458385.525 7  93863696.992 5  93863696.990 7  89952719.021 8        43.900          33.400          44.900          50.500
G28  23266011.195 7  23266012.453 4                                 122263710.999 7  95270437.686 4                                        42.100          26.800
G32  22858696.211 7  22858700.676 5  22858700.633 7  22858699.461 8 120123256.080 7  93602557.255 5  93602562.259 7  89702446.149 8        44.500          35.500          46.600          50.000
R04  21319076.305 7  21319078.637 7 114162685.386 7  88793206.377 7        46.600          45.600
R06  21749157.016 6                 116057651.669 6                        36.000
R19  21697282.914 7  21697285.398 7 116065826.626 7  90273439.204 7        43.900          44.500
R20  19618456.352 7  19618460.922 8 104908772.891 7  81595655.921 8        43.800          49.000
R21  22028268.555 7  22028271.227 7 117877853.750 7  91682683.866 7        45.700          43.200
> 2018 04 26 21 49 00.0000000  0 21
E01  27708248.891 7  27708251.453 8 145607827.476 7 110151348.443 8        42.400          50.200
E03  25355379.633 7  25355382.191 9 133243419.391 7 100797755.998 9        47.600          55.600
E07  26365497.477 7  26365499.992 8 138551621.754 7 104813375.949 8        44.200          51.800
E08  21833680.102 8  21833680.688 9 114736850.887 8  86797590.515 9        50.300          58.400
E26  24692638.180 7  24692641.988 8 129760688.505 7  98163097.695 8        44.500          51.800
G01  20883569.781 8  20883575.203 6  20883574.859 8  20883573.227 8 109743898.584 8  85514759.640 6  85514755.644 8  81951626.075 8        51.500          41.800          49.600          53.000
G03  21970558.586 7  21970562.930 6  21970563.262 7  21970563.063 8 115456063.768 7  89965772.823 6  89965787.813 7  86217206.834 8        46.400          38.100          47.000          51.000
G08  20564223.086 8  20564227.219 7  20564227.535 8  20564226.004 9 108065712.360 8  84207075.827 7  84207101.828 8  80698437.753 9        51.300          43.800          51.100          54.100
G10  24480755.453 6  24480761.520 4  24480760.879 7  24480758.547 8 128647211.705 6 100244619.408 4 100244620.397 7  96067758.841 8        39.400          29.100          46.300          48.400
G11  20345932.711 8  20345933.977 6                                 106918713.407 8  83313202.587 6                                        48.800          39.700
G14  22524957.930 7  22524959.250 5                                 118369446.622 7  92235949.438 5                                        43.200          30.800
G18  20046268.570 8  20046270.211 6                                 105343849.039 8  82086126.160 6                                        49.000          40.900
G22  20741655.516 7  20741654.633 6                                 108998134.021 7  84933572.499 6                                        47.500          41.100
G27  22933529.484 7  22933533.559 5  22933533.301 7  22933533.047 8 120516506.271 7  93908985.890 5  93908985.892 7  89996120.881 8        44.500          33.700          45.600          50.200
G28  23252988.555 7  23252990.133 4                                 122195278.636 7  95217113.780 4                                        42.500          27.800
G32  22854162.750 7  22854167.160 5  22854167.129 7  22854165.594 8 120099429.345 7  93583990.969 5  93583995.964 7  89684653.461 8        45.600          35.500          46.900          50.100
R04  21330322.859 7  21330323.727 7 114222900.936 7  88840040.692 7        46.400          46.600
R06  21719180.164 6                 115897694.954 6                        36.900
R19  21704312.430 7  21704313.559 7 116103424.834 7  90302682.246 7        44.500          45.100
R20  19607467.023 7  19607472.863 8 104850014.844 7  81549955.221 8        43.500          48.000
R21  22002362.945 7  22002365.738 7 117739228.770 7  91574864.459 7        45.100          43.100
> 2018 04 26 21 49 30.0000000  0 21
E01  27705195.789 6  27705198.441 8 145591783.933 6 110139211.607 8        40.800          50.100
E03  25356844.445 7  25356846.863 9 133251116.967 7 100803579.171 9        46.500          55.500
E07  26340828.289 7  26340831.008 8 138421984.534 7 104715306.246 8        43.500          51.200
E08  21819491.750 8  21819492.441 9 114662290.457 8  86741186.051 9        50.000          58.400
E26  24672480.516 7  24672483.906 8 129654758.915 7  98082962.684 8        43.700          51.300
G01  20868709.195 8  20868713.801 6  20868713.871 8  20868712.234 8 109665804.051 8  85453906.773 6  85453902.769 8  81893308.753 8        49.300          41.300          49.200          53.400
G03  21947444.977 7  21947449.996 6  21947450.219 7  21947449.895 8 115334603.129 7  89871128.185 6  89871143.182 7  86126505.723 8        47.500          37.600          47.100          50.700
G08  20564570.430 8  20564574.699 7  20564575.055 8  20564573.543 8 108067538.250 8  84208498.603 7  84208524.604 8  80699801.251 8        52.100          43.800          50.300          53.600
G10  24492505.727 6  24492510.645 4  24492510.063 7  24492508.316 7 128708955.873 6 100292731.739 4 100292732.740 7  96113866.511 7        39.300          28.400          44.900          47.300
G11  20330691.648 7  20330692.992 6                                 106838620.424 7  83250792.481 6                                        46.500          40.100
G14  22510929.180 7  22510931.324 5                                 118295725.743 7  92178504.614 5                                        44.300          31.700
G18  20038552.281 8  20038554.285 6                                 105303300.344 8  82054529.779 6                                        49.700          41.200
G22  20727287.500 8  20727286.898 6                                 108922628.805 8  84874737.273 6                                        49.100          40.800
G27  22944641.273 7  22944644.969 5  22944645.379 7  22944645.277 8 120574898.541 7  93954486.371 5  93954486.378 7  90039725.520 8        43.000          33.100          44.600          50.300
G28  23240068.758 6  23240069.789 4                                 122127383.420 6  95164208.428 4                                        41.200          27.000
G32  22849743.961 7  22849748.449 5  22849748.012 7  22849746.590 8 120076208.335 7  93565896.686 5  93565901.677 7  89667313.108 8        44.600          35.400          46.800          50.000
R04  21341655.234 7  21341657.066 7 114283590.761 7  88887243.879 7        46.300          46.000
R06  21689273.406 6                 115738111.104 6                        36.900
R19  21711411.547 7  21711412.461 7 116141400.498 7  90332218.877 7        43.900          43.600
R20  19596565.852 7  19596569.887 8 104791713.523 7  81504609.755 8        43.800          49.000
R21  21976476.141 7  21976478.199 7 117600699.001 7  91467119.123 7        46.100          42.700
> 2018 04 26 21 50 00.0000000  0 21
E01  27702225.430 6  27702227.824 8 145576173.387 6 110127402.334 8        41.900          50.200
E03  25358381.133 7  25358384.031 9 133259194.282 7 100809689.607 9        46.300          55.500
E07  26316187.922 7  26316190.496 8 138292498.374 7 104617350.819 8        43.700          51.800
E08  21805385.852 8  21805386.387 9 114588163.479 8  86685109.479 9        49.800          58.300
E26  24652329.984 7  24652333.988 8 129548871.045 7  98002859.246 8        42.800          51.200
G01  20853900.313 8  20853905.176 6  20853904.766 8  20853903.551 8 109587982.572 8  85393266.665 6  85393262.668 8  81835195.323 8        49.200          41.800          48.200          53.000
G03  21924402.773 8  21924407.418 6  21924407.359 7  21924407.492 8 115213514.339 8  89776773.313 6  89776788.309 7  86036082.308 8        48.200          38.100          47.000          51.300
G08  20565018.578 8  20565022.414 7  20565022.691 8  20565021.082 8 108069891.908 8  84210332.620 7  84210358.615 8  80701558.841 8        52.100          43.800          50.800          53.900
G10  24504270.602 6  24504275.836 4  24504275.344 7  24504273.566 7 128770781.094 6 100340907.231 4 100340908.229 7  96160034.713 7        38.100          26.300          45.100          47.000
G11  20315527.398 7  20315528.422 6                                 106758932.353 7  83188697.896 6                                        46.200          39.500
G14  22496999.078 7  22497001.199 5                                 118222525.688 7  92121465.635 5                                        43.900          31.700
G18  20030905.203 8  20030907.082 6                                 105263115.305 8  82023216.769 6                                        49.100          40.600
G22  20713007.727 8  20713006.945 6                                 108847588.036 8  84816263.961 6                                        48.300          40.500
G27  22955804.617 7  22955808.301 5  22955808.754 7  22955807.969 8 120633564.011 7  94000199.728 5  94000199.726 7  90083534.126 8        44.000          32.800          45.500          50.000
G28  23227251.141 6  23227253.215 4                                 122060029.097 6  95111724.539 4                                        41.300          27.100
G32  22845440.758 7  22845444.801 5  22845445.051 7  22845443.234 8 120053596.044 7  93548276.727 5  93548281.738 7  89650427.311 8        44.600          35.500          47.700          49.800
R04  21353077.039 7  21353078.840 7 114344754.024 7  88934815.311 7        45.800          45.700
R06  21659440.258 6                 115578906.567 6                        37.700
R19  21718581.117 7  21718582.902 7 116179756.857 7  90362051.609 7        43.900          43.700
R20  19585748.570 7  19585754.039 8 104733873.596 7  81459623.154 8        44.400          48.800
R21  21950606.539 7  21950609.727 7 117462269.891 7  91359452.077 7        45.600          42.700
> 2018 04 26 21 50 30.0000000  0 21
E01  27699335.125 6  27699337.727 8 145560984.865 6 110115912.298 8        40.500          50.300
E03  25359988.648 7  25359991.023 9 133267640.010 7 100816078.743 9        47.000          55.400
E07  26291574.250 7  26291577.332 8 138163154.838 7 104519503.283 8        44.000          51.700
E08  21791360.609 8  21791361.348 9 114514460.597 8  86629353.744 9        50.100          58.300
E26  24632187.219 7  24632190.391 8 129443015.450 7  97922780.221 8        44.000          51.300
G01  20839141.469 8  20839146.508 6  20839146.168 8  20839144.648 8 109510424.488 8  85332831.806 6  85332827.802 8  81777278.581 8        49.000          41.800          49.300          53.700
G03  21901429.141 8  21901433.707 6  21901433.723 7  21901433.902 8 115092788.672 8  89682701.373 6  89682716.368 7  85945930.044 8        48.100          38.300          47.200          51.000
G08  20565564.367 8  20565569.078 7  20565569.477 8  20565567.926 9 108072762.847 8  84212569.708 7  84212595.709 8  80703702.729 9        52.400          44.300          50.500          54.100
G10  24516049.406 5  24516053.078 4  24516052.496 7  24516051.043 7 128832675.595 5 100389136.703 4 100389137.708 7  96206254.629 7        35.500          24.000          44.300          46.800
G11  20300438.797 8  20300439.773 6                                 106679640.188 8  83126911.815 6                                        48.600          39.400
G14  22483166.961 7  22483169.086 5                                 118149837.930 7  92064825.828 5                                        43.800          31.400
G18  20023325.633 8  20023327.605 6                                 105223284.114 8  81992179.479 6                                        48.600          41.000
G22  20698813.977 7  20698813.695 6                                 108773002.000 7  84758144.983 6                                        46.700          40.500
G27  22967018.258 7  22967021.637 5  22967021.820 7  22967021.480 8 120692490.941 7  94046116.814 5  94046116.817 7  90127538.016 8        44.400          33.100          45.400          50.500
G28  23214536.414 7  23214536.883 4                                 121993206.276 7  95059654.833 4                                        43.400          27.300
G32  22841251.719 7  22841255.930 6  22841256.406 7  22841254.484 8 120031582.254 7  93531123.133 6  93531128.121 7  89633988.443 8        45.800          36.000          46.900          50.000
R04  21364584.477 7  21364586.160 7 114406376.774 7  88982744.108 7        45.900          46.400
R06  21629674.922 6                 115420074.347 6                        37.800
R19  21725820.938 7  21725821.934 7 116218482.861 7  90392171.814 7        44.100          43.900
R20  19575017.969 7  19575022.508 8 104676487.425 7  81414989.466 8        44.500          48.600
R21  21924755.063 7  21924757.734 7 117323933.495 7  91251857.151 7        46.000          42.100
> 2018 04 26 21 51 00.0000000  0 21
E01  27696524.859 6  27696527.648 8 145546218.359 6 110104741.555 8        41.600          50.300
E03  25361666.078 7  25361668.199 9 133276453.933 7 100822746.429 9        47.200          55.200
E07  26266988.656 7  26266991.715 8 138033956.723 7 104421765.751 8        43.400          51.900
E08  21777416.609 8  21777417.090 9 114441183.633 8  86573920.201 9        49.800          58.300
E26  24612049.820 7  24612053.492 8 129337193.808 7  97842726.863 8        44.100          51.500
G01  20824432.992 8  20824437.773 6  20824437.844 8  20824436.387 8 109433131.280 8  85272603.350 6  85272599.354 8  81719559.646 8        49.200          41.600          49.700          53.000
G03  21878525.320 8  21878530.242 6  21878530.063 7  21878530.258 8 114972428.550 8  89588914.281 6  89588929.271 7  85856050.747 8        48.000          38.500          46.700          50.800
G08  20566209.375 8  20566214.016 7  20566214.418 8  20566212.684 8 108076151.480 8  84215210.206 7  84215236.200 8  80706233.196 8        52.700          43.900          51.100          53.500
G10  24527840.328 5  24527844.387 3  24527844.109 7  24527842.527 7 128894638.666 5 100437419.610 3 100437420.617 7  96252525.755 7        34.000          22.800          43.900          45.600
G11  20285426.031 8  20285426.957 6                                 106600747.006 8  83065436.620 6                                        49.200          40.000
G14  22469433.188 7  22469435.453 5                                 118077665.497 7  92008587.574 5                                        42.700          31.100
G18  20015813.961 8  20015815.273 6                                 105183807.998 8  81961418.870 6                                        49.600          41.100
G22  20684707.781 7  20684706.934 6                                 108698871.820 7  84700381.229 6                                        47.200          41.500
G27  22978281.383 7  22978284.930 5  22978285.047 7  22978284.242 8 120751678.853 7  94092237.271 5  94092237.269 7  90171736.771 8        44.500          33.900          45.000          50.800
G28  23201921.023 6  23201922.887 4                                 121926917.106 6  95008000.938 4                                        41.300          28.300
G32  22837176.797 7  22837180.777 5  22837180.758 7  22837179.098 8 120010167.730 7  93514436.514 5  93514441.510 7  89617997.101 8        45.200          35.700          47.500          50.000
R04  21376178.250 7  21376179.473 7 114468455.967 7  89031027.918 7        46.200          46.200
R06  21599979.445 6                 115261619.218 6                        37.900
R19  21733129.742 7  21733131.895 7 116257579.477 7  90422580.296 7        43.700          44.000
R20  19564371.406 7  19564376.172 8 104619558.036 7  81370711.054 8        44.100          48.700
R21  21898921.109 7  21898923.828 7 117185692.904 7  91144336.730 7        45.300          42.600
> 2018 04 26 21 51 30.0000000  0 21
E01  27693796.383 6  27693799.688 8 145531882.043 6 110093896.209 8        41.300          50.400
E03  25363414.977 7  25363416.898 9 133285643.755 7 100829698.490 9        46.800          55.100
E07  26242432.789 7  26242435.855 8 137904914.731 7 104324146.341 8        43.900          52.000
E08  21763555.344 8  21763555.762 9 114368342.270 8  86518816.197 9        49.500          58.200
E26  24591921.078 7  24591924.492 8 129231415.706 7  97762706.459 8        43.300          51.200
G01  20809776.891 8  20809781.730 7  20809781.102 8  20809779.754 8 109356112.381 8  85212588.637 7  85212584.625 8  81662045.548 8        49.200          42.100          48.700          52.900
G03  21855693.086 8  21855697.734 6  21855697.844 7  21855698.219 8 114852444.192 8  89495419.998 6  89495434.988 7  85766452.069 8        48.600          38.500          46.800          50.800
G08  20566954.375 8  20566958.828 7  20566959.211 8  20566957.383 8 108080066.579 8  84218260.927 7  84218286.928 8  80709156.810 8        51.900          44.200          50.400          53.300
G10  24539645.414 5  24539650.559 4  24539650.441 7  24539647.762 7 128956677.672 5 100485761.682 4 100485762.686 7  96298853.594 7        35.400          24.700          43.800          44.400
G11  20270490.734 7  20270492.063 6                                 106522263.046 7  83004280.287 6                                        46.600          39.700
G14  22455799.430 7  22455801.863 5                                 118006018.762 7  91952758.974 5                                        44.000          32.300
G18  20008370.945 8  20008372.395 6                                 105144696.232 8  81930942.181 6                                        49.900          40.400
G22  20670689.516 7  20670689.309 6                                 108625206.477 7  84642979.668 6                                        47.500          41.100
G27  22989595.688 7  22989599.840 5  22989599.953 7  22989599.742 8 120811135.139 7  94138566.852 5  94138566.847 7  90216135.956 8        44.900          33.700          45.200          50.900
G28  23189410.758 7  23189411.930 4                                 121861171.346 7  94956770.501 4                                        42.800          27.300
G32  22833217.109 7  22833221.559 5  22833221.469 7  22833220.402 8 119989361.307 7  93498223.720 5  93498228.715 7  89602459.841 8        43.600          34.800          46.900          50.200
R04  21387855.469 7  21387858.332 7 114530996.939 7  89079670.906 7        45.500          45.600
R06  21570358.734 6                 115103553.969 6                        37.300
R19  21740509.242 7  21740510.691 7 116297055.598 7  90453283.926 7        43.900          43.500
R20  19553812.188 7  19553817.699 8 104563096.606 7  81326796.619 8        44.100          48.600
R21  21873107.234 7  21873110.641 6 117047559.572 7  91036899.734 6        44.900          41.900
> 2018 04 26 21 52 00.0000000  0 20
E01  27691149.086 6  27691151.969 8 145517967.498 6 110083369.974 8        41.900          50.500
E03  25365233.328 7  25365235.637 9 133295200.945 7 100836928.447 9        46.600          55.100
E07  26217905.859 7  26217908.402 8 137776023.219 7 104226640.760 8        43.600          52.400
E08  21749775.688 8  21749776.129 9 114295929.956 8  86464036.764 9        50.200          58.200
E26  24571799.352 7  24571802.457 8 129125674.531 7  97682713.983 8        44.100          51.400
G01  20795171.680 8  20795176.309 7  20795175.934 8  20795174.566 8 109279360.987 8  85152782.362 7  85152778.365 8  81604731.210 8        52.100          42.200          49.600          53.200
G03  21832931.453 8  21832935.859 6  21832936.105 7  21832936.051 8 114732829.678 8  89402213.892 6  89402228.888 7  85677129.550 8        48.500          38.100          47.100          51.000
G08  20567798.109 8  20567802.547 7  20567802.715 8  20567801.039 8 108084500.291 8  84221715.766 7  84221741.760 8  80712467.696 8        52.200          43.900          51.100          53.500
G11  20255632.164 8  20255633.914 6                                 106444182.968 8  82943438.682 6                                        48.200          39.400
G14  22442264.461 7  22442266.441 5                                 117934892.474 7  91897335.905 5                                        44.700          32.100
G18  20000996.289 8  20000998.027 6                                 105105941.719 8  81900743.864 6                                        49.800          41.400
G22  20656758.633 8  20656757.754 6                                 108551998.464 8  84585934.478 6                                        49.000          40.500
G27  23000959.313 7  23000962.984 5  23000962.695 7  23000962.648 8 120870850.899 7  94185098.632 5  94185098.639 7  90260728.901 8        45.000          33.900          45.100          50.800
G28  23177001.703 7  23177003.199 4                                 121795962.201 7  94905958.179 4                                        43.300          28.600
G32  22829372.078 7  22829376.156 5  22829376.438 7  22829375.176 8 119969155.386 7  93482478.856 5  93482483.855 7  89587371.015 8        45.300          34.600          45.900          50.300
R04  21399619.844 7  21399621.750 7 114593988.220 7  89128664.109 7        46.500          45.800
R06  21540810.422 6                 114945873.936 6                        37.900
R19  21747957.602 7  21747960.320 7 116336903.367 7  90484276.653 7        42.900          43.700
R20  19543341.445 7  19543345.477 8 104507097.829 7  81283242.021 8        43.900          48.800
R21  21847313.508 7  21847316.742 7 116909528.317 7  90929542.121 7        44.700          42.700
> 2018 04 26 21 52 30.0000000  0 20
E01  27688577.836 6  27688580.484 8 145504455.358 6 110073148.122 8        41.300          50.900
E03  25367118.320 7  25367120.539 9 133305105.690 7 100844421.322 9        46.700          55.300
E07  26193404.133 7  26193406.699 8 137647265.407 7 104129236.322 8        44.000          52.500
E08  21736074.375 8  21736074.770 9 114223928.864 8  86409568.415 9        49.900          58.200
E26  24551681.141 7  24551684.254 8 129019952.393 7  97602735.906 8        43.400          51.400
G01  20780613.563 8  20780618.590 7  20780618.441 8  20780617.082 8 109202859.040 8  85093170.473 7  85093166.469 8  81547603.144 8        49.700          42.600          50.000          53.300
G03  21810236.336 8  21810240.570 6  21810240.852 7  21810241.172 8 114613567.788 8  89309282.565 6  89309297.555 7  85588070.373 8        48.700          38.800          47.300          50.900
G08  20568736.641 8  20568741.574 7  20568741.758 8  20568740.008 8 108089433.817 8  84225560.069 7  84225586.078 8  80716151.827 8        51.300          43.700          51.600          53.300
G11  20240847.500 7  20240848.918 6                                 106366489.635 7  82882898.438 6                                        47.700          39.600
G14  22428825.250 7  22428827.805 5                                 117864269.769 7  91842305.231 5                                        43.000          32.100
G18  19993685.922 8  19993687.586 6                                 105067526.243 8  81870809.731 6                                        48.600          40.800
G22  20642911.313 7  20642910.828 6                                 108479230.156 7  84529231.910 6                                        47.200          41.300
G27  23012368.008 7  23012372.527 5  23012372.660 7  23012371.605 8 120930806.019 7  94231816.901 5  94231816.908 7  90305500.584 8        44.200          34.400          46.400          50.300
G28  23164691.172 7  23164692.832 4                                 121731271.867 7  94855550.141 4                                        42.500          27.200
G32  22825637.734 7  22825642.195 5  22825641.953 7  22825641.039 8 119949531.214 7  93467187.290 5  93467192.286 7  89572716.609 8        43.400          35.500          47.600          49.900
R04  21411463.266 7  21411464.352 7 114657407.125 7  89177989.915 7        46.400          45.900
R06  21511328.375 6                 114788564.155 6                        37.900
R19  21755473.664 7  21755474.961 7 116377103.724 7  90515543.586 7        43.800          43.800
R20  19532953.266 7  19532956.484 8 104451545.136 7  81240034.359 8        43.800          49.500
R21  21821535.539 7  21821537.711 7 116771582.662 7  90822251.083 7        45.900          42.300
> 2018 04 26 21 53 00.0000000  0 20
E01  27686082.602 6  27686085.844 8 145491344.507 6 110063229.861 8        40.800          51.200
E03  25369069.016 7  25369071.359 9 133315356.629 7 100852176.093 9        46.900          55.400
E07  26168927.773 7  26168930.719 8 137518642.918 7 104031934.268 8        42.700          53.000
E08  21722451.234 8  21722451.801 9 114152339.589 8  86355411.601 9        49.800          58.100
E26  24531566.250 7  24531569.691 8 128914249.890 7  97522772.679 8        44.100          51.700
G01  20766103.313 8  20766108.473 7  20766107.789 8  20766106.500 8 109126606.873 8  85033753.224 7  85033749.220 8  81490661.617 8        51.400          42.400          49.200          53.300
G03  21787608.711 8  21787613.504 6  21787614.035 7  21787613.695 8 114494659.725 8  89216626.948 6  89216641.943 7  85499275.424 8        48.000          38.100          47.400          51.200
G08  20569770.570 8  20569775.016 7  20569775.309 8  20569773.332 8 108094866.845 8  84229793.591 7  84229819.593 8  80720208.956 8        52.100          43.900          51.100          53.100
G11  20226137.336 8  20226138.477 6                                 106289184.499 8  82822660.680 6                                        48.700          39.700
G14  22415482.336 7  22415484.359 5                                 117794152.057 7  91787668.069 5                                        43.600          31.200
G18  19986440.430 8  19986442.414 6                                 105029449.936 8  81841139.886 6                                        48.500          41.300
G22  20629147.359 8  20629146.852 6                                 108406901.053 8  84472871.577 6                                        49.400          41.300
G27  23023823.023 7  23023826.680 5  23023827.000 7  23023826.285 8 120990998.845 7  94278720.409 5  94278720.403 7  90350449.762 8        45.200          34.100          46.100          50.000
G28  23152479.758 7  23152481.625 4                                 121667101.143 7  94805546.984 4                                        42.500          26.500
G32  22822014.250 7  22822018.730 5  22822018.469 7  22822017.516 8 119930488.408 7  93452348.747 5  93452353.750 7  89558496.343 8        43.600          34.600          46.600          50.000
R04  21423385.172 7  21423386.762 7 114721249.827 7  89227645.354 7        45.400          45.700
R06  21481919.875 6                 114631628.336 6                        37.100
R19  21763054.758 7  21763055.559 7 116417655.889 7  90547084.165 7        43.100          43.500
R20  19522647.836 7  19522651.867 8 104396440.111 7  81197174.911 8        43.900          49.000
R21  21795773.141 7  21795775.586 7 116633724.565 7  90715028.152 7        46.000          43.200
> 2018 04 26 21 53 30.0000000  0 20
E01  27683664.117 6  27683667.152 8 145478634.799 6 110053615.045 8        41.400          51.900
E03  25371085.391 7  25371087.688 9 133325953.289 7 100860192.403 9        46.600          55.500
E07  26144478.203 7  26144481.059 8 137390158.259 7 103934736.464 8        43.800          53.100
E08  21708906.961 8  21708907.504 9 114081163.672 8  86301567.487 9        49.900          58.200
E26  24511455.297 7  24511459.055 8 128808568.483 7  97442825.414 8        43.200          51.700
G01  20751640.656 8  20751645.613 7  20751645.453 8  20751643.695 8 109050605.800 8  84974531.619 7  84974527.615 8  81433907.586 8        50.800          42.200          49.600          52.800
G03  21765048.930 8  21765054.023 6  21765054.152 7  21765054.273 8 114376107.574 8  89124248.654 6  89124263.651 7  85410746.222 8        48.600          38.000          47.600          51.300
G08  20570899.836 8  20570904.297 7  20570904.582 8  20570902.613 8 108100799.248 8  84234416.241 7  84234442.243 8  80724639.001 8        51.500          44.000          50.900          52.900
G11  20211501.117 8  20211502.191 6                                 106212270.044 8  82762727.347 6                                        48.800          39.500
G14  22402236.828 7  22402238.246 5                                 117724542.151 7  91733426.603 5                                        43.400          32.300
G18  19979259.719 8  19979261.309 6                                 104991713.722 8  81811735.043 6                                        50.300          40.900
G22  20615466.961 7  20615466.602 6                                 108335012.020 7  84416854.159 6                                        47.900          41.100
G27  23035322.375 7  23035325.844 5  23035325.590 7  23035324.984 8 121051428.591 7  94325808.506 5  94325808.500 7  90395575.862 8        45.200          34.300          46.100          50.400
G28  23140368.148 7  23140369.141 4                                 121603451.789 7  94755950.104 4                                        43.000          27.700
G32  22818500.500 7  22818505.281 5  22818505.613 7  22818504.008 8 119912027.499 7  93437963.634 5  93437968.629 7  89544710.604 8        43.500          35.500          46.500          49.900
R04  21435385.195 7  21435387.617 7 114785513.158 7  89277627.928 7        46.400          45.900
R06  21452580.023 6                 114475070.038 6                        37.100
R19  21770700.766 7  21770702.844 7 116458560.719 7  90578899.035 7        43.600          44.200
R20  19512427.047 7  19512431.594 8 104341785.832 7  81154666.033 8        44.700          48.700
R21  21770026.398 7  21770030.918 7 116495957.336 7  90607875.914 7        44.900          43.000
> 2018 04 26 21 54 00.0000000  0 20
E01  27681322.828 6  27681325.645 8 145466331.051 6 110044307.337 8        40.600          51.800
E03  25373168.250 7  25373170.879 9 133336900.204 7 100868473.679 9        46.500          55.300
E07  26120056.039 7  26120058.906 8 137261818.994 7 103837648.663 8        43.700          53.200
E08  21695442.414 8  21695443.059 9 114010407.573 8  86248040.970 9        50.300          58.100
E26  24491350.766 7  24491353.602 8 128702914.688 7  97362899.044 8        43.700          51.800
G01  20737227.344 8  20737232.039 7  20737231.754 8  20737230.414 8 108974862.150 8  84915510.606 7  84915506.603 8  81377345.779 8        50.500          42.400          49.900          52.900
G03  21742558.688 8  21742562.988 6  21742563.266 7  21742563.125 8 114257918.470 8  89032153.274 6  89032168.271 7  85322488.160 8        49.700          38.400          47.200          50.600
G08  20572124.773 8  20572128.969 7  20572129.266 8  20572127.344 8 108107236.354 8  84239432.164 7  84239458.166 8  80729445.928 8        52.600          44.100          51.200          53.000
G11  20196940.172 7  20196941.797 6                                 106135753.429 7  82703104.010 6                                        47.600          39.300
G14  22389087.500 7  22389089.688 5                                 117655447.337 7  91679586.503 5                                        44.100          32.100
G18  19972144.250 8  19972146.102 6                                 104954324.068 8  81782600.254 6                                        50.300          40.800
G22  20601872.305 8  20601871.699 6                                 108263568.628 8  84361183.997 6                                        48.500          40.800
G27  23046867.586 7  23046871.418 5  23046871.398 7  23046870.734 8 121112099.449 7  94373084.525 5  94373084.513 7  90440882.056 8        43.600          33.800          45.400          50.000
G28  23128356.266 7  23128357.797 4                                 121540330.081 7  94706764.372 4                                        43.400          27.700
G32  22815100.141 7  22815104.867 5  22815104.520 7  22815102.891 8 119894153.928 7  93424036.177 5  93424041.181 7  89531363.461 8        45.300          34.900          47.300          50.000
R04  21447464.617 7  21447466.988 7 114850198.938 7  89327939.094 7        46.000          45.900
R06  21423314.555 6                 114318898.848 6                        38.000
R19  21778415.031 7  21778416.246 7 116499823.518 7  90610992.317 7        43.200          43.200
R20  19502292.063 7  19502296.699 8 104287590.190 7  81112513.877 8        44.000          48.600
R21  21744301.383 7  21744303.844 7 116358289.124 7  90500800.660 7        46.000          43.300
> 2018 04 26 21 54 30.0000000  0 20
E01  27679057.672 6  27679060.137 8 145454425.571 6 110035300.908 8        39.900          51.800
E03  25375316.719 7  25375318.883 9 133348189.463 7 100877013.931 9        46.100          54.900
E07  26095660.031 7  26095663.465 8 137133620.178 7 103740667.098 8        43.300          53.500
E08  21682056.719 8  21682057.391 9 113940065.341 8  86194827.533 9        49.900          58.100
E26  24471249.227 7  24471252.578 8 128597282.560 7  97282989.051 8        43.900          51.800
G01  20722861.563 8  20722866.336 7  20722865.922 8  20722864.305 8 108899369.699 8  84856685.336 7  84856681.340 8  81320971.571 8        50.600          42.400          49.300          53.000
G03  21720135.992 8  21720140.492 6  21720140.867 7  21720140.512 8 114140087.021 8  88940336.580 6  88940351.569 7  85234497.154 8        49.200          38.700          47.500          51.200
G08  20573444.250 8  20573448.949 7  20573449.348 8  20573447.441 8 108114171.313 8  84244836.030 7  84244862.031 8  80734624.637 8        51.300          43.900          51.300          52.800
G11  20182454.484 7  20182455.379 6                                 106059629.711 7  82643786.832 6                                        47.000          39.400
G14  22376036.641 7  22376038.777 5                                 117586862.811 7  91626144.016 5                                        42.600          32.000
G18  19965093.789 8  19965095.578 6                                 104917274.330 8  81753730.341 6                                        49.400          41.100
G22  20588360.695 8  20588359.750 6                                 108192564.717 8  84305856.279 6                                        48.200          40.900
G27  23058457.406 7  23058461.367 5  23058460.816 7  23058460.680 8 121173003.181 7  94420541.972 5  94420541.964 7  90486362.100 8        44.900          33.800          45.800          50.500
G28  23116443.227 7  23116445.664 4                                 121477730.003 7  94657985.104 4                                        43.100          27.500
G32  22811808.930 7  22811813.770 5  22811813.762 7  22811811.969 8 119876860.701 7  93410560.956 5  93410565.952 7  89518449.706 8        44.300          35.000          46.300          49.800
R04  21459622.219 7  21459623.719 7 114915296.443 7  89378570.471 7        46.000          46.100
R06  21394118.359 6                 114163111.634 6                        37.500
R19  21786194.789 7  21786194.719 7 116541437.040 7  90643358.404 7        44.400          42.800
R20  19492241.867 7  19492246.746 8 104233848.688 7  81070714.927 8        44.200          48.300
R21  21718592.117 7  21718595.652 7 116220715.462 7  90393798.968 7        45.700          43.200
> 2018 04 26 21 55 00.0000000  0 20
E01  27976657.234 6  27976660.426 8 147018324.551 6 111218380.320 8        39.400          52.100
E03  25677319.789 7  25677321.770 9 134935226.134 7 102077596.876 9        45.700          54.800
E07  26371082.555 7  26371085.902 8 138580974.568 7 104835581.310 8        44.200          53.600
E08  21968540.352 8  21968540.926 9 115445546.722 8  87333714.436 9        49.900          58.100
E26  24750942.828 7  24750946.500 8 130067083.094 7  98394883.638 8        43.000          52.000
G01  21008333.805 8  21008338.820 7  21008338.145 8  21008336.785 8 110399538.274 8  86025647.872 7  86025643.868 8  82441227.332 8        51.200          42.400          49.400          53.100
G03  21997572.289 8  21997576.895 6  21997577.027 7  21997577.086 8 115598025.231 8  90076392.331 6  90076407.333 7  86323217.268 8        49.000          38.300          47.700          51.000
G08  20874648.258 8  20874653.355 7  20874653.664 8  20874651.613 8 109697010.023 8  85478216.838 7  85478242.840 8  81916614.583 8        52.300          43.800          51.500          53.200
G11  20467834.195 8  20467835.246 6                                 107559309.707 8  83812368.657 6                                        48.600          39.400
G14  22662873.602 7  22662875.445 5                                 119094199.107 7  92800691.807 5                                        43.900          32.200
G18  20257898.438 8  20257900.453 6                                 106455972.795 8  82952716.157 6                                        48.600          41.000
G22  20874722.820 8  20874722.535 6                                 109697409.280 8  85478462.447 6                                        48.500          41.200
G27  23369880.148 7  23369883.969 5  23369883.918 7  23369882.871 8 122809542.948 7  95695767.760 5  95695767.759 7  91708453.495 8        44.100          34.100          46.700          49.200
G28  23404420.867 7  23404422.648 4                                 122991061.049 7  95837204.103 4                                        43.100          27.100
G32  23108418.266 7  23108423.039 5  23108422.707 7  23108421.238 8 121435554.853 7  94625127.830 5  94625132.818 7  90682409.626 8        44.100          34.400          46.300          49.500
R04  21771643.859 7  21771645.867 7 116586161.401 7  90678132.108 7        46.400          45.300
R06  21664788.859 6                 115607453.325 6                        37.800
R19  22093828.469 7  22093829.023 7 118187073.759 7  91923298.062 7        43.100          42.800
R20  19782067.602 7  19782071.668 8 105783676.315 7  82276136.417 8        44.600          48.900
R21  21992692.109 7  21992694.559 7 117687479.922 7  91534615.804 7        45.900          42.800
> 2018 04 26 21 55 30.0000000  0 20
E01  27974538.953 6  27974541.910 8 147007192.698 6 111209959.133 8        39.700          51.500
E03  25679593.930 7  25679596.027 9 134947176.303 7 102086637.107 9        46.200          54.900
E07  26346738.289 7  26346741.098 8 138453041.890 7 104738801.084 8        44.200          53.900
E08  21955308.883 8  21955309.238 9 115376014.317 8  87281113.628 9        50.300          58.000
E26  24730846.359 7  24730850.188 8 129961476.480 7  98314992.956 8        43.400          52.100
G01  20994060.148 8  20994065.059 7  20994064.902 8  20994063.668 8 110324529.917 8  85967199.813 7  85967195.815 8  82385214.613 8        51.500          42.200          49.300          52.900
G03  21975283.523 8  21975287.758 6  21975287.797 7  21975287.656 8 115480893.073 8  89985120.540 6  89985135.544 7  86235748.455 8        48.900          38.300          47.500          51.600
G08  20876153.336 8  20876158.305 7  20876158.500 8  20876156.566 8 109704918.982 8  85484379.660 7  85484405.654 8  81922520.613 8        52.300          43.500          51.500          53.000
G11  20453495.078 8  20453495.949 6                                 107483956.466 8  83753651.854 6                                        49.300          39.400
G14  22650013.430 7  22650014.969 5                                 119026620.285 7  92748032.983 5                                        43.200          31.800
G18  20250974.133 8  20250975.844 6                                 106419583.935 8  82924361.212 6                                        48.400          40.900
G22  20861375.000 8  20861374.207 6                                 109627264.468 8  85423804.162 6                                        48.200          41.000
G27  23381553.680 7  23381557.398 5  23381557.645 7  23381556.887 8 122870887.775 7  95743568.939 5  95743568.935 7  91754262.956 8        44.000          33.900          46.500          49.600
G28  23392703.797 7  23392705.527 4                                 122929486.307 7  95789223.807 4                                        42.700          27.400
G32  23105344.719 7  23105349.469 5  23105349.324 7  23105347.609 8 121419401.399 7  94612540.717 5  94612545.717 7  90670346.984 8        44.300          35.200          46.800          49.900
R04  21783949.156 7  21783949.828 7 116652050.915 7  90729379.491 7        46.300          45.900
R06  21635735.617 6                 115452423.648 6                        38.200
R19  22101735.180 7  22101735.770 7 118229367.470 7  91956193.183 7        43.700          42.000
R20  19772185.305 7  19772189.363 8 105730828.892 7  82235032.865 8        44.300          48.600
R21  21967015.805 7  21967018.398 7 117550082.369 7  91427751.078 7        45.200          43.500
> 2018 04 26 21 56 00.0000000  0 20
E01  27972492.570 6  27972495.551 8 146996439.229 6 111201824.247 8        40.000          51.300
E03  25681929.328 7  25681931.305 9 134959448.173 7 102095920.704 9        46.300          55.200
E07  26322417.711 7  26322420.875 8 138325238.050 7 104642118.323 8        44.200          53.900
E08  21942153.398 8  21942153.543 9 115306880.907 8  87228814.665 9        50.400          58.000
E26  24710751.766 7  24710755.020 8 129855876.877 7  98235107.572 8        43.600          52.100
G01  20979832.117 8  20979836.977 7  20979836.586 8  20979834.941 8 110249757.476 8  85908935.595 7  85908931.591 8  82329378.064 8        52.200          42.900          49.800          53.000
G03  21953058.789 8  21953063.293 6  21953063.574 7  21953063.664 8 115364105.575 8  89894117.314 6  89894132.312 7  86148537.042 8        49.300          38.400          47.300          51.500
G08  20877749.516 8  20877754.148 7  20877754.242 8  20877752.523 8 109713307.549 8  85490916.202 7  85490942.197 8  81928784.808 8        52.100          43.600          50.800          52.900
G11  20439228.281 8  20439228.977 6                                 107408984.136 8  83695231.859 6                                        49.400          39.500
G14  22637248.313 7  22637250.566 5                                 118959539.513 7  92695762.263 5                                        43.900          32.200
G18  20244111.000 8  20244112.875 6                                 106383518.915 8  82896258.610 6                                        50.000          41.100
G22  20848107.430 8  20848106.398 6                                 109557542.245 8  85369475.170 6                                        49.400          41.100
G27  23393266.883 7  23393271.613 5  23393271.492 7  23393270.516 8 122932443.885 7  95791534.736 5  95791534.731 7  91800230.187 8        43.200          33.400          46.300          49.200
G28  23381083.336 7  23381084.414 4                                 122868418.450 7  95741638.467 4                                        43.600          27.800
G32  23102377.422 7  23102381.957 5  23102382.281 7  23102380.449 8 121403810.326 7  94600391.829 5  94600396.828 7  90658704.298 8        45.100          35.100          47.000          49.900
R04  21796324.430 7  21796326.168 7 116718323.888 7  90780925.134 7        45.900          45.900
R06  21606754.430 6                 115297771.036 6                        37.900
R19  22109702.641 7  22109704.375 7 118271993.903 7  91989347.064 7        43.200          42.700
R20  19762384.500 7  19762389.219 8 105678424.446 7  82194273.860 8        44.000          49.000
R21  21941355.898 7  21941358.633 7 117412769.377 7  91320952.118 7        46.000          42.900
> 2018 04 26 21 56 30.0000000  0 20
E01  27970517.859 6  27970520.613 8 146986060.930 6 111193973.104 8        38.300          51.700
E03  25684324.984 7  25684327.375 9 134972038.170 7 102105444.959 9        46.000          55.500
E07  26298121.977 7  26298125.004 9 138197562.467 7 104545532.586 9        44.400          54.000
E08  21929073.336 8  21929073.609 9 115238144.937 8  87176816.364 9        50.200          58.000
E26  24690657.891 7  24690661.254 8 129750282.741 7  98155226.320 8        43.300          52.200
G01  20965647.688 8  20965652.137 7  20965651.895 8  20965650.336 8 110175219.303 8  85850853.918 7  85850849.914 8  82273716.462 8        52.100          42.000          50.100          53.200
G03  21930900.711 8  21930905.125 6  21930904.785 7  21930905.023 8 115247661.789 8  89803381.910 6  89803396.907 7  86061582.280 8        48.800          38.700          47.300          50.700
G08  20879436.813 8  20879441.371 7  20879441.688 8  20879439.746 8 109722172.365 8  85497823.845 7  85497849.846 8  81935404.642 8        51.900          43.700          50.900          52.900
G11  20425033.633 8  20425034.926 6                                 107334391.829 8  83637107.995 6                                        49.100          39.500
G14  22624577.688 7  22624579.727 5                                 118892956.646 7  92643879.521 5                                        42.800          32.100
G18  20237309.320 8  20237311.535 6                                 106347775.990 8  82868406.988 6                                        49.900          40.600
G22  20834919.703 8  20834918.773 6                                 109488240.558 8  85315473.855 6                                        48.600          41.400
G27  23405020.398 7  23405024.406 5  23405024.488 7  23405023.777 8 122994207.415 7  95839662.161 5  95839662.156 7  91846352.306 8        42.800          32.700          45.200          48.800
G28  23369558.477 7  23369559.473 4                                 122807855.882 7  95694446.875 4                                        43.600          28.500
G32  23099516.758 7  23099521.867 5  23099521.930 7  23099520.477 8 121388779.001 7  94588679.119 5  94588684.115 7  90647479.623 8        45.300          35.600          46.900          49.700
R04  21808771.008 7  21808772.723 7 116784974.044 7  90832764.143 7        45.500          45.100
R06  21577843.555 6                 115143496.326 6                        38.100
R19  22117733.672 7  22117734.738 7 118314950.428 7  92022757.715 7        43.700          42.600
R20  19752667.383 7  19752672.266 8 105626462.807 7  82153859.247 8        44.100          48.600
R21  21915711.086 7  21915713.648 7 117275541.141 7  91214219.090 7        46.300          43.200
> 2018 04 26 21 57 00.0000000  0 20
E01  27968614.250 6  27968617.250 8 146976058.003 6 111186405.961 8        38.600          51.200
E03  25686781.016 7  25686783.660 9 134984946.305 7 102115209.878 9        46.800          55.600
E07  26273850.875 7  26273854.008 9 138070018.190 7 104449046.177 9        44.300          54.100
E08  21916069.156 8  21916069.633 9 115169808.271 8  87125120.132 9        50.300          57.900
E26  24670564.547 7  24670568.688 8 129644696.123 7  98075350.771 8        43.400          52.300
G01  20951507.992 8  20951513.051 7  20951512.844 8  20951511.078 8 110100917.149 8  85792956.150 7  85792952.146 8  82218231.104 8        51.300          42.200          50.300          53.000
G03  21908807.656 8  21908812.145 6  21908812.477 7  21908812.340 8 115131564.184 8  89712916.258 6  89712931.248 7  85974886.034 8        48.400          38.500          47.700          50.600
G08  20881214.727 8  20881219.152 7  20881219.453 8  20881217.473 8 109731514.539 8  85505103.455 7  85505129.457 8  81942380.933 8        52.400          43.500          50.700          53.100
G11  20410911.969 8  20410912.965 6                                 107260182.552 8  83579282.581 6                                        49.000          40.000
G14  22612003.148 7  22612005.367 5                                 118826874.222 7  92592386.753 5                                        43.000          32.600
G18  20230569.078 8  20230571.203 6                                 106312356.623 8  82840807.495 6                                        49.200          41.000
G22  20821812.180 8  20821811.449 6                                 109419360.460 8  85261801.067 6                                        48.800          41.200
G27  23416812.641 7  23416817.297 5  23416817.703 7  23416816.258 8 123056178.060 7  95887950.971 5  95887950.973 7  91892629.089 8        43.500          32.800          46.600          48.900
G28  23358129.703 7  23358131.754 4                                 122747800.422 7  95647650.403 4                                        42.000          27.500
G32  23096763.609 7  23096768.121 5  23096768.160 7  23096766.148 8 121374308.290 7  94577403.241 5  94577408.244 7  90636673.573 8        45.300          34.900          47.400          50.100
R04  21821288.063 7  21821288.680 7 116851998.460 7  90884894.232 7        45.300          45.500
R06  21549004.961 6                 114989604.062 6                        39.000
R19  22125825.867 7  22125827.191 7 118358237.787 7  92056425.647 7        43.900          43.200
R20  19743035.133 7  19743038.781 8 105574947.603 7  82113791.873 8        44.300          48.500
R21  21890084.242 7  21890086.371 7 117138401.224 7  91107554.746 7        47.000          43.200
> 2018 04 26 21 57 30.0000000  0 20
E01  27966783.180 6  27966786.223 8 146966436.872 6 111179127.617 8        39.000          51.000
E03  25689299.047 7  25689301.703 9 134998178.729 7 102125220.117 9        45.700          55.500
E07  26249607.148 7  26249610.043 9 137942614.359 7 104352666.028 9        44.200          54.000
E08  21903142.695 8  21903142.820 9 115101879.038 8  87073732.120 9        50.100          58.000
E26  24650475.344 7  24650479.238 8 129539125.138 7  97995487.056 8        43.100          52.400
G01  20937415.602 8  20937420.594 7  20937420.055 8  20937418.734 8 110026859.010 8  85735248.521 7  85735244.518 8  82162927.956 8        51.000          42.400          49.600          53.400
G03  21886782.672 8  21886787.133 6  21886787.277 7  21886787.090 8 115015821.501 8  89622727.167 6  89622742.162 7  85888454.823 8        49.000          39.100          47.900          50.800
G08  20883084.281 8  20883089.113 7  20883089.453 8  20883087.547 8 109741340.948 8  85512760.394 7  85512786.396 8  81949718.837 8        52.300          43.800          51.000          53.400
G11  20396864.844 8  20396866.121 6                                 107186365.303 8  83521762.648 6                                        49.200          40.000
G14  22599524.648 7  22599526.941 5                                 118761301.184 7  92541290.896 5                                        43.500          32.600
G18  20223891.719 8  20223894.273 6                                 106277268.786 8  82813466.329 6                                        49.400          40.500
G22  20808786.422 8  20808785.719 6                                 109350909.479 8  85208462.653 6                                        49.300          41.400
G27  23428646.102 7  23428650.180 5  23428650.398 7  23428649.258 8 123118361.616 7  95936405.692 5  95936405.694 7  91939064.871 8        43.100          32.700          45.800          48.800
G28  23346799.789 7  23346801.527 4                                 122688259.777 7  95601255.124 4                                        43.400          28.000
G32  23094118.953 7  23094122.469 5  23094122.504 7  23094121.137 8 121360405.143 7  94566569.636 5  94566574.635 7  90626291.364 8        45.500          35.000          46.400          49.900
R04  21833874.102 7  21833875.863 7 116919401.241 7  90937318.602 7        45.400          44.400
R06  21520238.563 6                 114836106.072 6                        37.500
R19  22133980.328 7  22133982.172 7 118401862.695 7  92090356.134 7        42.700          42.900
R20  19733485.688 7  19733490.121 8 105523888.160 7  82074078.975 8        43.900          48.800
R21  21864473.516 7  21864476.695 7 117001359.833 7  91000967.026 7        45.500          43.100
> 2018 04 26 21 58 00.0000000  0 20
E01  27965024.469 6  27965027.152 8 146957192.147 6 111172134.050 8        39.300          50.800
E03  25691878.086 7  25691880.309 9 135011729.875 7 102135471.474 9        46.100          55.300
E07  26225389.500 7  26225392.063 9 137815348.457 7 104256390.209 9        44.100          54.000
E08  21890292.977 8  21890293.250 9 115034353.542 8  87022649.533 9        49.600          57.900
E26  24630388.500 7  24630391.875 8 129433566.417 7  97915632.600 8        43.800          52.500
G01  20923368.430 8  20923373.551 7  20923373.168 8  20923371.809 8 109953041.190 8  85677728.150 7  85677724.153 8  82107804.272 8        51.200          42.200          50.000          53.400
G03  21864824.641 8  21864829.250 6  21864829.359 7  21864829.559 8 114900430.729 8  89532812.288 6  89532827.291 7  85802286.402 8        49.500          39.000          47.800          51.100
G08  20885045.555 8  20885049.887 7  20885050.246 8  20885048.379 8 109751646.840 8  85520790.957 7  85520816.966 8  81957414.802 8        52.500          44.100          50.700          53.300
G11  20382892.289 8  20382893.266 6                                 107112937.488 8  83464546.186 6                                        48.400          39.400
G14  22587142.953 7  22587145.031 5                                 118696234.927 7  92490589.920 5                                        44.700          32.100
G18  20217277.320 8  20217279.430 6                                 106242508.354 8  82786380.285 6                                        48.900          41.300
G22  20795841.328 7  20795840.336 6                                 109282883.288 7  85155455.248 6                                        47.200          40.900
G27  23440518.805 7  23440523.000 5  23440522.887 7  23440521.727 7 123180752.298 7  95985021.818 5  95985021.813 7  91985655.326 7        44.100          33.200          45.200          47.900
G28  23335567.359 7  23335568.246 4                                 122629230.778 7  95555258.506 4                                        43.200          28.200
G32  23091579.555 7  23091583.875 5  23091583.367 7  23091582.602 8 121347064.794 7  94556174.573 5  94556179.565 7  90616329.425 8        46.100          35.400          46.400          50.000
R04  21846530.625 7  21846531.770 7 116987173.846 7  90990030.627 7        45.600          44.600
R06  21491547.617 6                 114683000.390 6                        37.500
R19  22142198.938 7  22142199.883 7 118445820.772 7  92124545.752 7        42.600          43.300
R20  19724022.648 7  19724026.742 8 105473282.187 7  82034718.771 8        44.100          48.500
R21  21838883.188 7  21838885.512 7 116864415.156 7  90894454.524 7        46.500          44.600
> 2018 04 26 21 58 30.0000000  0 20
E01  27963334.953 6  27963338.730 8 146948318.960 6 111165421.539 8        38.300          50.700
E03  25694516.156 7  25694518.477 9 135025594.599 7 102145960.055 9        45.400          55.100
E07  26201197.273 7  26201200.055 9 137688218.351 7 104160217.120 9        44.600          54.200
E08  21877519.289 8  21877519.656 9 114967228.558 8  86971869.930 9        50.300          57.900
E26  24610302.930 7  24610306.496 8 129328016.767 7  97835785.021 8        43.700          52.600
G01  20909366.008 8  20909371.434 7  20909371.270 8  20909369.691 8 109879460.321 8  85620392.426 7  85620388.414 8  82052857.532 8        49.900          42.300          49.800          53.200
G03  21842932.688 8  21842937.195 6  21842937.512 7  21842937.328 8 114785389.179 8  89443169.547 6  89443184.536 7  85716378.774 8        49.600          38.700          47.400          51.300
G08  20887096.766 8  20887101.738 7  20887102.117 8  20887100.293 8 109762427.326 8  85529191.329 7  85529217.331 8  81965465.154 8        51.700          43.800          50.200          53.200
G11  20368993.539 7  20368994.063 6                                 107039896.799 7  83407631.367 6                                        46.800          39.500
G14  22574857.172 7  22574859.516 5                                 118631673.241 7  92440282.122 5                                        44.700          31.900
G18  20210724.688 8  20210726.543 6                                 106208071.481 8  82759546.361 6                                        50.200          40.800
G22  20782976.219 8  20782975.578 6                                 109215277.928 8  85102775.750 6                                        49.500          41.000
G27  23452429.547 7  23452433.551 5  23452433.711 7  23452433.277 8 123243344.581 7  96033795.000 5  96033794.998 7  92032396.319 8        43.700          32.000          45.300          48.200
G28  23324430.891 7  23324432.676 4                                 122570709.902 7  95509657.847 4                                        43.100          27.800
G32  23089147.563 7  23089151.438 5  23089151.582 7  23089149.578 8 121334282.922 7  94546214.673 5  94546219.669 7  90606784.532 8        45.300          35.400          47.200          49.100
R04  21859253.695 7  21859254.793 7 117055308.778 7  91043024.455 7        45.000          44.700
R06  21462929.250 6                 114530286.969 6                        37.300
R19  22150477.320 7  22150478.426 7 118490107.593 7  92158991.062 7        43.100          43.100
R20  19714643.211 7  19714647.445 8 105423127.779 7  81995709.799 8        43.400          48.400
R21  21813308.531 7  21813311.844 7 116727565.554 7  90788015.990 7        46.200          43.600
> 2018 04 26 21 59 00.0000000  0 20
E01  27961719.781 6  27961722.094 8 146939825.202 6 111158996.102 8        38.900          50.000
E03  25697215.766 7  25697218.227 9 135039780.608 7 102156691.678 9        45.300          55.100
E07  26177032.992 7  26177035.746 9 137561234.759 7 104064154.865 9        45.000          54.100
E08  21864823.930 8  21864824.316 9 114900513.685 8  86921400.570 9        50.000          57.900
E26  24590221.219 7  24590224.859 8 129222486.030 7  97755951.742 8        44.700          52.500
G01  20895411.313 8  20895416.629 7  20895416.465 8  20895415.008 8 109806126.016 8  85563248.815 7  85563244.826 8  81998094.912 8        50.800          42.200          50.100          53.700
G03  21821109.938 8  21821114.105 6  21821114.309 8  21821114.238 8 114670707.125 8  89353806.923 6  89353821.919 8  85630739.594 8        49.700          38.900          48.000          51.200
G08  20889240.477 8  20889244.645 7  20889244.828 8  20889243.195 8 109773691.199 8  85537968.373 7  85537994.375 8  81973876.487 8        52.100          43.400          50.700          53.400
G11  20355169.953 8  20355170.555 6                                 106967253.746 8  83351026.403 6                                        49.000          39.600
G14  22562669.719 7  22562672.121 5                                 118567626.664 7  92390375.727 5                                        45.800          33.400
G18  20204234.852 8  20204236.621 6                                 106173967.902 8  82732972.150 6                                        49.800          41.000
G22  20770193.313 8  20770192.484 6                                 109148102.481 8  85050431.269 6                                        48.500          41.100
G27  23464380.156 7  23464384.160 5  23464383.965 7  23464383.414 7 123306145.822 7  96082731.050 5  96082731.045 7  92079293.366 7        43.700          32.600          44.800          47.800
G28  23313392.477 7  23313394.617 4                                 122512706.642 7  95464460.495 4                                        42.800          26.900
G32  23086822.328 7  23086827.285 5  23086827.465 7  23086825.367 8 121322068.017 7  94536696.562 5  94536701.565 7  90597663.015 8        43.800          34.900          47.300          49.100
R04  21872046.016 7  21872047.621 7 117123811.455 7  91096304.310 7        44.500          44.900
R06  21434384.719 6                 114377978.414 6                        36.700
R19  22158818.445 7  22158821.148 7 118534731.887 7  92193698.838 7        42.300          43.400
R20  19705350.570 7  19705354.879 8 105373436.311 7  81957060.880 8        44.100          48.600
R21  21787755.023 7  21787758.055 7 116590822.830 7  90681660.566 7        46.800          43.700
> 2018 04 26 21 59 30.0000000  0 20
E01  27960172.430 6  27960176.203 8 146931700.696 6 111152849.957 8        39.000          49.700
E03  25699974.328 7  25699976.684 9 135054277.495 7 102167658.486 9        45.600          55.300
E07  26152895.188 7  26152898.043 8 137434390.325 7 103968197.894 8        44.000          53.900
E08  21852205.016 8  21852205.488 9 114834200.346 8  86871234.969 9        49.200          58.000
E26  24570141.773 7  24570144.988 8 129116965.828 7  97676126.432 8        44.400          52.600
G01  20881501.602 8  20881506.621 7  20881506.172 8  20881504.879 8 109733029.659 8  85506290.627 7  85506286.623 8  81943509.986 8        51.900          42.300          49.900          53.500
G03  21799353.531 8  21799357.781 6  21799357.906 7  21799357.859 8 114556376.601 8  89264718.218 6  89264733.221 7  85545362.926 8        50.200          39.300          47.900          51.300
G08  20891473.633 8  20891478.695 7  20891478.918 8  20891477.305 8 109785428.474 8  85547114.295 7  85547140.297 8  81982641.334 8        52.000          43.400          50.700          53.400
G11  20341420.633 8  20341421.383 6                                 106895000.682 8  83294725.321 6                                        49.100          39.400
G14  22550578.805 7  22550580.695 5                                 118504087.651 7  92340864.813 5                                        45.800          32.800
G18  20197806.414 8  20197808.883 6                                 106140188.573 8  82706650.598 6                                        49.300          41.400
G22  20757490.422 8  20757489.711 6                                 109081347.986 8  84998414.784 6                                        48.700          41.400
G27  23476368.867 7  23476373.262 5  23476373.266 7  23476372.516 7 123369145.343 7  96131821.589 5  96131821.580 7  92126338.474 7        43.500          31.600          45.000          47.300
G28  23302452.164 7  23302453.863 4                                 122455212.438 7  95419659.844 4                                        42.900          27.900
G32  23084604.680 7  23084608.680 5  23084609.125 7  23084607.055 8 121310410.372 7  94527612.683 5  94527617.690 7  90588957.632 8        45.500          34.500          47.100          49.400
R04  21884905.242 7  21884906.543 7 117192668.631 7  91149859.888 7        45.100          44.900
R06  21405916.508 6                 114226068.396 6                        37.100
R19  22167222.664 7  22167224.219 7 118579683.956 7  92228661.576 7        43.000          43.700
R20  19696143.086 7  19696147.672 8 105324200.598 7  81918766.439 8        43.700          48.600
R21  21762219.898 7  21762223.098 7 116454180.192 7  90575383.003 7        46.400          43.100
> 2018 04 26 22 00 00.0000000  0 20
E01  27958700.477 6  27958702.789 8 146923957.818 6 111146992.527 8        38.500          50.000
E03  25702794.797 7  25702796.977 9 135069097.381 7 102178869.644 9        45.900          55.500
E07  26128786.805 7  26128789.730 8 137307700.189 7 103872357.625 8        44.100          53.900
E08  21839664.813 8  21839665.406 9 114768302.622 8  86821383.781 9        49.300          58.000
E26  24550066.375 7  24550069.570 8 129011470.478 7  97596319.916 8        44.000          52.600
G01  20867640.023 8  20867644.500 7  20867644.195 8  20867642.699 8 109660185.355 8  85449528.852 7  85449524.848 8  81889113.279 8        51.100          42.000          49.800          53.400
G03  21777666.344 8  21777671.156 6  21777671.082 7  21777671.348 8 114442412.328 8  89175914.903 6  89175929.894 7  85460259.751 8        49.000          39.500          47.900          51.300
G08  20893799.969 8  20893804.563 7  20893804.754 8  20893803.113 8 109797652.122 8  85556639.220 7  85556665.229 8  81991769.390 8        52.400          43.700          50.200          53.500
G11  20327748.055 8  20327748.926 6                                 106823152.721 8  83238739.891 6                                        48.900          39.600
G14  22538586.445 7  22538588.973 5                                 118441070.792 7  92291760.761 5                                        44.700          32.900
G18  20191442.867 8  20191445.043 6                                 106106747.241 8  82680592.423 6                                        48.000          41.300
G22  20744870.297 7  20744869.129 6                                 109015027.659 7  84946736.623 6                                        47.300          41.300
G27  23488397.188 7  23488400.906 5  23488400.953 7  23488400.980 8 123432354.965 7  96181075.846 5  96181075.849 7  92173540.479 8        43.200          31.200          44.200          48.400
G28  23291610.883 7  23291612.551 4                                 122398241.215 7  95375266.683 4                                        42.400          26.900
G32  23082494.531 7  23082498.547 5  23082498.637 7  23082497.215 8 121299322.926 7  94518973.134 5  94518978.122 7  90580678.060 8        43.400          34.600          46.400          49.900
R04  21897832.008 7  21897832.871 7 117261890.340 7  91203698.968 7        44.700          43.900
R06  21377528.016 6                 114074574.455 6                        36.900
R19  22175687.938 7  22175691.188 7 118624976.980 7  92263889.468 7        43.100          43.000
R20  19687023.672 7  19687028.230 8 105275436.008 7  81880838.423 8        43.900          48.900
R21  21736706.367 7  21736710.043 7 116317653.995 7  90469195.976 7        46.100          44.000
> 2018 04 26 22 00 30.0000000  0 20
E01  27957299.609 6  27957302.508 8 146916599.879 6 111141426.312 8        39.100          49.900
E03  25705676.789 7  25705679.352 9 135084243.424 7 102190327.528 9        45.500          55.500
E07  26104708.422 7  26104711.832 8 137181170.582 7 103776638.806 8        43.900          53.800
E08  21827205.219 8  21827205.645 9 114702825.492 8  86771850.765 9        49.800          57.900
E26  24529997.258 7  24530000.238 8 128906005.137 7  97516536.116 8        44.500          52.600
G01  20853826.547 8  20853831.668 7  20853831.484 8  20853830.160 8 109587598.022 8  85392967.303 7  85392963.307 8  81834908.469 8        51.100          42.300          50.200          53.500
G03  21756050.469 8  21756055.348 6  21756055.469 8  21756055.539 8 114328819.928 8  89087401.354 6  89087416.351 8  85375434.264 8        48.900          39.200          48.100          51.300
G08  20896219.266 8  20896223.965 7  20896224.254 8  20896222.574 8 109810365.698 8  85566545.898 7  85566571.899 8  82001263.283 8        51.900          43.200          50.700          53.400
G11  20314154.188 7  20314154.746 6                                 106751715.966 7  83183074.901 6                                        47.500          40.400
G14  22526695.742 7  22526697.871 5                                 118378582.221 7  92243068.395 5                                        45.300          32.400
G18  20185144.453 8  20185146.391 6                                 106073648.695 8  82654801.352 6                                        49.100          40.900
G22  20732332.844 8  20732332.508 6                                 108949145.583 8  84895399.945 6                                        48.800          41.500
G27  23500465.625 7  23500469.988 5  23500470.035 7  23500468.656 7 123495777.492 7  96230496.001 5  96230495.996 7  92220901.459 7        43.700          31.700          44.000          47.500
G28  23280870.484 7  23280871.355 4                                 122341797.728 7  95331284.771 4                                        43.400          26.800
G32  23080493.406 7  23080498.523 5  23080498.391 7  23080496.547 8 121288809.486 7  94510780.868 5  94510785.866 7  90572827.133 8        43.100          34.700          46.800          49.500
R04  21910826.391 7  21910827.805 7 117331476.998 7  91257821.936 7        45.400          44.600
R06  21349216.984 6                 113923503.903 6                        37.300
R19  22184221.305 7  22184223.453 7 118670615.084 7  92299385.777 7        42.500          44.100
R20  19677993.922 7  19677998.746 8 105227149.309 7  81843282.106 8        44.300          48.600
R21  21711217.750 7  21711220.043 7 116181251.067 7  90363104.852 7        47.000          43.200
> 2018 04 26 22 01 00.0000000  0 20
E01  27955970.594 6  27955973.328 8 146909615.839 6 111136142.951 8        39.600          49.600
E03  25708618.836 7  25708621.324 9 135099704.395 7 102202023.655 9        45.300          55.600
E07  26080659.945 7  26080662.980 8 137054793.180 7 103681035.132 8        44.400          53.700
E08  21814823.531 8  21814823.836 9 114637759.591 8  86722628.847 9        50.300          58.000
E26  24509931.859 7  24509934.793 8 128800560.768 7  97436768.165 8        44.700          52.800
G01  20840060.820 8  20840066.109 7  20840065.719 8  20840064.484 8 109515258.370 8  85336598.755 7  85336594.751 8  81780888.612 8        50.900          42.200          49.300          53.500
G03  21734503.656 8  21734507.938 6  21734508.004 7  21734508.484 8 114215590.660 8  88999170.763 6  88999185.759 7  85290879.953 8        49.500          39.400          47.600          51.200
G08  20898730.195 8  20898734.301 7  20898734.738 8  20898733.027 8 109823558.793 8  85576826.230 7  85576852.232 8  82011115.274 8        51.900          43.400          50.000          53.500
G11  20300637.484 7  20300637.816 6                                 106680681.959 7  83127723.731 6                                        47.800          39.900
G14  22514903.422 7  22514905.527 5                                 118316613.490 7  92194781.087 5                                        44.300          33.800
G18  20178909.531 8  20178911.305 6                                 106040883.219 8  82629269.813 6                                        49.100          40.800
G22  20719877.672 7  20719876.887 6                                 108883691.932 7  84844397.105 6                                        47.500          41.400
G27  23512573.453 7  23512577.430 5  23512577.207 7  23512576.336 8 123559401.399 7  96280073.084 5  96280073.083 7  92268412.823 8        43.500          31.400          44.300          48.300
G28  23270227.383 7  23270229.637 4                                 122285872.679 7  95287706.811 4                                        43.100          26.800
G32  23078600.844 7  23078604.602 5  23078604.594 7  23078603.328 8 121278859.604 7  94503027.707 5  94503032.703 7  90565397.018 8        44.000          34.100          46.500          50.000
R04  21923887.609 7  21923888.805 7 117401415.081 7  91312218.207 7        45.100          45.000
R06  21320985.148 6                 113772850.181 6                        37.900
R19  22192814.992 7  22192817.020 7 118716587.399 7  92335142.004 7        42.500          43.500
R20  19669051.961 7  19669057.453 8 105179332.457 7  81806091.223 8        43.500          48.500
R21  21685749.008 7  21685751.781 7 116044964.036 7  90257103.851 7        47.000          42.900
> 2018 04 26 22 01 30.0000000  0 20
E01  27954710.234 6  27954713.660 8 146902994.874 6 111131134.227 8        40.200          50.000
E03  25711618.789 7  25711621.316 9 135115469.252 7 102213949.667 9        45.600          55.500
E07  26056638.250 7  26056641.605 8 136928560.110 7 103585540.635 8        44.600          53.500
E08  21802518.258 8  21802518.914 9 114573095.761 8  86673711.085 9        49.600          58.000
E26  24489868.367 7  24489871.609 8 128695128.415 7  97357009.324 8        44.500          52.800
G01  20826340.273 8  20826345.234 6  20826345.172 8  20826343.609 8 109443157.249 8  85280416.077 6  85280412.073 8  81727046.877 8        49.100          41.800          50.200          53.700
G03  21713024.234 8  21713029.180 6  21713028.945 7  21713029.137 8 114102715.946 8  88911216.463 6  88911231.453 7  85206590.417 8        49.900          39.800          47.700          51.300
G08  20901329.602 8  20901333.891 7  20901334.484 8  20901333.086 8 109837220.873 8  85587472.006 7  85587498.008 8  82021317.466 8        51.400          43.300          50.400          53.900
G11  20287194.961 7  20287195.379 6                                 106610042.490 7  83072679.988 6                                        46.800          39.800
G14  22503208.555 7  22503210.676 5                                 118255156.284 7  92146892.371 5                                        43.100          32.800
G18  20172736.219 8  20172738.078 6                                 106008441.537 8  82603990.580 6                                        49.500          41.000
G22  20707502.055 8  20707501.316 6                                 108818657.465 8  84793720.908 6                                        48.500          41.800
G27  23524716.438 7  23524720.367 5  23524720.305 7  23524719.738 8 123623215.355 7  96329798.250 5  96329798.237 7  92316066.109 8        43.900          31.400          43.600          48.300
G28  23259683.055 7  23259684.234 4                                 122230456.951 7  95244525.741 4                                        43.300          27.700
G32  23076812.664 7  23076816.672 5  23076816.801 7  23076815.344 8 121269462.911 7  94495705.604 5  94495710.592 7  90558380.011 8        43.600          34.600          46.800          49.700
R04  21937010.852 7  21937012.113 7 117471690.714 7  91366877.030 7        44.900          45.000
R06  21292829.438 6                 113622606.849 6                        38.400
R19  22201470.039 7  22201471.289 7 118762883.810 7  92371150.314 7        42.100          44.100
R20  19660197.086 7  19660200.801 8 105131977.363 7  81769259.482 8        44.300          48.200
R21  21660300.133 7  21660302.590 7 115908785.645 7  90151187.359 7        46.000          43.700
> 2018 04 26 22 02 00.0000000  0 20
E01  27953518.063 6  27953520.906 8 146896727.364 6 111126392.903 8        38.600          50.400
E03  25714674.773 7  25714677.332 9 135131528.181 7 102226098.145 9        45.500          55.300
E07  26032643.508 7  26032646.426 8 136802464.587 7 103490150.200 8        44.900          53.500
E08  21790288.180 8  21790288.633 9 114508826.021 8  86625091.450 9        50.000          58.100
E26  24469806.391 7  24469809.363 8 128589700.471 7  97277253.805 8        45.000          52.700
G01  20812663.680 8  20812668.723 7  20812668.570 8  20812667.160 8 109371286.761 8  85224413.107 7  85224409.104 8  81673377.369 8        50.000          42.400          49.600          53.700
G03  21691611.250 8  21691615.453 6  21691615.488 7  21691615.707 8 113990188.528 8  88823532.770 6  88823547.768 7  85122560.221 8        49.300          39.600          47.600          51.700
G08  20904017.352 8  20904021.473 7  20904021.703 8  20904020.492 9 109851342.937 8  85598476.214 7  85598502.216 8  82031863.166 9        51.900          43.300          50.400          54.100
G11  20273826.094 8  20273826.984 6                                 106539790.872 8  83017938.471 6                                        48.100          40.000
G14  22491610.086 7  22491611.723 5                                 118194203.627 7  92099396.791 5                                        44.700          32.300
G18  20166622.406 8  20166624.762 6                                 105976315.574 8  82578957.366 6                                        49.100          40.900
G22  20695204.367 8  20695203.563 6                                 108754033.063 8  84743364.236 6                                        48.000          41.600
G27  23536894.008 7  23536898.156 5  23536897.703 7  23536897.469 8 123687209.180 7  96379663.580 5  96379663.586 7  92363853.726 8        43.500          30.200          43.800          48.100
G28  23249233.055 6  23249234.301 4                                 122175542.237 6  95201735.048 4                                        41.400          27.200
G32  23075127.961 7  23075132.055 5  23075132.273 7  23075130.078 8 121260610.188 7  94488807.393 5  94488812.396 7  90551769.229 8        43.600          35.000          47.000          49.300
R04  21950195.383 7  21950196.680 7 117542291.351 7  91421788.626 7        44.300          44.900
R06  21264749.977 6                 113472768.734 6                        38.200
R19  22210182.977 7  22210185.012 7 118809494.922 7  92407403.389 7        42.700          43.600
R20  19651426.016 7  19651430.137 8 105085077.606 7  81732781.898 8        44.200          48.600
R21  21634871.617 7  21634873.918 7 115772709.835 7  90045350.644 7        46.000          43.100
> 2018 04 26 22 02 30.0000000  0 20
E01  27952393.938 6  27952396.664 8 146890820.152 6 111121924.138 8        39.800          49.700
E03  25717787.781 7  25717790.234 9 135147887.855 7 102238474.135 9        45.700          55.400
E07  26008676.406 7  26008679.098 8 136676516.277 7 103394871.134 8        44.700          53.400
E08  21778134.719 8  21778135.137 9 114444958.884 8  86576776.388 9        49.500          58.000
E26  24449746.672 7  24449749.457 8 128484285.701 7  97197508.253 8        43.800          52.800
G01  20799033.156 8  20799037.688 7  20799037.281 8  20799036.355 8 109299655.473 8  85168596.528 7  85168592.532 8  81619886.482 8        49.100          42.600          48.800          53.700
G03  21670265.656 8  21670269.895 6  21670270.617 8  21670270.379 8 113878017.499 8  88736126.789 6  88736141.786 8  85038796.158 8        49.800          39.000          48.100          51.900
G08  20906793.320 8  20906797.469 7  20906797.922 8  20906796.371 8 109865932.219 8  85609844.479 7  85609870.481 8  82042757.754 8        51.300          42.800          50.300          53.800
G11  20260533.578 7  20260534.141 6                                 106469936.427 7  82963506.450 6                                        46.900          39.700
G14  22480108.672 7  22480111.301 5                                 118133764.640 7  92052301.486 5                                        43.900          34.200
G18  20160570.945 8  20160573.074 6                                 105944513.362 8  82554176.430 6                                        49.000          41.300
G22  20682986.133 8  20682985.602 6                                 108689826.715 8  84693333.319 6                                        48.200          41.700
G27  23549107.492 7  23549111.750 5  23549112.051 7  23549110.711 8 123751389.258 7  96429674.044 5  96429674.047 7  92411780.403 8        43.500          31.900          45.100          48.100
G28  23238879.625 7  23238881.004 4                                 122121137.016 7  95159341.395 4                                        42.300          28.000
G32  23073548.023 7  23073551.734 5  23073552.160 7  23073550.813 8 121252308.882 7  94482338.847 5  94482343.848 7  90545570.216 8        43.800          34.600          46.400          49.100
R04  21963439.469 7  21963441.867 7 117613221.135 7  91476956.233 7        44.600          44.800
R06  21236747.172 6                 113323346.946 6                        37.900
R19  22218956.273 6  22218958.484 7 118856428.197 6  92443907.084 7        41.700          43.800
R20  19642742.219 7  19642747.211 8 105038643.187 7  81696666.244 8        44.000          48.800
R21  21609463.438 7  21609466.117 7 115636747.256 7  89939602.010 7        46.400          43.300
> 2018 04 26 22 03 00.0000000  0 20
E01  27951339.320 6  27951342.004 8 146885277.435 6 111117731.116 8        40.400          49.800
E03  25720959.055 7  25720961.465 9 135164552.355 7 102251080.723 9        45.900          55.400
E07  25984738.391 7  25984741.289 8 136550722.330 7 103299708.829 8        44.700          53.300
E08  21766059.016 8  21766059.500 9 114381500.231 8  86528770.339 9        49.700          58.100
E26  24429689.883 7  24429693.480 8 128378890.350 7  97117777.393 8        44.300          52.700
G01  20785448.656 8  20785453.594 7  20785453.309 8  20785452.379 9 109228269.325 8  85112970.969 7  85112966.965 8  81566578.664 9        50.200          42.300          49.100          54.000
G03  21648989.484 8  21648994.012 6  21648993.801 8  21648994.145 8 113766209.397 8  88649003.609 6  88649018.606 8  84955303.112 8        49.600          39.300          48.100          51.500
G08  20909659.508 8  20909664.098 7  20909664.633 8  20909662.883 8 109880993.167 8  85621580.275 7  85621606.277 8  82054004.561 8        51.700          42.600          50.000          53.900
G11  20247317.531 7  20247318.090 6                                 106400486.022 7  82909389.255 6                                        47.500          39.900
G14  22468706.000 7  22468708.730 5                                 118073846.439 7  92005611.995 5                                        44.900          32.800
G18  20154581.883 8  20154583.512 6                                 105913040.698 8  82529652.278 6                                        50.300          41.400
G22  20670848.734 8  20670847.734 6                                 108626043.366 8  84643632.009 6                                        49.000          41.700
G27  23561356.047 7  23561360.570 5  23561360.762 7  23561359.883 8 123815759.354 7  96479832.565 5  96479832.561 7  92459848.996 8        42.200          31.300          44.700          48.800
G28  23228624.734 7  23228626.492 4                                 122067247.035 7  95117349.205 4                                        42.400          27.500
G32  23072074.219 7  23072078.848 5  23072078.668 7  23072076.461 8 121244563.623 7  94476303.590 5  94476308.585 7  90539786.437 8        43.200          33.600          46.500          49.100
R04  21976747.703 7  21976749.578 7 117684482.411 7  91532381.660 7        45.600          45.100
R06  21208825.727 6                 113174350.283 6                        36.800
R19  22227792.070 7  22227793.258 7 118903688.955 7  92480665.421 7        42.600          43.500
R20  19634148.609 7  19634151.652 8 104992681.367 7  81660918.153 8        43.800          48.500
R21  21584077.461 7  21584080.980 7 115500906.150 7  89833947.851 7        46.600          43.400
> 2018 04 26 22 03 30.0000000  0 19
E03  25724187.266 7  25724189.836 9 135181517.715 7 102263914.914 9        45.500          55.300
E07  25960829.508 7  25960832.699 8 136425081.849 7 103204662.629 8        44.600          53.200
E08  21754060.266 8  21754060.930 9 114318448.001 8  86481071.743 9        49.800          58.100
E26  24409637.547 7  24409640.742 8 128273512.685 7  97038059.911 8        44.900          52.700
G01  20771910.820 8  20771915.645 7  20771915.477 8  20771914.195 8 109157126.416 8  85057534.944 7  85057530.939 8  81513452.476 8        50.200          42.600          49.500          53.800
G03  21627781.781 8  21627786.461 6  21627786.676 7  21627786.828 8 113654762.819 8  88562162.123 6  88562177.120 7  84872080.032 8        50.200          39.200          47.300          51.700
G08  20912614.563 8  20912618.293 7  20912618.895 8  20912617.313 8 109896522.704 8  85633681.216 7  85633707.210 8  82065601.291 8        50.800          43.200          49.600          53.800
G11  20234178.352 8  20234179.020 6                                 106331438.918 8  82855586.319 6                                        48.400          39.400
G14  22457403.133 7  22457405.246 5                                 118014447.484 7  91959327.113 5                                        43.300          32.400
G18  20148654.922 8  20148656.949 6                                 105881895.426 8  82505383.227 6                                        49.400          41.100
G22  20658791.102 7  20658790.805 6                                 108562680.692 7  84594258.502 6                                        47.900          41.800
G27  23573641.172 7  23573644.473 5  23573645.277 7  23573644.078 8 123880315.250 7  96530135.848 5  96530135.847 7  92508056.311 8        43.800          32.000          45.100          48.000
G28  23218467.711 7  23218469.230 4                                 122013870.069 7  95075756.792 4                                        43.100          28.600
G32  23070705.633 7  23070709.270 5  23070709.980 7  23070708.172 8 121237371.140 7  94470699.061 5  94470704.057 7  90534415.419 8        43.300          33.800          46.100          49.700
R04  21990115.711 7  21990117.547 7 117756068.071 7  91588059.395 7        44.600          44.000
R06  21180983.961 6                 113025779.179 6                        37.100
R19  22236687.305 6  22236689.523 7 118951273.717 6  92517675.808 7        41.100          44.400
R20  19625641.289 7  19625644.953 8 104947191.816 7  81625537.389 8        44.100          48.100
R21  21558714.961 7  21558718.180 7 115365186.421 7  89728388.075 7        46.700          43.700
> 2018 04 26 22 04 00.0000000  0 19
E03  25727470.906 7  25727473.363 9 135198772.977 7 102276968.408 9        45.400          55.400
E07  25936948.594 7  25936951.980 8 136299586.875 7 103109726.503 8        44.500          53.400
E08  21742137.727 8  21742138.109 9 114255792.964 8  86433673.625 9        49.800          58.100
E26  24389586.430 7  24389589.645 8 128168143.912 7  96958349.150 8        44.700          52.800
G01  20758417.094 8  20758421.824 6  20758421.383 8  20758420.320 9 109086217.576 8  85002281.311 6  85002277.306 8  81460501.071 9        50.200          41.600          49.300          54.000
G03  21606641.344 8  21606645.473 6  21606645.723 7  21606645.957 8 113543669.142 8  88475595.647 6  88475610.637 7  84789120.487 8        50.200          39.400          47.800          51.600
G08  20915656.875 8  20915660.930 7  20915661.418 8  20915660.305 9 109912510.304 8  85646139.085 7  85646165.079 8  82077540.078 9        50.800          43.000          50.000          54.100
G11  20221114.383 8  20221114.793 6                                 106262786.819 8  82802091.180 6                                        48.200          39.900
G14  22446197.203 7  22446198.938 5                                 117955559.334 7  91913440.249 5                                        44.500          33.700
G18  20142788.492 8  20142791.070 6                                 105851067.905 8  82481361.793 6                                        49.200          40.800
G22  20646811.633 8  20646811.078 6                                 108499728.941 8  84545205.199 6                                        48.400          41.300
G27  23585959.227 7  23585963.098 5  23585962.805 7  23585962.293 8 123945045.541 7  96580575.069 5  96580575.067 7  92556393.891 8        43.500          31.600          44.900          48.500
G28  23208405.625 7  23208407.926 4                                 121960996.888 7  95034556.919 4                                        42.500          26.900
G32  23069439.750 7  23069443.875 5  23069443.930 7  23069442.426 8 121230720.941 7  94465517.105 5  94465522.098 7  90529449.373 8        43.100          34.100          46.400          49.600
R04  22003543.320 7  22003543.855 7 117827965.038 7  91643979.251 7        45.100          45.100
R06  21153220.164 6                 112877627.693 6                        36.700
R19  22245641.852 7  22245642.887 7 118999172.152 7  92554930.117 7        42.200          43.400
R20  19617220.742 7  19617225.293 8 104902166.317 7  81590517.561 8        43.700          48.100
R21  21533373.844 7  21533377.648 7 115229580.859 7  89622917.119 7        46.600          43.300
> 2018 04 26 22 04 30.0000000  0 19
E03  25730807.398 7  25730809.555 9 135216304.964 7 102290231.245 9        46.200          55.500
E07  25913094.070 7  25913096.770 8 136174227.279 7 103014892.794 8        44.900          53.400
E08  21730288.164 8  21730288.742 9 114193523.775 8  86386567.395 9        50.100          58.200
E26  24369535.070 7  24369538.051 8 128062772.942 7  96878636.736 8        44.500          52.800
G01  20744965.875 8  20744970.836 7  20744970.250 8  20744969.387 8 109015531.620 8  84947201.350 7  84947197.360 8  81407716.120 8        49.800          42.200          49.800          53.900
G03  21585566.063 8  21585570.531 6  21585570.680 7  21585570.605 8 113432917.678 8  88389295.820 6  88389310.816 7  84706416.499 8        50.300          39.700          47.600          51.500
G08  20918784.281 8  20918787.934 7  20918788.422 8  20918787.070 9 109928943.135 8  85658943.890 7  85658969.898 8  82089811.347 9        51.100          42.800          50.100          54.100
G11  20208123.328 8  20208124.133 6                                 106194519.650 8  82748895.995 6                                        48.600          39.400
G14  22435086.289 7  22435088.391 5                                 117897171.595 7  91867943.319 5                                        45.200          33.500
G18  20136980.594 8  20136982.914 6                                 105820546.934 8  82457579.220 6                                        49.300          40.800
G22  20634907.953 8  20634907.480 6                                 108437175.507 8  84496462.273 6                                        49.200          41.400
G27  23598306.953 7  23598311.297 5  23598311.188 7  23598310.609 8 124009936.846 7  96631139.714 5  96631139.724 7  92604851.683 8        42.600          32.100          44.500          48.200
G28  23198438.172 7  23198440.059 4                                 121908615.662 7  94993740.391 4                                        42.600          26.500
G32  23068274.898 7  23068279.695 5  23068280.004 7  23068278.305 8 121224600.567 7  94460747.984 5  94460752.980 7  90524878.965 8        43.000          34.800          46.700          49.700
R04  22017023.570 7  22017024.781 7 117900156.953 7  91700128.519 7        44.700          44.800
R06  21125533.258 6                 112729886.613 6                        37.000
R19  22254652.148 6  22254653.715 7 119047371.592 6  92592418.593 7        41.800          43.800
R20  19608886.359 7  19608890.258 8 104857594.996 7  81555850.978 8        43.900          48.000
R21  21508052.023 7  21508055.723 7 115094080.225 7  89517527.762 7        46.300          43.900
> 2018 04 26 22 05 00.0000000  0 19
E03  25734196.188 7  25734198.543 9 135234114.003 7 102303703.676 9        45.700          55.300
E07  25889265.625 7  25889267.852 8 136049006.513 7 102920164.107 8        45.100          53.400
E08  21718512.586 8  21718512.980 9 114131642.586 8  86339754.686 9        49.700          58.200
E26  24349483.789 7  24349486.918 8 127957402.513 7  96798924.712 8        44.900          52.800
G01  20731557.688 8  20731562.730 6  20731562.344 8  20731561.281 8 108945070.881 8  84892296.880 6  84892292.876 8  81355099.345 8        49.300          41.800          49.500          53.900
G03  21564556.219 8  21564560.707 6  21564560.520 8  21564561.016 8 113322511.252 8  88303264.851 6  88303279.854 8  84623970.159 8        49.600          39.800          48.000          51.900
G08  20921995.750 8  20922000.082 7  20922000.422 8  20921999.219 9 109945822.188 8  85672096.397 7  85672122.406 8  82102415.828 9        49.100          42.200          50.200          54.100
G11  20195206.297 7  20195207.203 6                                 106126640.529 7  82696003.170 6                                        46.400          39.700
G14  22424071.172 7  22424073.520 5                                 117839287.342 7  91822838.720 5                                        44.900          33.400
G18  20131231.680 8  20131233.863 6                                 105790334.339 8  82434036.935 6                                        49.700          41.100
G22  20623081.172 8  20623080.477 6                                 108375022.496 8  84448031.370 6                                        48.400          41.500
G27  23610686.438 7  23610690.641 5  23610690.750 7  23610690.012 8 124074989.143 7  96681829.821 5  96681829.816 7  92653429.692 8        42.400          31.300          46.000          48.700
G28  23188565.102 7  23188566.207 4                                 121856728.622 7  94953308.953 4                                        42.100          27.400
G32  23067211.133 7  23067215.949 5  23067216.297 7  23067214.441 8 121219010.875 7  94456392.381 5  94456397.376 7  90520704.855 8        42.500          34.400          46.800          49.600
R04  22030558.805 7  22030560.992 7 117972642.395 7  91756506.065 7        44.200          44.600
R06  21097925.586 5                 112582560.767 5                        35.800
R19  22263718.203 7  22263720.539 7 119095873.278 7  92630142.115 7        42.600          43.400
R20  19600636.844 7  19600640.867 8 104813481.312 7  81521540.337 8        43.900          48.500
R21  21482751.539 7  21482754.520 7 114958688.854 7  89412223.387 7        46.400          43.400
> 2018 04 26 22 05 30.0000000  0 19
E03  25737638.320 7  25737640.645 9 135252202.719 7 102317387.670 9        45.200          55.400
E07  25865464.000 7  25865466.844 8 135923930.157 7 102825544.656 8        45.500          53.800
E08  21706811.609 8  21706812.168 9 114070153.774 8  86293238.807 9        50.100          58.200
E26  24329433.250 7  24329436.535 8 127852037.275 7  96719216.623 8        44.900          52.800
G01  20718193.148 8  20718197.883 7  20718197.578 8  20718196.434 8 108874839.828 8  84837571.403 7  84837567.407 8  81302654.089 8        49.900          42.600          49.000          53.900
G03  21543613.391 8  21543617.547 6  21543617.559 8  21543617.918 8 113212454.854 8  88217506.621 6  88217521.618 8  84541785.193 8        50.300          39.600          48.000          52.000
G08  20925293.742 8  20925297.789 7  20925298.066 8  20925296.926 8 109963150.706 8  85685599.128 7  85685625.138 8  82115355.950 8        49.900          42.300          49.500          53.800
G11  20182363.805 7  20182365.000 6                                 106059154.762 7  82643416.855 6                                        46.700          39.700
G14  22413153.023 7  22413154.988 5                                 117781911.702 7  91778130.460 5                                        45.300          32.600
G18  20125541.797 8  20125544.086 6                                 105760434.342 8  82410738.246 6                                        48.900          41.200
G22  20611330.156 8  20611330.086 6                                 108313273.889 8  84399915.575 6                                        48.500          41.800
G27  23623096.727 7  23623100.715 5  23623100.691 7  23623099.793 8 124140204.760 7  96732647.159 5  96732647.154 7  92702129.653 8        42.100          31.800          45.800          48.200
G28  23178785.578 7  23178787.309 4                                 121805339.903 7  94913265.780 4                                        42.800          26.900
G32  23066250.125 7  23066254.246 5  23066254.039 7  23066251.977 8 121213955.017 7  94452452.757 5  94452457.750 7  90516929.384 8        43.600          34.400          47.100          49.800
R04  22044149.891 7  22044152.555 7 118045421.378 7  91813111.934 7        44.200          44.900
R06  21070396.609 6                 112435657.725 6                        37.500
R19  22272841.844 7  22272844.582 7 119144680.706 7  92668103.439 7        42.600          43.600
R20  19592473.344 7  19592477.855 8 104769831.403 7  81487590.409 8        43.900          48.300
R21  21457472.703 7  21457474.473 7 114823413.524 7  89307009.276 7        46.400          43.600
> 2018 04 26 22 06 00.0000000  0 19
E03  25741131.773 7  25741134.543 9 135270562.145 7 102331276.452 9        46.000          55.400
E07  25841689.180 7  25841692.016 8 135798992.375 7 102731030.048 8        44.800          53.500
E08  21695183.844 8  21695184.438 9 114009050.208 8  86247014.365 9        49.400          58.200
E26  24309382.664 7  24309385.738 8 127746670.563 7  96639507.423 8        43.900          53.100
G01  20704870.891 8  20704875.953 7  20704875.547 8  20704874.621 9 108804831.600 8  84783019.541 7  84783015.537 8  81250375.227 9        49.800          42.600          49.600          54.000
G03  21522735.172 8  21522739.844 6  21522740.195 8  21522739.918 8 113102742.030 8  88132016.121 6  88132031.119 8  84459856.802 8        49.400          39.800          48.200          51.800
G08  20928674.977 8  20928678.871 7  20928679.406 8  20928677.895 9 109980920.237 8  85699445.523 7  85699471.518 8  82128625.403 9        50.100          42.400          50.300          54.500
G11  20169595.688 7  20169596.504 6                                 105992056.165 7  82591132.243 6                                        47.200          40.100
G14  22402330.477 7  22402332.027 5                                 117725038.442 7  91733813.627 5                                        44.700          32.400
G18  20119910.109 8  20119912.094 6                                 105730839.753 8  82387677.530 6                                        48.900          41.100
G22  20599655.266 7  20599655.000 6                                 108251921.406 7  84352108.458 6                                        47.300          41.800
G27  23635536.398 7  23635539.883 5  23635539.984 7  23635538.961 8 124205574.351 7  96783584.519 5  96783584.506 7  92750944.625 8        42.500          31.600          45.500          48.100
G28  23169099.367 7  23169101.039 4                                 121754442.287 7  94873605.326 4                                        43.200          28.700
G32  23065386.508 7  23065391.977 5  23065391.480 7  23065390.648 8 121209424.566 7  94448922.542 5  94448927.530 7  90513546.256 8        42.300          33.800          46.200          49.100
R04  22057794.398 7  22057796.164 7 118118482.329 7  91869937.098 7        44.200          45.100
R06  21042943.867 6                 112289173.085 6                        37.300
R19  22282022.031 6  22282024.043 7 119193785.307 6  92706295.909 7        41.300          43.600
R20  19584396.188 7  19584400.766 8 104726639.423 7  81453996.642 8        43.700          48.900
R21  21432213.188 7  21432216.031 7 114688249.216 7  89201881.509 7        46.600          43.700
> 2018 04 26 22 06 30.0000000  0 19
E03  25744678.055 7  25744680.676 9 135289197.689 7 102345374.132 9        45.900          55.400
E07  25817942.367 7  25817944.980 8 135674201.607 7 102636626.647 8        45.700          53.700
E08  21683630.938 8  21683631.586 9 113948339.083 8  86201086.808 9        49.800          58.200
E26  24289332.883 7  24289336.477 8 127641310.091 7  96559802.936 8        43.900          52.800
G01  20691593.094 8  20691597.660 7  20691597.223 8  20691596.328 9 108735053.469 8  84728646.984 7  84728642.980 8  81198268.197 9        49.600          43.100          50.000          54.100
G03  21501924.336 8  21501929.039 6  21501928.949 7  21501929.172 8 112993380.567 8  88046799.406 6  88046814.403 7  84378190.795 8        50.200          39.200          47.900          52.100
G08  20932141.219 8  20932145.492 7  20932146.098 8  20932144.922 9 109999136.529 8  85713640.033 7  85713666.034 8  82142228.478 9        49.400          42.500          49.600          54.000
G11  20156902.805 7  20156903.555 6                                 105925353.484 7  82539156.132 6                                        46.700          39.200
G14  22391604.516 7  22391607.043 5                                 117668675.257 7  91689894.267 5                                        45.000          32.600
G18  20114337.891 8  20114340.063 6                                 105701557.468 8  82364860.164 6                                        48.600          41.100
G22  20588057.125 8  20588056.559 6                                 108190971.397 8  84304614.959 6                                        48.300          41.700
G27  23648005.406 7  23648009.656 5  23648010.082 7  23648008.559 8 124271103.107 7  96834645.873 5  96834645.864 7  92799878.434 8        42.500          31.500          45.400          48.000
G28  23159509.367 7  23159510.973 4                                 121704042.646 7  94834332.884 4                                        42.600          28.600
G32  23064626.406 7  23064630.930 5  23064630.570 7  23064628.895 8 121205425.467 7  94445806.359 5  94445811.355 7  90510559.921 8        44.000          34.000          47.000          49.500
R04  22071491.227 7  22071492.734 7 118191828.442 7  91926984.074 7        44.500          45.200
R06  21015571.742 6                 112143116.471 6                        37.600
R19  22291258.508 7  22291261.070 7 119243193.459 7  92744724.466 7        42.200          44.200
R20  19576406.805 7  19576410.504 8 104683914.088 7  81420765.829 8        44.100          48.100
R21  21406977.016 7  21406979.902 7 114553205.481 7  89096847.516 7        47.200          44.200
> 2018 04 26 22 07 00.0000000  0 19
E03  25748276.719 7  25748279.082 9 135308107.314 7 102359679.137 9        45.600          55.300
E07  25794223.406 7  25794226.176 9 135549558.770 7 102542335.152 9        45.200          54.000
E08  21672152.602 8  21672153.234 9 113888019.982 8  86155455.812 9        49.600          58.300
E26  24269284.609 7  24269288.031 8 127535955.877 7  96480103.190 8        44.500          52.700
G01  20678358.273 8  20678363.242 7  20678363.039 8  20678361.910 9 108665505.359 8  84674453.659 7  84674449.655 8  81146332.935 9        49.900          42.400          49.700          54.100
G03  21481180.563 8  21481185.234 6  21481185.414 8  21481185.660 8 112884370.774 8  87961856.718 6  87961871.715 8  84296787.388 8        49.600          39.900          48.300          51.800
G08  20935692.766 8  20935697.133 7  20935697.574 8  20935696.387 8 110017798.312 8  85728181.686 7  85728207.688 8  82156164.221 8        50.500          42.600          50.500          53.900
G11  20144284.617 7  20144285.707 6                                 105859046.925 7  82487488.685 6                                        46.200          39.200
G14  22380976.609 7  22380978.699 5                                 117612822.698 7  91646372.814 5                                        45.500          32.800
G18  20108825.125 8  20108826.965 6                                 105672587.179 8  82342285.912 6                                        49.400          40.800
G22  20576534.977 8  20576534.609 7                                 108130423.178 8  84257434.533 7                                        48.300          42.200
G27  23660505.055 7  23660509.492 5  23660509.680 7  23660508.336 7 124336788.554 7  96885829.325 5  96885829.335 7  92848929.234 7        43.200          32.300          46.300          47.800
G28  23150013.063 7  23150014.664 4                                 121654140.474 7  94795448.089 4                                        42.600          26.900
G32  23063966.117 7  23063970.242 5  23063970.516 7  23063968.793 8 121201956.077 7  94443102.953 5  94443107.946 7  90507969.158 8        43.700          33.800          46.700          49.500
R04  22085241.234 7  22085242.215 7 118265455.219 7  91984249.335 7        43.700          44.700
R06  20988282.984 6                 111997490.350 6                        38.600
R19  22300551.813 6  22300552.992 7 119292903.524 6  92783387.835 7        41.400          42.400
R20  19568504.586 7  19568509.094 8 104641656.422 7  81387898.758 8        44.100          48.700
R21  21381764.031 7  21381767.383 7 114418284.308 7  88991908.851 7        47.200          44.600
> 2018 04 26 22 07 30.0000000  0 19
E03  25751929.500 7  25751931.727 9 135327302.440 7 102374200.129 9        44.700          55.200
E07  25770535.578 7  25770538.598 9 135425078.437 7 102448166.599 9        45.200          54.000
E08  21660751.531 8  21660751.930 9 113828106.209 8  86110131.437 9        49.900          58.300
E26  24249240.438 7  24249243.660 8 127430621.735 7  96400418.626 8        44.500          52.900
G01  20665170.078 8  20665174.898 7  20665174.574 8  20665173.508 9 108596200.706 8  84620450.048 7  84620446.036 8  81094579.474 9        51.000          42.500          48.900          54.300
G03  21460506.648 8  21460511.051 6  21460511.285 7  21460511.066 8 112775726.546 8  87877198.896 6  87877213.887 7  84215656.979 8        50.600          39.800          47.500          51.800
G08  20939330.273 8  20939335.055 7  20939335.539 8  20939333.957 8 110036917.210 8  85743079.521 7  85743105.517 8  82170441.312 8        50.600          42.300          49.700          53.900
G11  20131745.445 7  20131746.422 6                                 105793151.517 7  82436141.612 6                                        47.800          39.100
G14  22370447.438 7  22370449.371 5                                 117557494.862 7  91603260.222 5                                        45.300          32.200
G18  20103373.828 8  20103376.016 6                                 105643942.040 8  82319965.024 6                                        49.800          40.600
G22  20565091.938 8  20565091.680 7                                 108070289.538 8  84210577.166 7                                        48.200          42.200
G27  23673036.906 7  23673040.770 5  23673040.770 7  23673039.379 7 124402641.854 7  96937143.574 5  96937143.569 7  92898105.406 7        43.000          32.600          45.500          47.300
G28  23140614.313 7  23140615.809 4                                 121604748.759 7  94756961.053 4                                        43.000          26.900
G32  23063409.211 7  23063413.609 5  23063413.641 7  23063411.574 8 121199028.396 7  94440821.640 5  94440826.636 7  90505782.902 8        42.700          34.200          47.300          49.800
R04  22099044.352 7  22099045.734 7 118339372.162 7  92041740.276 7        43.900          44.500
R06  20961076.750 6                 111852311.204 6                        38.500
R19  22309903.633 7  22309905.141 7 119342928.113 7  92822295.837 7        43.400          42.600
R20  19560692.719 7  19560696.535 8 104599881.670 7  81355407.283 8        44.500          48.000
R21  21356576.961 7  21356579.191 7 114283501.647 7  88887077.922 7        47.300          43.400
> 2018 04 26 22 08 00.0000000  0 19
E03  25755635.906 7  25755638.016 9 135346779.092 7 102388934.088 9        44.900          55.100
E07  25746878.758 7  25746881.445 9 135300759.661 7 102354120.261 9        45.100          54.000
E08  21649426.969 8  21649427.594 9 113768595.505 8  86065111.984 9        50.400          58.300
E26  24229199.391 7  24229202.637 8 127325305.941 7  96320747.942 8        45.100          53.000
G01  20652028.063 8  20652032.793 7  20652032.543 8  20652031.285 9 108527137.578 8  84566634.632 7  84566630.628 8  81043006.369 9        51.200          42.900          49.300          54.100
G03  21439901.422 8  21439906.035 6  21439906.074 8  21439906.227 8 112667446.338 8  87792824.720 6  87792839.725 8  84134798.403 8        49.900          40.300          48.000          51.700
G08  20943055.414 8  20943059.570 7  20943059.730 8  20943058.418 8 110056489.766 8  85758330.857 7  85758356.852 8  82185057.173 8        50.200          43.100          50.200          53.800
G11  20119284.156 7  20119284.988 6                                 105727665.907 7  82385113.879 6                                        47.700          39.000
G14  22360018.805 7  22360020.605 5                                 117502690.363 7  91560555.414 5                                        44.300          31.800
G18  20097984.242 8  20097986.500 6                                 105615619.736 8  82297895.707 6                                        50.400          40.900
G22  20553727.109 8  20553727.098 7                                 108010567.692 8  84164040.673 7                                        48.700          42.500
G27  23685599.523 7  23685603.098 5  23685603.176 7  23685601.766 7 124468658.717 7  96988585.277 5  96988585.280 7  92947403.719 7        43.400          31.700          45.800          46.300
G28  23131311.750 7  23131313.555 4                                 121555865.105 7  94718869.892 4                                        43.400          27.700
G32  23062954.461 7  23062959.090 5  23062958.461 7  23062957.059 8 121196638.894 7  94438959.688 5  94438964.692 7  90503998.540 8        43.200          33.200          46.400          49.600
R04  22112900.148 7  22112902.766 7 118413572.685 7  92099451.781 7        43.200          44.000
R06  20933954.477 6                 111707579.380 6                        38.900
R19  22319311.336 7  22319314.152 7 119393263.931 7  92861445.946 7        42.300          42.500
R20  19552969.414 7  19552973.992 8 104558588.635 7  81323290.485 8        44.300          48.200
R21  21331415.047 7  21331418.063 7 114148857.517 7  88782354.735 7        47.100          44.700
> 2018 04 26 22 08 30.0000000  0 19
E03  25759394.578 7  25759397.000 9 135366532.577 7 102403877.474 9        44.800          55.100
E07  25723252.156 7  25723254.762 9 135176600.812 7 102260194.916 9        45.500          54.400
E08  21638178.617 8  21638179.172 9 113709484.913 8  86020395.221 9        49.700          58.300
E26  24209161.375 7  24209164.801 8 127220006.072 7  96241089.320 8        44.600          52.900
G01  20638931.398 8  20638935.629 7  20638935.379 8  20638934.355 9 108458313.212 8  84513005.264 7  84513001.260 8  80991611.564 9        51.500          43.000          49.400          54.100
G03  21419365.797 8  21419370.148 6  21419370.496 8  21419370.340 8 112559527.778 8  87708732.356 6  87708747.347 8  84054209.893 8        49.300          39.700          48.700          52.200
G08  20946865.313 8  20946869.688 7  20946870.023 8  20946868.531 8 110076511.705 8  85773932.371 7  85773958.372 8  82200008.624 8        51.300          42.700          50.300          53.700
G11  20106900.133 7  20106901.066 6                                 105662588.165 7  82334403.951 6                                        47.400          39.100
G14  22349688.852 7  22349690.879 5                                 117448406.988 7  91518256.694 5                                        44.900          32.400
G18  20092655.813 8  20092657.961 6                                 105587617.240 8  82276075.580 6                                        50.500          40.600
G22  20542440.258 8  20542439.914 7                                 107951253.856 8  84117822.110 7                                        48.800          42.300
G27  23698191.875 7  23698195.566 5  23698196.125 7  23698194.293 7 124534834.149 7  97040150.567 5  97040150.563 7  92996820.454 7        43.500          31.400          44.700          45.800
G28  23122105.438 7  23122107.535 4                                 121507486.384 7  94681172.202 4                                        42.200          27.100
G32  23062601.984 7  23062605.547 5  23062605.715 7  23062604.391 8 121194783.338 7  94437513.800 5  94437518.804 7  90502612.907 8        43.900          34.100          46.400          49.900
R04  22126808.453 7  22126810.254 7 118488049.665 7  92157378.296 7        43.000          44.900
R06  20906914.969 6                 111563294.672 6                        38.400
R19  22328779.828 7  22328780.652 7 119443906.817 7  92900834.831 7        42.500          42.300
R20  19545337.922 7  19545341.832 8 104517775.933 7  81291547.267 8        44.300          48.300
R21  21306279.250 7  21306282.414 7 114014351.431 7  88677738.914 7        46.600          44.400
> 2018 04 26 22 09 00.0000000  0 19
E03  25763208.914 7  25763211.387 9 135386576.965 7 102419040.928 9        45.600          55.100
E07  25699658.773 7  25699661.789 9 135052618.991 7 102166403.463 9        45.100          54.400
E08  21627009.281 8  21627009.891 9 113650790.204 8  85975993.063 9        49.500          58.400
E26  24189129.852 7  24189132.992 8 127114738.435 7  96161455.069 8        45.100          52.800
G01  20625882.547 8  20625887.176 7  20625886.719 8  20625885.785 9 108389743.701 8  84459574.484 7  84459570.487 8  80940407.070 9        50.500          43.200          49.300          54.300
G03  21398901.320 8  21398905.656 6  21398906.008 8  21398905.730 8 112451987.383 8  87624934.660 6  87624949.657 8  83973903.764 8        49.600          40.600          48.200          51.700
G08  20950763.492 8  20950767.898 7  20950768.523 8  20950766.801 8 110096997.679 8  85789895.467 7  85789921.461 8  82215306.585 8        50.200          43.800          49.900          53.900
G11  20094596.648 7  20094598.086 6                                 105597935.154 7  82284024.981 6                                        47.600          39.400
G14  22339461.875 7  22339463.965 5                                 117394660.973 7  91476376.699 5                                        45.800          33.000
G18  20087390.906 8  20087393.184 6                                 105559950.284 8  82254516.911 6                                        49.600          41.000
G22  20531234.055 8  20531233.410 7                                 107892363.207 8  84071933.298 7                                        48.600          43.000
G27  23710817.805 7  23710821.164 5  23710821.328 7  23710820.301 7 124601181.873 7  97091850.101 5  97091850.100 7  93046365.827 7        43.500          31.800          45.600          45.900
G28  23112998.734 7  23113000.398 4                                 121459627.988 7  94643879.961 4                                        42.800          27.000
G32  23062352.695 7  23062356.887 5  23062357.191 7  23062355.730 8 121193476.158 7  94436495.237 5  94436500.240 7  90501636.776 8        42.800          33.400          45.800          50.200
R04  22140771.563 7  22140772.270 7 118562815.381 7  92215529.400 7        43.200          44.400
R06  20879962.438 6                 111419475.954 6                        38.600
R19  22338306.891 7  22338308.875 7 119494871.962 7  92940474.409 7        42.700          42.100
R20  19537798.859 7  19537803.203 8 104477461.146 7  81260191.327 8        43.600          48.900
R21  21281173.336 7  21281175.375 7 113880001.824 7  88573244.786 7        47.000          44.600
> 2018 04 26 22 09 30.0000000  0 19
E03  25767078.242 7  25767080.688 9 135406910.823 7 102434423.357 9        44.900          54.900
E07  25676099.930 7  25676102.898 9 134928815.790 7 102072747.164 9        44.800          54.500
E08  21615919.188 8  21615919.867 9 113592511.694 8  85931905.761 9        49.900          58.400
E26  24169104.172 7  24169107.438 8 127009503.940 7  96081845.883 8        44.800          53.000
G01  20612882.867 8  20612887.555 7  20612887.465 8  20612886.047 9 108321429.604 8  84406342.725 7  84406338.729 8  80889393.305 9        51.100          43.100          49.300          54.300
G03  21378508.563 8  21378513.422 6  21378513.152 8  21378513.441 8 112344826.024 8  87541432.316 6  87541447.307 8  83893880.692 8        49.800          40.700          48.300          51.900
G08  20954750.195 8  20954754.434 7  20954754.836 8  20954753.043 8 110117946.879 8  85806219.516 7  85806245.517 8  82230950.470 8        50.400          42.800          50.500          53.300
G11  20082374.789 7  20082375.730 6                                 105533708.373 7  82233978.142 6                                        46.300          39.200
G14  22329336.422 7  22329338.613 5                                 117341453.830 7  91434916.588 5                                        45.800          33.000
G18  20082189.719 8  20082191.602 6                                 105532619.063 8  82233219.868 6                                        50.000          40.600
G22  20520107.695 8  20520107.148 7                                 107833895.429 8  84026374.001 7                                        48.100          43.000
G27  23723475.602 7  23723479.906 5  23723480.195 7  23723478.281 7 124667700.122 7  97143682.485 5  97143682.488 7  93096038.554 7        43.100          33.100          45.300          45.100
G28  23103990.547 7  23103992.117 4                                 121412290.137 7  94606993.334 4                                        42.500          27.700
G32  23062207.734 7  23062212.066 5  23062212.246 7  23062211.086 8 121192716.416 7  94435903.234 5  94435908.229 7  90501069.428 8        43.400          33.800          45.800          50.500
R04  22154785.500 7  22154787.488 7 118637866.156 7  92273902.223 7        43.100          43.700
R06  20853100.813 6                 111276126.237 6                        37.900
R19  22347894.273 7  22347896.301 6 119546158.517 7  92980363.920 6        42.200          41.600
R20  19530353.633 7  19530357.680 8 104437646.177 7  81229224.132 8        43.600          48.400
R21  21256095.820 7  21256099.762 7 113745811.370 7  88468874.463 7        46.900          44.000
> 2018 04 26 22 10 00.0000000  0 19
E03  25770999.844 7  25771001.953 9 135427518.087 7 102450012.623 9        45.300          54.800
E07  25652572.328 7  25652575.535 9 134805178.264 7 101979216.182 9        45.300          54.700
E08  21604905.750 8  21604906.293 9 113534635.040 8  85888122.457 9        50.000          58.400
E26  24149082.461 7  24149085.617 8 126904288.792 7  96002251.352 8        44.800          52.900
G01  20599928.969 8  20599933.668 7  20599933.102 8  20599932.277 9 108253356.905 8  84353299.070 7  84353295.066 8  80838559.805 9        52.200          42.400          49.100          54.100
G03  21358186.359 8  21358190.813 6  21358190.938 8  21358190.773 8 112238030.073 8  87458214.712 6  87458229.701 8  83814130.491 8        49.600          40.300          48.500          51.800
G08  20958821.984 8  20958826.504 7  20958826.996 8  20958825.289 8 110139343.158 8  85822891.937 7  85822917.938 8  82246928.207 8        51.200          42.800          50.500          53.300
G11  20070232.023 8  20070232.859 6                                 105469894.772 8  82184253.264 6                                        48.600          39.500
G14  22319311.695 7  22319313.277 5                                 117288771.742 7  91393865.626 5                                        45.300          32.600
G18  20077049.984 8  20077051.941 6                                 105505609.335 8  82212173.334 6                                        49.700          40.800
G22  20509059.328 8  20509058.926 7                                 107775835.236 8  83981132.302 7                                        49.300          42.700
G27  23736162.594 7  23736167.066 5  23736167.211 7  23736165.852 7 124734372.587 7  97195635.041 5  97195635.036 7  93145826.451 7        42.900          30.400          44.300          45.700
G28  23095078.375 7  23095080.137 4                                 121365458.178 7  94570500.904 4                                        42.600          28.900
G32  23062164.094 7  23062168.902 5  23062169.008 7  23062167.863 8 121192488.407 7  94435725.582 5  94435730.588 7  90500899.176 8        42.400          33.200          46.400          50.300
R04  22168851.367 7  22168851.996 7 118713183.054 7  92332481.998 7        43.900          43.900
R06  20826322.156 6                 111133233.848 6                        38.500
R19  22357539.828 6  22357540.598 6 119597750.590 6  93020491.123 6        41.900          41.100
R20  19522998.688 7  19523002.809 8 104398317.884 7  81198635.462 8        44.200          48.700
R21  21231047.313 7  21231050.316 7 113611768.159 7  88364618.651 7        47.200          44.800
> 2018 04 26 22 10 30.0000000  0 19
E03  25774972.516 7  25774975.168 9 135448396.640 7 102465807.124 9        45.800          54.900
E07  25629076.391 7  25629079.848 9 134681707.306 7 101885811.213 9        44.900          54.800
E08  21593968.586 8  21593969.180 9 113477159.801 8  85844642.824 9        50.300          58.500
E26  24129064.477 7  24129067.594 8 126799093.217 7  95922671.604 8        44.100          52.900
G01  20587021.563 8  20587025.680 7  20587025.340 8  20587024.352 9 108185525.576 8  84300443.491 7  84300439.495 8  80787906.550 9        52.300          43.100          49.600          54.100
G03  21337933.367 8  21337937.895 6  21337938.094 8  21337938.320 8 112131599.784 8  87375282.025 6  87375297.022 8  83734653.334 8        49.600          40.700          48.600          52.200
G08  20962978.023 8  20962982.594 7  20962982.887 8  20962981.203 8 110161185.094 8  85839911.623 7  85839937.624 8  82263238.740 8        51.000          42.900          50.700          53.000
G11  20058166.484 8  20058168.199 6                                 105406494.896 8  82134850.766 6                                        48.200          39.600
G14  22309386.961 7  22309388.637 5                                 117236614.895 7  91353223.933 5                                        44.700          32.100
G18  20071971.195 8  20071973.664 6                                 105478920.451 8  82191376.799 6                                        49.900          41.000
G22  20498088.117 8  20498087.910 7                                 107718182.226 8  83936207.892 7                                        48.500          42.600
G27  23748879.484 7  23748882.641 5  23748882.902 7  23748881.898 7 124801196.760 7  97247705.840 5  97247705.835 7  93195727.626 7        43.900          30.700          43.900          46.000
G28  23086263.055 7  23086264.242 4                                 121319131.273 7  94534402.022 4                                        43.400          27.600
G32  23062222.055 7  23062226.621 5  23062226.641 7  23062225.055 8 121192790.365 7  94435960.869 5  94435965.873 7  90501124.668 8        43.800          34.200          46.300          49.800
R04  22182964.336 7  22182965.688 7 118788761.740 7  92391265.424 7        43.400          43.200
R06  20799630.203 6                 110990800.764 6                        38.700
R19  22367241.516 7  22367242.855 7 119649647.028 7  93060855.022 7        42.700          42.900
R20  19515735.133 7  19515739.445 8 104359477.081 7  81168425.947 8        44.100          48.300
R21  21206025.883 7  21206028.742 7 113477874.139 7  88260478.885 7        47.100          44.400
> 2018 04 26 22 11 00.0000000  0 19
E03  25778997.336 7  25778999.566 9 135469545.582 7 102481806.162 9        45.000          54.900
E07  25605613.266 7  25605616.027 9 134558405.063 7 101792533.881 9        45.500          54.800
E08  21583107.859 8  21583108.555 9 113420086.766 8  85801467.451 9        49.700          58.500
E26  24109049.914 7  24109053.438 8 126693918.641 7  95843107.755 8        44.200          53.100
G01  20574159.563 8  20574164.113 7  20574163.898 8  20574162.547 9 108117936.600 8  84247776.763 7  84247772.766 8  80737434.271 9        52.400          43.000          49.200          54.200
G03  21317750.328 8  21317754.484 6  21317754.500 8  21317754.207 8 112025536.538 8  87292635.352 6  87292650.348 8  83655450.281 8        50.300          40.700          49.100          51.800
G08  20967219.344 8  20967223.738 7  20967223.863 8  20967222.293 8 110183472.306 8  85857278.282 7  85857304.284 8  82279881.792 8        51.200          43.200          50.300          53.100
G11  20046181.656 7  20046182.453 6                                 105343510.794 7  82085772.258 6                                        47.600          39.600
G14  22299562.086 7  22299563.902 5                                 117184984.709 7  91312992.628 5                                        45.900          32.400
G18  20066953.727 8  20066955.949 6                                 105452553.202 8  82170830.901 6                                        50.100          40.300
G22  20487194.977 8  20487194.203 7                                 107660936.301 8  83891600.685 7                                        49.400          43.200
G27  23761624.016 7  23761627.758 5  23761627.605 7  23761626.602 7 124868171.468 7  97299893.927 5  97299893.929 7  93245741.201 7        42.000          30.700          43.300          44.600
G28  23077543.563 7  23077544.855 4                                 121273310.291 7  94498697.372 4                                        43.300          27.500
G32  23062380.289 7  23062384.492 5  23062383.934 7  23062383.453 8 121193621.784 7  94436608.740 5  94436613.736 7  90501745.548 8        43.400          32.800          45.800          49.900
R04  22197126.070 7  22197128.008 7 118864598.854 7  92450249.855 7        44.100          43.200
R06  20773025.391 6                 110848830.840 6                        39.200
R19  22376999.281 6  22377000.641 6 119701847.474 6  93101455.351 6        41.100          41.900
R20  19508563.414 7  19508567.547 8 104321126.295 7  81138597.562 8        44.500          49.200
R21  21181033.258 7  21181036.145 7 113344132.721 7  88156457.805 7        47.300          45.500
> 2018 04 26 22 11 30.0000000  0 19
E03  25783073.367 7  25783075.625 9 135490964.247 7 102498009.238 9        45.700          54.800
E07  25582181.984 7  25582184.957 9 134435273.894 7 101699385.966 9        45.300          54.900
E08  21572324.055 8  21572324.660 9 113363416.920 8  85758597.089 9        50.100          58.500
E26  24089040.461 7  24089043.840 8 126588766.646 7  95763560.985 8        44.300          53.000
G01  20561344.094 8  20561348.703 7  20561348.598 8  20561347.199 9 108050591.385 8  84195299.986 7  84195295.982 8  80687144.023 9        51.900          42.800          50.200          54.100
G03  21297637.234 8  21297641.832 6  21297641.859 8  21297641.672 8 111919841.866 8  87210275.891 6  87210290.880 8  83576522.455 8        50.300          40.900          49.200          51.700
G08  20971544.906 8  20971549.691 7  20971549.992 8  20971548.418 8 110206204.168 8  85874991.423 7  85875017.425 8  82296856.886 8        51.300          43.400          50.200          52.800
G11  20034275.422 7  20034276.867 6                                 105280944.802 7  82037019.541 6                                        47.200          39.400
G14  22289837.109 7  22289839.184 5                                 117133882.951 7  91273173.090 5                                        46.100          32.700
G18  20061997.664 8  20061999.738 6                                 105426508.721 8  82150536.499 6                                        50.400          41.100
G22  20476378.469 8  20476378.398 7                                 107604097.721 8  83847310.894 7                                        48.700          42.900
G27  23774397.211 6  23774401.406 4  23774401.801 7  23774400.191 7 124935295.693 6  97352198.525 4  97352198.521 7  93295866.467 7        41.600          29.800          43.000          45.200
G28  23068920.422 7  23068921.609 4                                 121227995.826 7  94463387.417 4                                        42.500          27.700
G32  23062639.219 7  23062643.051 5  23062643.410 7  23062641.777 8 121194982.267 7  94437668.868 5  94437673.856 7  90502761.500 8        43.700          34.100          45.300          49.700
R04  22211335.289 7  22211337.723 7 118940691.671 7  92509433.142 7        44.000          43.400
R06  20746507.125 6                 110707328.045 6                        38.800
R19  22386814.000 7  22386816.125 7 119754351.772 7  93142292.030 7        42.600          42.000
R20  19501483.406 7  19501488.059 8 104283267.732 7  81109151.993 8        43.200          48.700
R21  21156069.891 7  21156072.246 7 113210547.476 7  88052558.200 7        47.800          44.600
> 2018 04 26 22 12 00.0000000  0 19
E03  25787199.172 7  25787201.383 9 135512646.439 7 102514411.672 9        45.100          54.700
E07  25558782.648 7  25558785.883 9 134312310.768 7 101606365.166 9        45.100          55.100
E08  21561616.000 8  21561616.539 9 113307145.829 8  85716028.386 9        50.500          58.500
E26  24069033.875 7  24069037.625 8 126483633.489 7  95684028.466 8        45.000          52.900
G01  20548574.469 8  20548578.813 7  20548578.211 8  20548577.598 9 107983485.915 8  84143010.019 7  84143006.015 8  80637032.807 9        51.800          43.200          49.000          54.100
G03  21277593.477 8  21277598.074 6  21277598.082 8  21277598.031 8 111814512.326 8  87128200.930 6  87128215.920 8  83497867.289 8        50.400          40.900          48.700          51.900
G08  20975954.328 8  20975958.773 7  20975958.969 8  20975957.383 8 110229374.995 8  85893046.604 7  85893072.606 8  82314159.775 8        50.700          43.300          50.200          53.000
G11  20022448.633 8  20022449.578 6                                 105218793.325 8  81988589.815 6                                        48.100          39.000
G14  22280212.898 7  22280214.527 5                                 117083306.128 7  91233762.582 5                                        46.000          32.700
G18  20057102.281 8  20057104.172 6                                 105400782.514 8  82130490.104 6                                        50.000          40.200
G22  20465639.016 8  20465638.629 7                                 107547661.549 8  83803334.662 7                                        49.300          43.200
G27  23787197.766 6  23787201.500 4  23787201.262 7  23787201.105 7 125002562.967 6  97404614.588 4  97404614.598 7  93346098.541 7        40.200          27.500          42.600          45.800
G28  23060392.547 7  23060394.691 4                                 121183182.882 7  94428468.242 4                                        43.400          28.500
G32  23062997.531 7  23063001.922 5  23063001.867 7  23063000.707 8 121196866.039 7  94439136.751 5  94439141.747 7  90504168.228 8        43.500          33.300          45.800          50.300
R04  22225592.063 7  22225593.473 7 119017031.820 7  92568808.798 7        43.800          42.600
R06  20720076.648 6                 110566290.243 6                        38.700
R19  22396684.898 6  22396686.504 7 119807154.341 6  93183360.694 7        41.300          42.500
R20  19494494.820 7  19494500.145 8 104245898.452 7  81080087.003 8        43.800          48.600
R21  21131135.211 7  21131137.832 7 113077116.412 7  87948778.505 7        47.500          45.000
> 2018 04 26 22 12 30.0000000  0 19
E03  25791376.383 7  25791378.680 9 135534598.188 7 102531018.032 9        45.000          54.600
E07  25535417.164 7  25535420.410 9 134189524.637 7 101513478.272 9        44.800          55.100
E08  21550985.414 8  21550985.859 9 113251281.108 8  85673767.101 9        49.500          58.500
E26  24049033.125 7  24049036.480 8 126378527.443 7  95604516.450 8        44.400          53.100
G01  20535851.984 8  20535856.426 7  20535856.063 8  20535855.094 9 107916628.103 8  84090913.029 7  84090909.032 8  80587106.529 9        51.300          42.800          49.300          54.300
G03  21257620.820 8  21257625.457 6  21257625.738 8  21257625.473 8 111709555.987 8  87046416.775 6  87046431.766 8  83419490.808 8        50.300          40.600          48.800          52.500
G08  20980448.234 8  20980452.633 7  20980452.922 8  20980451.301 8 110252991.346 8  85911448.954 7  85911474.955 8  82331795.364 8        51.100          43.400          50.100          52.800
G11  20010702.086 7  20010703.289 6                                 105157065.168 7  81940489.965 6                                        47.600          39.300
G14  22270689.773 7  22270691.434 5                                 117033262.322 7  91194767.428 5                                        45.600          33.000
G18  20052268.805 8  20052270.441 6                                 105375382.210 8  82110697.670 6                                        49.200          40.600
G22  20454978.070 8  20454977.535 7                                 107491634.823 8  83759677.486 7                                        49.300          42.700
G27  23800026.336 6  23800030.316 4  23800030.590 7  23800029.570 7 125069978.942 6  97457146.525 4  97457146.527 7  93396441.636 7        41.600          27.100          42.900          46.900
G28  23051962.539 7  23051963.676 4                                 121138879.025 7  94393945.777 4                                        42.200          27.100
G32  23063456.688 7  23063461.043 5  23063461.141 7  23063460.125 8 121199279.331 7  94441017.256 5  94441022.244 7  90505970.370 8        42.900          32.400          45.300          50.500
R04  22239895.039 7  22239896.023 7 119093622.738 7  92628379.530 7        44.800          42.600
R06  20693736.023 6                 110425727.872 6                        39.000
R19  22406614.289 6  22406615.832 7 119860261.785 6  93224666.469 7        41.800          43.400
R20  19487600.055 7  19487604.152 8 104209027.637 7  81051409.696 8        43.500          48.600
R21  21106230.883 8  21106233.551 7 112943850.021 8  87845126.894 7        48.300          46.000
> 2018 04 26 22 13 00.0000000  0 19
E03  25795602.148 7  25795604.465 9 135556804.813 7 102547817.203 9        44.900          54.400
E07  25512083.563 7  25512086.406 9 134066903.895 7 101420716.488 9        44.800          55.100
E08  21540429.031 8  21540430.039 9 113195809.721 8  85631803.364 9        49.700          58.600
E26  24029035.117 7  24029038.156 8 126273436.250 7  95525015.677 8        45.100          53.100
G01  20523173.727 8  20523178.391 7  20523178.023 8  20523176.941 9 107850005.408 8  84038999.242 7  84038995.245 8  80537355.824 9        51.000          43.000          49.100          54.100
G03  21237717.148 8  21237721.762 6  21237722.102 8  21237721.367 8 111604960.526 8  86964913.844 6  86964928.833 8  83341383.836 8        50.000          41.500          49.100          51.500
G08  20985024.289 8  20985029.285 7  20985029.500 8  20985027.660 8 110277038.579 8  85930187.057 7  85930213.059 8  82349752.713 8        50.500          42.900          50.800          53.000
G11  19999034.078 7  19999035.352 6                                 105095749.109 7  81892711.225 6                                        47.800          39.400
G14  22261265.742 7  22261267.508 5                                 116983739.393 7  91156178.142 5                                        46.600          32.700
G18  20047494.734 8  20047496.984 6                                 105350294.798 8  82091149.046 6                                        49.800          40.300
G22  20444391.508 8  20444391.273 7                                 107436003.664 8  83716328.541 7                                        50.200          43.000
G27  23812881.172 6  23812884.605 4  23812885.133 7  23812884.098 7 125137528.622 6  97509782.641 4  97509782.640 7  93446884.565 7        39.900          28.500          42.800          46.300
G28  23043625.531 7  23043627.145 4                                 121095070.911 7  94359809.591 4                                        43.300          27.000
G32  23064014.531 7  23064017.961 5  23064018.137 7  23064017.215 8 121202207.856 7  94443299.229 5  94443304.231 7  90508157.256 8        43.100          31.900          44.600          51.000
R04  22254241.641 7  22254243.758 7 119170448.119 7  92688132.608 7        43.800          43.300
R06  20667480.063 6                 110285630.494 6                        39.000
R19  22416596.281 6  22416597.449 7 119913660.040 6  93266198.464 7        41.200          43.200
R20  19480797.078 7  19480800.539 8 104172643.922 7  81023111.248 8        44.100          48.600
R21  21081355.414 7  21081358.094 7 112810737.689 7  87741595.104 7        47.400          45.100
> 2018 04 26 22 13 30.0000000  0 19
E03  25799876.750 7  25799879.223 9 135579268.357 7 102564810.725 9        44.800          54.400
E07  25488781.789 7  25488784.895 9 133944453.647 7 101328083.687 9        45.700          55.100
E08  21529949.086 8  21529949.766 9 113140735.345 8  85590139.967 9        49.800          58.600
E26  24009040.500 7  24009043.785 8 126168364.276 7  95445529.436 8        44.500          53.100
G01  20510541.578 8  20510545.996 7  20510545.453 8  20510544.430 9 107783621.885 8  83987271.831 7  83987267.827 8  80487783.725 9        51.800          43.000          49.100          54.100
G03  21217882.508 8  21217887.426 6  21217887.523 8  21217887.031 8 111500730.322 8  86883695.517 6  86883710.507 8  83263549.608 8        50.200          40.900          48.800          51.500
G08  20989682.641 8  20989687.262 7  20989687.789 8  20989685.871 8 110301519.233 8  85949262.894 7  85949288.888 8  82368033.723 8        50.700          43.200          50.300          52.800
G11  19987445.086 8  19987446.145 6                                 105034849.397 8  81845256.899 6                                        48.000          39.400
G14  22251942.102 7  22251943.234 5                                 116934741.365 7  91117997.861 5                                        46.000          32.400
G18  20042780.867 8  20042783.285 6                                 105325524.088 8  82071847.186 6                                        49.900          40.500
G22  20433880.992 8  20433880.730 7                                 107380771.580 8  83673290.561 7                                        50.000          43.000
G27  23825760.391 6  23825764.289 4  23825764.559 6  23825764.246 7 125205213.731 6  97562524.282 4  97562524.273 6  93497428.636 7        39.400          26.100          41.800          46.600
G28  23035384.336 7  23035385.324 4                                 121051761.691 7  94326062.176 4                                        42.600          27.500
G32  23064670.172 7  23064673.813 5  23064673.484 7  23064672.773 8 121205653.818 7  94445984.405 5  94445989.400 7  90510730.543 8        43.700          32.100          45.800          50.900
R04  22268630.516 7  22268633.148 7 119247507.168 7  92748067.422 7        43.300          43.700
R06  20641314.195 6                 110146004.967 6                        38.700
R19  22426633.125 7  22426633.914 7 119967351.958 7  93307958.833 7        42.000          43.300
R20  19474084.430 7  19474088.992 8 104136752.127 7  80995195.411 8        43.800          48.900
R21  21056509.813 7  21056513.129 7 112677785.716 7  87638188.058 7        47.500          45.100
> 2018 04 26 22 14 00.0000000  0 19
E03  25804201.516 7  25804203.754 9 135601994.502 7 102582002.908 9        44.900          54.500
E07  25465514.133 7  25465517.707 9 133822182.636 7 101235586.462 9        45.100          55.000
E08  21519545.641 8  21519546.391 9 113086065.348 8  85548782.475 9        50.100          58.600
E26  23989051.492 7  23989054.387 8 126063319.599 7  95366063.849 8        45.400          53.300
G01  20497956.172 8  20497960.945 7  20497960.535 8  20497959.613 9 107717485.305 8  83935736.840 7  83935732.836 8  80438396.027 9        51.800          43.100          49.600          54.300
G03  21198119.625 8  21198124.137 6  21198124.203 8  21198124.211 8 111396873.326 8  86802767.994 6  86802782.990 8  83185994.070 8        49.900          41.600          49.100          51.600
G08  20994424.992 8  20994429.613 7  20994430.125 8  20994427.930 8 110326439.145 8  85968680.994 7  85968706.989 8  82386642.743 8        50.300          43.600          50.600          53.100
G11  19975936.984 7  19975938.387 6                                 104974374.752 7  81798133.808 6                                        47.500          38.900
G14  22242719.148 7  22242721.344 5                                 116886276.350 7  91080232.926 5                                        46.200          32.800
G18  20038129.133 8  20038131.016 6                                 105301077.363 8  82052797.785 6                                        49.500          41.200
G22  20423448.250 8  20423447.602 7                                 107325944.937 8  83630568.517 7                                        50.100          43.400
G27  23838667.797 6  23838672.160 4  23838671.758 6  23838671.531 7 125273039.689 6  97615375.648 4  97615375.632 6  93548077.867 7        39.700          26.200          41.600          47.400
G28  23027238.977 7  23027240.402 4                                 121008958.770 7  94292709.254 4                                        42.300          27.500
G32  23065425.281 7  23065430.113 5  23065429.863 7  23065428.723 8 121209623.272 7  94449077.493 5  94449082.489 7  90513694.742 8        42.800          32.600          46.100          51.000
R04  22283065.969 7  22283067.820 7 119324803.226 7  92808186.563 7        42.600          43.600
R06  20615238.773 6                 110006860.944 6                        39.000
R19  22436725.695 6  22436727.613 7 120021343.188 6  93349952.004 7        41.200          43.600
R20  19467465.609 7  19467470.656 8 104101361.156 7  80967669.095 8        44.100          48.400
R21  21031698.141 8  21031699.867 7 112545004.440 8  87534913.751 7        48.300          45.100
> 2018 04 26 22 14 30.0000000  0 19
E03  25808575.352 7  25808577.652 9 135624979.237 7 102599390.708 9        44.900          54.400
E07  25442281.070 7  25442284.008 9 133700089.874 7 101143224.099 9        45.300          55.100
E08  21509218.797 8  21509219.527 9 113031797.342 8  85507729.086 9        49.400          58.600
E26  23969066.758 7  23969069.785 8 125958300.598 7  95286617.677 8        45.000          53.300
G01  20485417.352 8  20485421.816 7  20485421.480 8  20485420.543 9 107651593.596 8  83884392.650 7  83884388.653 8  80389191.183 9        52.100          42.500          49.300          54.100
G03  21178426.836 8  21178430.992 6  21178431.391 8  21178431.125 8 111293387.861 8  86722129.986 6  86722144.983 8  83108715.977 8        50.100          41.500          48.800          51.900
G08  20999250.250 8  20999254.730 7  20999255.117 8  20999253.164 8 110351794.929 8  85988438.745 7  85988464.747 8  82405577.258 8        50.300          42.900          50.300          52.600
G11  19964509.742 7  19964510.988 6                                 104914323.968 7  81751340.998 6                                        47.900          39.300
G14  22233598.016 7  22233599.566 5                                 116838342.567 7  91042881.939 5                                        46.400          32.700
G18  20033538.406 8  20033539.934 6                                 105276952.434 8  82033999.146 6                                        49.900          41.100
G22  20413091.148 8  20413091.039 7                                 107271520.698 8  83588160.030 7                                        50.300          42.900
G27  23851600.875 6  23851604.426 4  23851604.813 6  23851604.152 7 125341002.067 6  97668333.359 4  97668333.362 6  93598828.985 7        40.800          26.900          41.400          47.200
G28  23019189.617 7  23019191.500 4                                 120966659.159 7  94259748.526 4                                        42.300          26.800
G32  23066279.469 7  23066283.641 5  23066283.402 7  23066281.957 8 121214112.386 7  94452575.512 5  94452580.508 7  90517047.001 8        42.600          32.600          46.400          50.700
R04  22297543.516 7  22297545.813 7 119402330.688 7  92868485.698 7        43.100          43.400
R06  20589254.891 6                 109868199.304 6                        38.900
R19  22446873.945 6  22446876.066 7 120075631.075 6  93392175.917 7        40.400          43.700
R20  19460941.852 7  19460945.398 8 104066470.257 7  80940531.731 8        43.900          48.600
R21  21006915.133 7  21006918.020 7 112412394.032 7  87431772.350 7        47.200          45.200
> 2018 04 26 22 15 00.0000000  0 19
E03  25812996.266 7  25812998.621 9 135648211.946 7 102616966.100 9        44.900          54.400
E07  25419079.844 7  25419082.941 9 133578167.789 7 101050990.838 9        45.300          54.900
E08  21498966.906 8  21498967.313 9 112977922.294 8  85466972.976 9        50.300          58.700
E26  23949085.703 7  23949088.723 8 125853299.021 7  95207184.700 8        44.900          53.200
G01  20472923.375 8  20472928.434 7  20472927.992 8  20472926.809 9 107585938.510 8  83833232.841 7  83833228.844 8  80340163.036 9        50.200          43.100          50.000          54.000
G03  21158803.156 8  21158807.879 6  21158808.086 8  21158807.660 8 111190265.539 8  86641774.946 6  86641789.942 8  83031709.063 8        50.300          41.200          48.700          52.200
G08  21004155.969 8  21004160.633 7  21004160.773 8  21004159.125 8 110377575.889 8  86008527.802 7  86008553.804 8  82424829.278 8        49.200          43.000          50.100          52.800
G11  19953162.008 7  19953162.918 6                                 104854689.352 7  81704872.461 6                                        47.500          39.400
G14  22224575.539 7  22224577.465 5                                 116790931.816 7  91005938.507 5                                        45.300          32.300
G18  20029006.820 8  20029008.934 6                                 105253140.385 8  82015444.305 6                                        50.800          41.200
G22  20402809.711 8  20402809.090 7                                 107217489.530 8  83546057.836 7                                        50.000          43.700
G27  23864557.094 6  23864561.160 4  23864560.680 7  23864560.535 8 125409089.991 6  97721388.890 4  97721388.899 7  93649673.857 8        41.800          28.300          43.000          49.100
G28  23011234.141 7  23011235.848 4                                 120924853.534 7  94227172.729 4                                        42.400          28.500
G32  23067230.648 7  23067234.824 5  23067235.023 7  23067233.496 8 121219110.756 7  94456470.353 5  94456475.352 7  90520779.552 8        44.100          33.200          46.300          51.000
R04  22312062.891 7  22312064.484 7 119480076.351 7  92928954.537 7        42.900          43.500
R06  20563358.828 6                 109730013.294 6                        39.300
R19  22457076.563 6  22457078.051 7 120130205.160 6  93434622.409 7        41.200          44.000
R20  19454508.922 7  19454513.074 8 104032071.664 7  80913777.263 8        43.800          48.400
R21  20982164.250 7  20982167.148 7 112279948.378 7  87328759.098 7        47.200          45.700
> 2018 04 26 22 15 30.0000000  0 19
E03  26117257.813 7  26117260.000 9 137247116.271 7 103826526.839 9        44.600          54.300
E07  25695706.133 7  25695709.160 9 135031847.943 7 102150690.453 9        45.500          54.900
E08  21788583.344 8  21788584.020 9 114499868.015 8  86618315.038 9        49.800          58.700
E26  24228902.117 7  24228905.238 8 127323745.243 7  96319567.744 8        45.100          53.300
G01  20760268.953 8  20760273.672 7  20760273.285 8  20760272.344 9 109095948.594 8  85009864.091 7  85009860.087 8  81467767.981 9        50.900          43.000          49.600          54.200
G03  21439043.570 8  21439047.840 6  21439048.133 8  21439047.797 8 112662936.524 8  87789310.800 6  87789325.789 8  84131430.925 8        50.300          41.700          48.300          52.300
G08  21308936.188 8  21308940.742 7  21308941.125 8  21308939.410 8 111979206.534 8  87256551.670 7  87256577.671 8  83620852.156 8        49.300          43.200          49.800          52.400
G11  20241686.945 7  20241688.480 6                                 106370899.949 7  82886335.273 6                                        47.500          39.500
G14  22515447.508 7  22515449.473 5                                 118319472.350 7  92197009.065 5                                        46.800          33.000
G18  20324328.656 8  20324331.172 6                                 106805067.971 8  83224738.532 6                                        50.500          40.400
G22  20692396.664 8  20692396.469 7                                 108739278.705 8  84731867.586 7                                        50.300          43.300
G27  24177330.578 6  24177334.418 4  24177334.793 7  24177334.375 8 127052725.270 6  99002143.642 4  99002143.641 7  94877063.815 8        39.200          28.800          44.000          48.800
G28  23303166.961 6  23303168.449 4                                 122458969.088 6  95422587.455 4                                        41.300          27.700
G32  23368072.172 7  23368076.527 5  23368076.457 7  23368075.137 8 122800042.858 7  95688365.494 5  95688370.490 7  91701345.732 8        44.100          34.000          46.100          51.200
R04  22626413.359 7  22626415.477 7 121163414.980 7  94238217.888 7        42.200          43.400
R06  20837346.906 6                 111192066.387 6                        39.200
R19  22767125.063 6  22767126.172 7 121788755.783 6  94724606.225 7        41.300          43.200
R20  19747962.641 7  19747966.859 8 105601298.960 7  82134287.382 8        44.100          48.500
R21  21257239.156 7  21257242.133 7 113751930.511 7  88473634.113 7        47.600          45.000
> 2018 04 26 22 16 00.0000000  0 19
E03  26121775.680 7  26121777.793 9 137270857.031 7 103844486.567 9        44.900          54.300
E07  25672574.000 7  25672577.098 9 134910288.468 7 102058731.500 9        45.600          55.000
E08  21778484.102 8  21778484.828 9 114446795.830 8  86578166.282 9        50.300          58.600
E26  24208931.414 7  24208934.461 8 127218797.913 7  96240175.805 8        45.400          53.600
G01  20747868.547 8  20747873.008 7  20747872.656 8  20747871.617 9 109030784.852 8  84959087.153 7  84959083.149 8  81419106.748 9        51.700          43.500          48.900          54.100
G03  21419561.281 8  21419566.035 6  21419566.086 8  21419565.758 8 112560559.467 8  87709536.479 6  87709551.470 8  84054980.533 8        49.600          41.400          49.000          51.900
G08  21314006.648 8  21314011.051 7  21314011.242 8  21314009.602 8 112005851.166 8  87277313.726 7  87277339.728 8  83640749.133 8        49.500          42.300          50.300          52.800
G11  20230501.250 7  20230502.621 6                                 106312118.099 7  82840531.242 6                                        47.900          39.400
G14  22506628.008 7  22506630.004 5                                 118273126.485 7  92160895.406 5                                        45.500          31.900
G18  20319919.711 8  20319921.871 6                                 106781898.656 8  83206684.519 6                                        49.700          40.700
G22  20682267.484 8  20682267.148 7                                 108686048.627 8  84690389.615 7                                        50.900          43.300
G27  24190336.727 6  24190341.348 4  24190341.086 7  24190340.953 8 127121075.470 6  99055403.472 4  99055403.471 7  94928104.501 8        39.800          28.200          43.800          48.500
G28  23295402.891 7  23295403.645 4                                 122418167.455 7  95390793.992 4                                        42.800          27.200
G32  23369219.406 7  23369223.316 5  23369223.387 7  23369222.160 8 122806072.465 7  95693063.896 5  95693068.892 7  91705848.365 8        44.900          34.300          46.300          50.800
R04  22641013.711 6  22641016.168 7 121241603.083 6  94299030.849 7        41.800          44.400
R06  20811634.320 6                 111054857.046 6                        39.000
R19  22777435.602 6  22777438.680 7 121843916.021 6  94767508.635 7        41.000          44.200
R20  19741718.805 7  19741721.969 8 105567906.290 7  82108315.300 8        44.300          48.300
R21  21232554.961 7  21232558.344 7 113619839.314 7  88370896.545 7        47.600          45.800
> 2018 04 26 22 16 30.0000000  0 19
E03  26126339.617 7  26126341.801 9 137294841.756 7 103862630.857 9        44.900          54.300
E07  25649475.789 7  25649478.492 9 134788904.764 7 101966905.529 9        45.700          54.900
E08  21768459.773 8  21768460.391 9 114394117.342 8  86538315.355 9        49.800          58.700
E26  24188964.836 7  24188967.508 8 127113871.199 7  96160799.464 8        45.900          53.300
G01  20735513.813 8  20735518.645 7  20735518.223 8  20735517.020 9 108965859.818 8  84908496.220 7  84908492.216 8  81370623.777 9        51.000          43.100          49.500          54.000
G03  21400149.836 8  21400153.977 6  21400154.188 8  21400153.992 8 112458548.373 8  87630047.321 6  87630062.312 8  83978803.428 8        50.200          41.000          49.000          51.900
G08  21319157.000 8  21319161.523 7  21319161.949 8  21319160.016 8 112032917.865 8  87298404.649 7  87298430.651 8  83660961.270 8        49.100          42.400          50.500          53.200
G11  20219395.547 7  20219396.801 6                                 106253756.738 7  82795054.860 6                                        47.900          39.900
G14  22497908.992 7  22497910.320 5                                 118227306.020 7  92125191.164 5                                        45.600          32.600
G18  20315570.516 8  20315573.055 6                                 106759043.186 8  83188875.057 6                                        50.500          40.900
G22  20672212.438 8  20672211.746 7                                 108633210.472 8  84649217.037 7                                        51.200          43.200
G27  24203366.625 6  24203371.137 5  24203371.059 7  24203370.332 8 127189546.123 6  99108757.235 5  99108757.223 7  94979235.183 8        41.500          30.000          44.200          48.100
G28  23287732.445 7  23287733.820 4                                 122377859.494 7  95359385.199 4                                        42.100          28.100
G32  23370462.820 7  23370467.313 5  23370466.883 7  23370465.922 8 122812607.899 7  95698156.449 5  95698161.452 7  91710728.726 8        44.900          33.800          46.300          50.900
R04  22655654.836 6  22655656.809 7 121319998.607 6  94360005.103 7        41.400          43.700
R06  20786012.063 6                 110918132.396 6                        38.400
R19  22787799.211 6  22787803.094 7 121899359.923 6  94810631.627 7        39.900          43.300
R20  19735565.555 7  19735570.336 8 105535011.382 7  82082730.375 8        44.300          48.600
R21  21207903.523 8  21207905.820 7 113487921.850 8  88268294.092 7        48.100          45.600
> 2018 04 26 22 17 00.0000000  0 19
E03  26130950.828 7  26130952.809 9 137319071.648 7 103880960.613 9        44.500          54.400
E07  25626411.555 7  25626414.230 9 134667701.104 7 101875215.755 9        46.100          54.900
E08  21758510.516 8  21758511.430 9 114341835.380 8  86498764.403 9        49.700          58.700
E26  24169002.172 7  24169005.336 8 127008968.771 7  96081441.487 8        44.900          53.700
G01  20723205.102 8  20723209.723 7  20723209.602 8  20723208.156 9 108901176.818 8  84858093.891 7  84858089.887 8  81322321.543 9        49.900          43.300          50.200          54.400
G03  21380807.445 8  21380811.527 6  21380811.945 8  21380811.777 8 112356906.695 8  87550846.026 6  87550861.022 8  83902902.188 8        49.500          41.100          48.700          52.200
G08  21324388.414 8  21324393.105 7  21324393.402 8  21324391.598 8 112060408.531 8  87319825.947 7  87319851.948 8  83681490.011 8        48.600          43.400          50.000          52.800
G11  20208370.414 7  20208371.586 6                                 106195819.941 7  82749909.308 6                                        47.500          39.900
G14  22489289.727 7  22489291.688 5                                 118182014.486 7  92089899.072 5                                        45.900          32.600
G18  20311281.625 8  20311283.875 6                                 106736504.514 8  83171312.461 6                                        49.800          40.200
G22  20662232.508 8  20662231.715 7                                 108580766.579 8  84608351.668 7                                        50.300          43.500
G27  24216419.297 7  24216424.035 5  24216423.949 7  24216423.465 8 127258138.205 7  99162205.631 5  99162205.642 7  95030456.567 8        43.500          30.900          44.200          48.400
G28  23280156.297 6  23280157.340 4                                 122338047.614 6  95328362.963 4                                        41.400          25.900
G32  23371803.375 7  23371807.328 5  23371807.398 7  23371806.348 8 122819650.555 7  95703644.232 5  95703649.221 7  91715987.854 8        45.100          33.400          46.100          50.700
R04  22670332.805 7  22670335.102 7 121398601.205 7  94421140.435 7        42.300          44.000
R06  20760481.070 6                 110781897.772 6                        38.800
R19  22798218.492 6  22798221.254 7 121955089.510 6  94853976.874 7        41.300          42.800
R20  19729508.109 7  19729512.781 8 105502618.359 7  82057535.802 8        44.100          48.500
R21  21183284.688 7  21183287.625 7 113356183.989 7  88165831.338 7        47.800          44.900
> 2018 04 26 22 17 30.0000000  0 19
E03  26135608.906 7  26135611.129 9 137343551.492 7 103899479.448 9        44.800          54.300
E07  25603383.109 7  25603385.707 9 134546685.247 7 101783668.063 9        46.500          54.900
E08  21748638.523 8  21748639.156 9 114289956.213 8  86459518.158 9        49.700          58.700
E26  24149046.086 7  24149048.918 8 126904097.824 7  96002107.332 8        45.500          53.700
G01  20710943.602 8  20710948.473 7  20710947.949 8  20710946.672 9 108836742.742 8  84807885.515 7  84807881.511 8  81274205.193 9        50.900          43.100          49.800          54.100
G03  21361537.383 8  21361541.730 6  21361541.668 8  21361541.750 8 112255641.398 8  87471938.022 6  87471953.020 8  83827282.021 8        49.400          41.300          49.000          51.900
G08  21329700.672 8  21329705.668 7  21329706.125 8  21329704.395 8 112088327.516 8  87341580.999 7  87341607.001 8  83702338.604 8        48.300          42.200          49.700          53.400
G11  20197427.250 7  20197428.805 6                                 106138315.025 7  82705100.296 6                                        47.500          40.000
G14  22480773.242 7  22480775.418 5                                 118137258.742 7  92055024.471 5                                        45.100          32.600
G18  20307054.148 8  20307056.680 6                                 106714289.248 8  83154001.859 6                                        50.300          40.700
G22  20652329.164 8  20652328.250 7                                 108528722.552 8  84567797.898 7                                        50.500          43.000
G27  24229496.156 7  24229500.383 5  24229500.504 7  24229498.996 7 127326856.140 7  99215752.098 5  99215752.093 7  95081771.916 7        44.100          30.600          43.900          47.500
G28  23272676.156 7  23272677.184 4                                 122298737.701 7  95297731.866 4                                        42.200          27.700
G32  23373240.664 7  23373244.410 5  23373244.848 7  23373243.547 8 122827205.267 7  95709531.028 5  95709536.021 7  91721629.365 8        45.700          33.800          46.000          50.700
R04  22685051.742 7  22685053.035 7 121477413.432 7  94482438.822 7        43.100          44.400
R06  20735043.992 6                 110646162.541 6                        39.100
R19  22808692.727 6  22808693.336 7 122011109.954 6  94897548.313 7        41.100          43.600
R20  19723545.828 7  19723550.355 8 105470734.750 7  82032737.429 8        44.100          48.300
R21  21158702.164 8  21158704.441 7 113224634.738 8  88063515.277 7        48.300          44.700
> 2018 04 26 22 18 00.0000000  0 19
E03  26140311.992 7  26140314.188 9 137368266.561 7 103918176.238 9        44.700          54.300
E07  25580387.836 7  25580390.688 9 134425845.514 7 101692253.592 9        46.300          54.800
E08  21738840.359 8  21738841.105 9 114238466.727 8  86420566.702 9        49.600          58.700
E26  24129093.297 7  24129096.316 8 126799246.070 7  95922787.692 8        45.700          53.700
G01  20698727.164 8  20698732.035 7  20698731.883 8  20698730.586 9 108772544.924 8  84757861.244 7  84757857.239 8  81226265.267 9        50.800          43.200          50.200          54.100
G03  21342336.828 8  21342340.930 6  21342340.891 8  21342341.125 8 112154739.998 8  87393313.567 6  87393328.563 8  83751933.588 8        49.300          41.300          49.100          52.300
G08  21335092.820 8  21335097.227 6  21335097.664 8  21335095.895 8 112116660.508 8  87363658.648 6  87363684.643 8  83723496.354 8        48.500          41.800          49.700          52.700
G11  20186565.352 8  20186565.859 6                                 106081230.390 8  82660618.762 6                                        48.600          39.400
G14  22472356.156 7  22472358.469 5                                 118093026.273 7  92020557.612 5                                        46.000          32.800
G18  20302885.711 8  20302888.340 6                                 106692384.157 8  83136932.954 6                                        50.300          40.700
G22  20642498.844 8  20642498.559 7                                 108477064.436 8  84527544.819 7                                        50.700          43.800
G27  24242594.109 7  24242598.379 5  24242598.234 7  24242597.574 7 127395684.875 7  99269384.885 5  99269384.880 7  95133169.988 7        42.600          32.000          44.600          47.500
G28  23265288.656 6  23265289.508 4                                 122259916.289 6  95267481.432 4                                        41.800          27.600
G32  23374773.016 7  23374776.863 5  23374776.934 7  23374775.590 8 122835257.459 7  95715805.463 5  95715810.466 7  91727642.368 8        45.300          33.000          46.000          50.200
R04  22699805.063 7  22699805.906 7 121556417.978 7  94543886.798 7        43.300          43.700
R06  20709699.250 6                 110510915.837 6                        39.200
R19  22819215.352 6  22819217.406 7 122067406.751 6  94941334.737 7        41.800          42.300
R20  19717676.570 7  19717681.336 8 105439348.868 7  82008326.194 8        44.100          49.000
R21  21134151.797 8  21134154.840 7 113093263.687 8  87961337.822 7        48.100          44.900
> 2018 04 26 22 18 30.0000000  0 19
E03  26145062.656 7  26145064.668 9 137393230.554 7 103937061.334 9        44.300          54.200
E07  25557429.320 7  25557432.273 9 134305198.675 7 101600985.042 9        46.800          54.800
E08  21729119.273 8  21729119.996 9 114187382.156 8  86381921.569 9        49.200          58.700
E26  24109147.438 7  24109150.551 8 126694429.688 7  95843494.810 8        45.300          53.700
G01  20686558.578 8  20686563.863 7  20686563.316 8  20686562.238 9 108708599.264 8  84708033.467 7  84708029.463 8  81178513.639 9        51.200          43.400          50.000          54.000
G03  21323208.219 8  21323212.359 6  21323212.793 8  21323212.492 8 112054218.479 8  87314985.122 6  87315000.111 8  83676868.834 8        49.200          41.200          49.200          52.300
G08  21340565.844 8  21340570.531 6  21340570.746 8  21340569.141 8 112145421.586 8  87386069.883 6  87386095.883 8  83744973.791 8        48.800          41.700          49.400          53.300
G11  20175784.578 8  20175786.242 6                                 106024582.666 8  82616477.675 6                                        48.100          39.400
G14  22464041.219 7  22464042.914 5                                 118049332.742 7  91986510.724 5                                        44.500          32.700
G18  20298779.719 8  20298781.730 6                                 106670804.786 8  83120117.869 6                                        50.400          40.600
G22  20632744.617 8  20632744.195 7                                 108425807.243 8  84487604.158 7                                        50.200          43.600
G27  24255715.000 7  24255719.121 5  24255719.379 7  24255718.902 7 127464637.861 7  99323114.465 5  99323114.463 7  95184660.847 7        42.600          30.400          44.600          47.900
G28  23257996.305 7  23257998.309 4                                 122221598.255 7  95237623.227 4                                        42.600          27.100
G32  23376402.117 7  23376406.836 5  23376406.492 7  23376405.387 8 122843820.993 7  95722478.364 5  95722483.360 7  91734037.222 8        45.500          33.300          46.000          50.500
R04  22714596.234 7  22714597.301 7 121635626.923 7  94605493.743 7        43.700          43.000
R06  20684449.422 6                 110376176.229 6                        39.800
R19  22829793.398 7  22829795.230 7 122123994.497 7  94985347.409 7        42.000          42.900
R20  19711904.063 7  19711907.926 8 105408477.555 7  81984315.169 8        44.400          48.900
R21  21109638.672 7  21109641.723 7 112962089.403 7  87859313.387 7        47.900          45.200
> 2018 04 26 22 19 00.0000000  0 19
E03  26149859.609 7  26149861.602 9 137418438.423 7 103956130.931 9        44.600          54.300
E07  25534507.617 7  25534510.281 9 134184742.680 7 101509860.878 9        46.800          54.800
E08  21719474.477 8  21719475.293 9 114136699.003 8  86343580.104 9        49.900          58.700
E26  24089207.641 7  24089210.754 9 126589646.067 7  95764226.711 9        45.900          54.000
G01  20674437.680 8  20674442.730 7  20674442.430 8  20674441.105 9 108644902.826 8  84658399.882 7  84658395.885 8  81130948.127 9        50.800          43.400          50.200          54.200
G03  21304151.195 8  21304155.809 6  21304156.082 8  21304155.887 8 111954073.938 8  87236950.433 6  87236965.430 8  83602085.594 8        50.300          41.400          49.500          52.700
G08  21346119.344 8  21346123.863 7  21346124.230 8  21346122.707 8 112174605.934 8  87408810.930 7  87408836.925 8  83766767.291 8        50.000          42.100          49.400          53.200
G11  20165088.148 7  20165089.145 6                                 105968369.399 7  82572675.142 6                                        47.600          39.400
G14  22455829.094 7  22455830.527 5                                 118006175.579 7  91952881.776 5                                        45.000          33.200
G18  20294734.336 8  20294736.711 6                                 106649547.517 8  83103553.765 6                                        50.400          40.600
G22  20623066.453 8  20623065.770 7                                 108374946.951 8  84447972.771 7                                        50.700          43.600
G27  24268858.594 7  24268863.625 5  24268863.375 7  24268862.000 7 127533709.619 7  99376936.593 5  99376936.591 7  95236240.400 7        43.500          33.100          45.800          47.800
G28  23250799.898 7  23250801.480 4                                 122183779.727 7  95208154.243 4                                        43.100          27.200
G32  23378128.484 7  23378132.773 5  23378133.098 7  23378131.734 8 122852890.926 7  95729545.839 5  95729550.831 7  91740810.215 8        45.200          33.600          46.200          50.700
R04  22729426.039 7  22729426.219 7 121715033.068 7  94667254.064 7        43.700          43.000
R06  20659294.836 6                 110241942.330 6                        39.300
R19  22840425.484 6  22840427.512 7 122180868.775 6  95029582.961 7        41.400          42.900
R20  19706226.602 7  19706230.758 8 105378118.953 7  81960702.916 8        43.900          48.900
R21  21085162.266 8  21085164.387 7 112831111.249 8  87757441.516 7        48.400          45.600
> 2018 04 26 22 19 30.0000000  0 19
E03  26154700.555 7  26154703.117 9 137443880.014 7 103975377.315 9        44.700          54.400
E07  25511620.523 7  25511623.219 9 134064470.340 7 101418875.638 9        46.800          54.800
E08  21709904.875 8  21709905.332 9 114086408.569 8  86305535.721 9        49.300          58.700
E26  24069272.750 7  24069275.766 8 126484887.477 7  95684977.548 8        45.500          53.700
G01  20662362.469 8  20662367.590 7  20662367.344 8  20662365.789 9 108581447.497 8  84608954.179 7  84608950.175 8  81083562.665 9        51.700          43.200          50.300          54.000
G03  21285164.094 8  21285168.656 6  21285168.766 8  21285168.734 8 111854298.418 8  87159203.276 6  87159218.273 8  83527577.906 8        49.600          41.700          49.400          52.300
G08  21351751.539 8  21351755.668 6  21351756.188 8  21351754.570 8 112204203.540 8  87431873.992 6  87431899.993 8  83788869.393 8        49.500          41.400          49.000          53.000
G11  20154472.281 8  20154473.820 6                                 105912583.074 8  82529205.278 6                                        48.300          39.600
G14  22447716.281 7  22447717.965 5                                 117963546.471 7  91919664.295 5                                        45.100          32.400
G18  20290748.453 8  20290750.832 6                                 106628604.126 8  83087234.239 6                                        49.500          40.500
G22  20613461.984 8  20613460.977 7                                 108324473.807 8  84408643.051 7                                        50.300          43.800
G27  24282023.688 7  24282027.969 5  24282027.648 7  24282027.105 7 127602889.677 7  99430843.128 5  99430843.130 7  95287900.815 7        43.000          32.400          45.700          47.600
G28  23243697.141 6  23243697.863 4                                 122146451.674 6  95179067.467 4                                        41.400          27.900
G32  23379949.406 7  23379953.594 5  23379953.652 7  23379952.086 8 122862457.047 7  95736999.957 5  95737004.953 7  91747953.748 8        44.700          33.100          46.500          50.300
R04  22744287.984 7  22744288.898 7 121794624.116 7  94729158.211 7        44.100          43.100
R06  20634231.750 6                 110108208.069 6                        39.300
R19  22851109.883 7  22851111.711 7 122238019.404 7  95074033.443 7        42.200          43.400
R20  19700643.148 7  19700647.910 8 105348265.226 7  81937483.352 8        43.800          48.200
R21  21060722.508 8  21060724.301 7 112700323.324 8  87655717.600 7        48.600          45.600
> 2018 04 26 22 20 00.0000000  0 19
E03  26159585.789 7  26159588.066 9 137469550.771 7 103994797.074 9        44.000          54.400
E07  25488768.164 7  25488770.832 9 133944380.212 7 101328028.239 9        46.800          54.800
E08  21700408.703 8  21700409.473 9 114036507.882 8  86267786.188 9        50.000          58.700
E26  24049342.328 7  24049345.211 8 126380151.888 7  95605745.782 8        45.900          53.900
G01  20650332.828 8  20650337.879 7  20650337.297 8  20650335.961 9 108518230.937 8  84559694.531 7  84559690.535 8  81036355.504 9        52.300          43.600          50.200          54.000
G03  21266247.938 8  21266251.910 6  21266251.867 8  21266251.871 8 111754889.587 8  87081741.865 6  87081756.855 8  83453344.058 8        49.700          41.400          49.700          53.200
G08  21357461.227 8  21357465.840 6  21357466.035 8  21357464.742 8 112234210.021 8  87455255.670 6  87455281.672 8  83811276.834 8        49.900          41.400          49.100          53.200
G11  20143937.266 7  20143938.418 6                                 105857222.170 7  82486066.912 6                                        47.600          39.600
G14  22439704.469 7  22439706.844 5                                 117921442.895 7  91886856.311 5                                        43.600          32.300
G18  20286822.656 8  20286824.879 6                                 106607971.729 8  83071157.052 6                                        50.200          40.600
G22  20603930.266 8  20603929.707 7                                 108274384.605 8  84369612.517 7                                        50.900          43.900
G27  24295206.742 6  24295212.035 5  24295211.875 7  24295210.703 7 127672173.229 6  99484830.291 5  99484830.286 7  95339638.529 7        41.800          31.500          45.000          46.300
G28  23236686.016 6  23236687.488 4                                 122109610.590 6  95150360.134 4                                        41.300          27.300
G32  23381863.203 7  23381867.363 5  23381866.988 7  23381865.797 8 122872514.984 7  95744837.321 5  95744842.310 7  91755464.553 8        45.000          33.800          45.500          50.500
R04  22759185.008 7  22759186.359 7 121874393.194 7  94791200.823 7        44.300          42.500
R06  20609264.719 6                 109974973.534 6                        39.700
R19  22861843.188 6  22861846.320 7 122295442.325 6  95118695.696 7        41.000          43.100
R20  19695154.570 7  19695159.039 8 105318915.357 7  81914655.673 8        43.400          48.900
R21  21036315.328 8  21036318.898 7 112569725.502 8  87554141.533 7        48.200          45.200
> 2018 04 26 22 20 30.0000000  0 19
E03  26164516.648 7  26164519.223 9 137495463.733 7 104014400.059 9        44.300          54.400
E07  25465953.617 7  25465955.895 9 133824488.344 7 101237330.830 9        46.200          54.900
E08  21690989.813 8  21690990.582 9 113987011.450 8  86230342.464 9        50.300          58.700
E26  24029419.211 7  24029421.973 9 126275454.795 7  95526543.141 9        45.500          54.000
G01  20638351.383 8  20638356.332 7  20638355.801 8  20638354.355 8 108455268.270 8  84510632.728 7  84510628.724 8  80989337.938 8        51.400          44.000          50.400          53.900
G03  21247402.773 8  21247407.527 6  21247407.520 8  21247407.660 8 111655862.644 8  87004578.024 6  87004593.021 8  83379395.381 8        49.800          41.000          49.100          52.900
G08  21363252.047 8  21363256.066 6  21363256.531 8  21363255.086 8 112264638.106 8  87478965.859 6  87478991.860 8  83833999.099 8        49.700          41.000          49.700          53.500
G11  20133487.039 7  20133487.656 6                                 105802302.141 7  82443272.088 6                                        47.000          40.100
G14  22431795.461 7  22431797.113 5                                 117879879.703 7  91854469.415 5                                        43.400          33.200
G18  20282958.547 8  20282960.402 6                                 106587665.089 8  83055333.692 6                                        50.000          40.300
G22  20594474.102 8  20594473.461 7                                 108224693.296 8  84330892.016 7                                        50.800          43.400
G27  24308414.203 7  24308418.297 5  24308418.094 7  24308417.609 7 127741572.881 7  99538907.961 5  99538907.960 7  95391462.974 7        42.700          30.200          43.600          45.200
G28  23229771.281 6  23229772.148 4                                 122073270.462 6  95122043.163 4                                        41.600          28.100
G32  23383873.117 7  23383876.875 5  23383877.055 7  23383875.895 8 122883077.777 7  95753068.073 5  95753073.069 7  91763352.354 8        44.400          33.500          45.900          50.400
R04  22774115.164 7  22774117.672 7 121954351.651 7  94853390.736 7        43.600          42.700
R06  20584393.633 6                 109842255.744 6                        40.400
R19  22872632.992 7  22872634.301 6 122353151.385 7  95163580.518 6        42.200          41.400
R20  19689764.188 7  19689768.227 8 105290085.266 7  81892232.263 8        44.500          48.500
R21  21011949.742 8  21011952.270 7 112439335.870 8  87452727.376 7        48.200          45.700
> 2018 04 26 22 21 00.0000000  0 19
E03  26169491.758 7  26169494.094 9 137521607.642 7 104034177.753 9        44.300          54.500
E07  25443174.758 7  25443177.340 9 133704786.451 7 101146777.127 9        46.300          54.900
E08  21681646.195 8  21681646.961 9 113937909.497 8  86193197.166 9        50.100          58.700
E26  24009501.695 7  24009504.500 8 126170787.458 7  95447363.007 8        45.900          53.900
G01  20626416.594 8  20626421.746 7  20626421.551 8  20626419.770 8 108392550.438 8  84461761.695 7  84461757.699 8  80942503.202 8        51.200          43.300          50.900          53.800
G03  21228629.828 8  21228634.504 6  21228634.703 8  21228634.758 8 111557208.497 8  86927704.674 6  86927719.670 8  83305725.095 8        50.000          41.600          48.700          52.600
G08  21369120.594 8  21369124.676 6  21369125.078 8  21369123.813 8 112295477.190 8  87502996.319 6  87503022.321 8  83857028.284 8        49.800          41.800          49.500          53.000
G11  20123118.281 8  20123119.207 6                                 105747814.818 8  82400814.438 6                                        48.200          40.000
G14  22423987.813 7  22423989.035 5                                 117838847.996 7  91822496.669 5                                        44.200          32.400
G18  20279154.375 8  20279156.477 6                                 106567674.680 8  83039756.745 6                                        50.100          41.200
G22  20585092.141 8  20585091.172 7                                 108175389.491 8  84292473.473 7                                        50.400          44.300
G27  24321639.648 6  24321644.027 4  24321644.582 7  24321642.992 7 127811077.175 6  99593067.180 4  99593067.183 7  95443365.564 7        40.000          26.800          43.400          44.400
G28  23222948.930 6  23222949.535 4                                 122037420.890 6  95094108.432 4                                        41.500          28.100
G32  23385976.992 7  23385981.531 5  23385981.145 7  23385979.848 8 122894134.192 7  95761683.464 5  95761688.459 7  91771608.778 8        44.000          33.400          46.600          50.600
R04  22789079.875 7  22789081.695 6 122034486.099 7  94915717.528 6        43.100          41.500
R06  20559617.102 6                 109710047.634 6                        39.300
R19  22883472.180 6  22883474.070 6 122411135.418 6  95208679.239 6        41.700          41.200
R20  19684467.266 7  19684472.313 8 105261766.213 7  81870206.336 8        44.300          48.800
R21  20987621.445 8  20987623.422 7 112309147.391 8  87351469.682 7        48.500          44.900
> 2018 04 26 22 21 30.0000000  0 19
E03  26174510.031 7  26174512.395 9 137547978.563 7 104054127.187 9        45.100          54.500
E07  25420432.273 7  25420435.047 9 133585273.579 7 101056366.413 9        46.300          55.100
E08  21672377.094 8  21672377.668 9 113889199.543 8  86156348.408 9        50.000          58.700
E26  23989589.359 7  23989592.379 9 126066148.329 7  95368204.209 9        45.500          54.000
G01  20614527.555 8  20614533.031 7  20614532.699 8  20614531.230 9 108330075.583 8  84413079.991 7  84413075.986 8  80895849.903 9        51.400          43.600          50.300          54.400
G03  21209927.797 8  21209932.098 6  21209932.422 8  21209932.406 8 111458925.340 8  86851120.415 6  86851135.411 8  83232331.846 8        50.600          41.400          49.300          52.500
G08  21375066.383 8  21375070.785 6  21375070.750 8  21375069.633 8 112326723.023 8  87527343.720 6  87527369.722 8  83880361.208 8        49.500          40.900          49.800          53.600
G11  20112831.625 8  20112832.520 6                                 105693758.923 8  82358692.960 6                                        48.000          39.800
G14  22416280.016 7  22416282.352 5                                 117798345.734 7  91790936.469 5                                        44.700          33.200
G18  20275410.219 8  20275412.109 6                                 106547998.238 8  83024424.459 6                                        49.800          40.900
G22  20575782.523 8  20575782.504 7                                 108126470.309 8  84254354.637 7                                        50.300          43.600
G27  24334885.195 6  24334889.586 4  24334889.832 7  24334888.020 7 127880681.702 6  99647304.467 4  99647304.462 7  95495342.960 7        39.300          27.500          42.800          43.100
G28  23216220.203 6  23216220.996 4                                 122002059.101 6  95066553.815 4                                        41.900          27.300
G32  23388173.656 7  23388178.270 5  23388178.316 7  23388176.824 8 122905680.313 7  95770680.440 5  95770685.437 7  91780230.871 8        44.900          33.300          47.000          50.200
R04  22804077.391 7  22804078.813 6 122114790.565 7  94978176.547 6        42.900          41.500
R06  20534936.430 6                 109578349.577 6                        39.800
R19  22894362.094 6  22894363.004 6 122469391.021 6  95253989.146 6        40.800          38.800
R20  19679267.898 7  19679271.785 8 105233957.393 7  81848577.247 8        44.500          48.600
R21  20963329.273 7  20963332.355 7 112179160.532 7  87250368.814 7        47.900          45.600
> 2018 04 26 22 22 00.0000000  0 20
E03  26179573.133 7  26179575.551 9 137574584.503 7 104074254.407 9        44.900          54.500
E07  25397727.773 7  25397730.520 9 133465960.778 7 100966107.066 9        46.500          55.400
E08  21663184.195 8  21663184.805 9 113840891.084 8  86119803.381 9        49.400          58.700
E26  23969684.484 7  23969687.496 9 125961548.023 7  95289074.796 9        46.000          54.300
G01  20602687.336 8  20602692.602 7  20602692.348 8  20602690.742 8 108267853.886 8  84364595.563 7  84364591.559 8  80849385.663 8        51.500          43.800          51.000          53.900
G03  21191296.945 8  21191301.480 6  21191301.516 8  21191301.559 8 111361023.383 8  86774833.180 6  86774848.184 8  83159223.253 8        49.600          41.500          48.800          52.800
G08  21381091.297 8  21381095.422 6  21381095.871 8  21381094.441 8 112358384.253 8  87552014.810 6  87552040.812 8  83904004.327 8        50.300          41.300          49.000          53.000
G11  20102629.297 7  20102630.332 6                                 105640145.101 7  82316915.967 6                                        46.200          40.100
G14  22408675.094 7  22408676.914 5                                 117758382.608 7  91759796.375 5                                        43.800          32.400
G18  20271727.344 8  20271729.613 6                                 106528645.450 8  83009344.361 6                                        49.100          40.900
G22  20566548.820 8  20566547.875 7                                 108077944.219 8  84216542.110 7                                        49.800          43.400
G23  24834770.719 6  24834770.480 3                                 130507795.423 6 101694226.410 3                                        37.300          21.800
G27  24348151.281 6  24348155.301 4  24348155.566 7  24348154.730 7 127950394.234 6  99701625.891 4  99701625.897 7  95547401.010 7        38.600          26.000          43.000          45.400
G28  23209585.977 7  23209586.379 4                                 121967194.535 7  95039386.619 4                                        42.700          28.300
G32  23390466.078 7  23390470.242 5  23390470.543 7  23390468.969 8 122917724.128 7  95780065.245 5  95780070.240 7  91789224.635 8        43.500          33.000          47.000          50.700
R04  22819107.602 7  22819107.629 6 122195271.044 7  95040772.495 6        42.200          41.900
R06  20510355.234 6                 109447173.519 6                        39.500
R19  22905305.172 6  22905306.684 6 122527926.761 6  95299516.999 6        39.700          38.000
R20  19674164.156 7  19674168.484 8 105206669.926 7  81827353.652 8        44.300          48.600
R21  20939078.141 7  20939081.449 7 112049388.257 7  87149434.833 7        47.900          45.600
> 2018 04 26 22 22 30.0000000  0 20
E03  26184679.063 7  26184681.680 9 137601417.838 7 104094553.646 9        44.900          54.600
E07  25375060.633 7  25375063.238 9 133346843.421 7 100875995.565 9        46.600          55.200
E08  21654066.453 8  21654067.121 9 113792977.919 8  86083557.391 9        50.100          58.700
E26  23949785.836 7  23949789.063 8 125856981.385 7  95209970.833 8        45.700          53.900
G01  20590894.305 8  20590899.328 7  20590899.055 8  20590897.410 8 108205879.830 8  84316304.104 7  84316300.101 8  80803106.346 8        51.400          43.500          50.200          53.800
G03  21172738.570 8  21172743.109 6  21172743.313 8  21172743.184 8 111263497.080 8  86698838.673 6  86698853.670 8  83086395.191 8        50.200          41.700          49.400          52.500
G08  21387193.719 8  21387198.133 6  21387198.781 8  21387197.273 8 112390453.190 8  87577003.594 6  87577029.596 8  83927951.908 8        50.300          41.100          49.100          53.700
G11  20092510.422 7  20092511.203 6                                 105586968.574 7  82275479.712 6                                        46.800          40.400
G14  22401172.289 7  22401174.109 5                                 117718953.112 7  91729072.100 5                                        44.300          33.000
G18  20268105.086 8  20268107.309 6                                 106509610.376 8  82994511.846 6                                        48.700          40.800
G22  20557388.289 8  20557387.215 7                                 108029805.000 8  84179031.033 7                                        50.800          43.800
G23  24807776.570 5  24807776.125 3                                 130365942.599 5 101583691.809 3                                        33.900          19.300
G27  24361436.672 6  24361440.406 4  24361440.324 7  24361439.191 7 128020206.689 6  99756025.206 4  99756025.212 7  95599533.709 7        39.500          26.600          42.000          45.100
G28  23203044.398 6  23203045.699 4                                 121932820.076 6  95012601.344 4                                        41.400          27.600
G32  23392851.117 7  23392855.480 5  23392855.582 7  23392853.738 8 122930257.947 7  95789831.861 5  95789836.857 7  91798584.315 8        43.000          33.000          46.700          49.800
R04  22834166.305 7  22834167.949 6 122275917.906 7  95103497.807 6        42.100          41.700
R06  20485870.914 6                 109316516.093 6                        39.400
R19  22916298.883 6  22916300.547 6 122586735.498 6  95345257.164 6        38.200          39.100
R20  19669158.172 7  19669162.223 8 105179898.696 7  81806531.579 8        44.200          49.000
R21  20914866.758 8  20914869.660 7 111919827.349 8  87048665.241 7        48.200          46.200
> 2018 04 26 22 23 00.0000000  0 20
E03  26189828.680 7  26189831.223 9 137628478.845 7 104115025.116 9        44.700          54.700
E07  25352431.023 7  25352433.793 9 133227924.768 7 100786034.380 9        46.300          55.300
E08  21645024.484 8  21645025.289 9 113745461.793 8  86047611.762 9        49.900          58.700
E26  23929894.734 7  23929897.641 9 125752451.176 7  95130894.438 9        46.200          54.000
G01  20579148.516 8  20579153.699 7  20579153.406 8  20579151.723 8 108144155.937 8  84268207.569 7  84268203.565 8  80757013.838 8        51.400          43.700          50.700          53.700
G03  21154251.883 8  21154256.109 6  21154256.461 8  21154256.184 8 111166348.833 8  86623138.762 6  86623153.758 8  83013849.446 8        49.800          41.700          48.700          52.400
G08  21393374.156 8  21393378.234 6  21393378.699 8  21393377.254 8 112422930.042 8  87602310.225 6  87602336.226 8  83952204.097 8        49.800          41.300          49.300          53.700
G11  20082474.836 7  20082475.617 6                                 105534232.358 7  82234386.565 6                                        47.100          39.500
G14  22393771.500 7  22393772.742 5                                 117680059.584 7  91698765.452 5                                        44.700          32.600
G18  20264543.563 8  20264545.703 6                                 106490895.136 8  82979928.538 6                                        49.100          40.600
G22  20548301.211 8  20548301.047 7                                 107982053.503 8  84141822.086 7                                        49.800          43.600
G23  24780775.609 6  24780776.398 3                                 130224056.981 6 101473131.614 3                                        37.800          22.800
G27  24374740.133 6  24374744.738 4  24374744.977 7  24374743.465 7 128090119.123 6  99810502.402 4  99810502.397 7  95651741.012 7        39.200          28.500          43.200          45.900
G28  23196596.648 6  23196597.914 4                                 121898937.011 6  94986198.947 4                                        41.300          27.400
G32  23395329.219 7  23395333.910 5  23395333.660 7  23395332.051 8 122943282.105 7  95799980.563 5  95799985.559 7  91808310.154 8        42.700          32.700          46.200          50.200
R04  22849257.664 6  22849258.727 6 122356729.297 6  95166351.108 6        40.400          41.800
R06  20461483.078 6                 109186381.203 6                        38.800
R19  22927343.938 6  22927345.430 6 122645817.688 6  95391209.944 6        37.200          40.000
R20  19664249.555 7  19664253.191 8 105153647.247 7  81786113.780 8        43.900          49.300
R21  20890696.367 8  20890698.570 7 111790482.619 8  86948063.817 7        48.000          46.000
> 2018 04 26 22 23 30.0000000  0 20
E03  26195022.586 7  26195024.891 9 137655771.865 7 104135672.110 9        44.200          54.700
E07  25329840.578 7  25329843.500 9 133109212.198 7 100696229.098 9        46.500          55.400
E08  21636059.242 8  21636059.969 9 113698348.499 8  86011970.869 9        49.900          58.700
E26  23910011.508 7  23910014.383 9 125647964.340 7  95051850.848 9        46.300          54.200
G01  20567451.711 8  20567456.707 7  20567456.398 8  20567454.789 8 108082688.625 8  84220310.979 7  84220306.981 8  80711112.937 8        50.400          43.500          50.000          53.900
G03  21135838.398 8  21135842.801 6  21135843.070 8  21135842.699 8 111069585.149 8  86547738.498 6  86547753.495 8  82941590.863 8        50.000          41.600          49.100          52.500
G08  21399632.805 8  21399637.063 6  21399637.359 8  21399636.082 8 112455819.474 8  87627938.358 6  87627964.360 8  83976764.385 8        50.300          41.800          49.300          53.000
G11  20072524.750 7  20072525.488 6                                 105481943.548 7  82193642.037 6                                        47.200          40.800
G14  22386473.023 7  22386474.805 5                                 117641708.033 7  91668881.142 5                                        45.100          32.800
G18  20261044.234 8  20261046.441 6                                 106472505.521 8  82965598.960 6                                        48.300          41.300
G22  20539289.500 8  20539289.035 7                                 107934694.965 8  84104919.335 7                                        50.000          43.700
G23  24753771.453 6  24753772.086 3                                 130082146.698 6 101362552.223 3                                        37.500          22.200
G27  24388063.977 6  24388068.176 4  24388068.148 7  24388066.902 7 128160135.479 6  99865060.583 4  99865060.590 7  95704025.942 7        40.100          27.800          43.400          46.200
G28  23190242.461 6  23190244.051 4                                 121865550.866 6  94960183.784 4                                        41.400          27.900
G32  23397902.047 6  23397906.469 5  23397906.223 7  23397904.434 8 122956800.815 6  95810514.627 5  95810519.615 7  91818405.294 8        41.900          32.400          46.400          49.700
R04  22864378.156 6  22864381.105 6 122437708.115 6  95229334.632 6        40.900          41.500
R06  20437194.672 6                 109056777.786 6                        39.200
R19  22938438.828 6  22938441.844 6 122705178.234 6  95437379.230 6        37.100          39.500
R20  19659438.453 7  19659442.988 8 105127922.538 7  81766105.672 8        43.900          48.900
R21  20866567.211 7  20866569.770 7 111661363.271 7  86847637.669 7        47.900          46.100
> 2018 04 26 22 24 00.0000000  0 20
E03  26200262.266 7  26200264.691 9 137683307.245 7 104156502.440 9        44.700          54.700
E07  25307291.938 7  25307295.035 9 132990719.014 7 100606589.779 9        46.600          55.500
E08  21627172.516 8  21627173.469 9 113651649.761 8  85976643.587 9        50.100          58.800
E26  23890139.133 7  23890141.930 9 125543533.680 7  94972849.764 9        45.900          54.000
G01  20555805.914 8  20555811.215 7  20555810.703 8  20555809.297 8 108021490.453 8  84172624.092 7  84172620.087 8  80665413.008 8        51.500          43.600          50.400          53.800
G03  21117500.664 8  21117504.703 6  21117504.902 8  21117504.660 8 110973218.468 8  86472647.604 6  86472662.601 8  82869628.759 8        50.500          41.800          49.000          52.300
G08  21405971.539 8  21405976.258 6  21405976.539 8  21405975.277 8 112489131.846 8  87653896.048 6  87653922.050 8  84001640.506 8        50.300          41.600          49.400          53.100
G11  20062661.680 7  20062662.680 6                                 105430115.092 7  82153256.235 6                                        46.400          39.900
G14  22379280.703 7  22379281.719 5                                 117603910.733 7  91639428.713 5                                        44.200          32.600
G18  20257608.953 8  20257611.512 6                                 106454453.697 8  82951532.605 6                                        49.100          41.100
G22  20530353.891 8  20530353.629 7                                 107887740.518 8  84068331.462 7                                        50.700          43.900
G23  24726765.023 6  24726765.227 3                                 129940226.182 6 101251964.857 3                                        37.700          22.900
G27  24401408.883 6  24401413.094 4  24401413.371 7  24401412.172 7 128230265.807 6  99919707.588 4  99919707.575 7  95756395.983 7        39.900          28.400          43.200          46.700
G28  23183986.344 6  23183988.297 4                                 121832672.685 6  94934564.411 4                                        41.700          27.000
G32  23400570.375 7  23400574.215 5  23400574.309 7  23400572.766 8 122970824.369 7  95821442.075 5  95821447.063 7  91828877.437 8        42.000          32.400          46.200          49.600
R04  22879535.609 6  22879536.547 7 122518862.629 6  95292454.807 7        41.700          42.600
R06  20413008.992 6                 108927720.561 6                        38.000
R19  22949591.453 6  22949593.391 6 122764828.273 6  95483773.697 6        38.600          41.100
R20  19654729.234 7  19654732.895 8 105102738.119 7  81746517.780 8        44.500          48.200
R21  20842483.195 8  20842485.656 7 111532484.285 8  86747398.471 7        48.800          46.300
> 2018 04 26 22 24 30.0000000  0 20
E03  26205545.156 7  26205547.262 9 137711067.445 7 104177502.851 9        44.700          54.900
E07  25284782.711 7  25284785.602 9 132872430.646 7 100517105.416 9        47.000          55.700
E08  21618362.164 8  21618362.816 9 113605349.491 8  85941617.741 9        50.200          58.700
E26  23870274.281 7  23870277.105 9 125439144.209 7  94893879.818 9        45.400          54.000
G01  20544208.859 8  20544213.273 7  20544212.773 8  20544211.242 8 107960545.979 8  84125134.898 7  84125130.901 8  80619902.532 8        52.000          43.700          50.900          53.800
G03  21099234.625 8  21099239.383 6  21099239.645 8  21099239.398 8 110877233.321 8  86397853.992 6  86397868.996 8  82797951.554 8        49.900          41.800          49.000          52.800
G08  21412388.094 8  21412392.344 6  21412393.066 8  21412391.543 8 112522849.318 8  87680169.395 6  87680195.396 8  84026819.137 8        50.800          41.400          49.500          53.000
G11  20052883.641 7  20052884.934 6                                 105378732.228 7  82113217.649 6                                        47.000          40.000
G14  22372190.055 7  22372192.074 5                                 117566651.949 7  91610395.892 5                                        44.400          32.800
G18  20254235.281 8  20254237.246 6                                 106436723.765 8  82937717.072 6                                        49.800          40.400
G22  20521492.773 8  20521492.133 7                                 107841173.954 8  84032045.836 7                                        49.900          43.800
G23  24699754.023 6  24699753.895 3                                 129798281.938 6 101141358.981 3                                        39.600          21.300
G27  24414773.336 6  24414777.586 4  24414777.301 7  24414776.430 7 128300492.250 6  99974429.483 4  99974429.476 7  95808837.800 7        41.300          28.300          42.400          46.000
G28  23177823.586 6  23177824.875 4                                 121800285.992 6  94909328.033 4                                        41.200          26.300
G32  23403331.266 7  23403336.148 5  23403336.258 7  23403334.582 8 122985335.158 7  95832749.185 5  95832754.184 7  91839713.419 8        42.200          32.300          46.700          50.200
R04  22894717.977 6  22894720.371 7 122600173.084 6  95355696.234 7        41.300          42.700
R06  20388923.844 6                 108799194.999 6                        39.500
R19  22960792.742 6  22960795.008 6 122824750.178 6  95530379.603 6        38.300          40.000
R20  19650117.438 7  19650121.715 8 105078078.944 7  81727338.420 8        43.700          48.700
R21  20818441.789 8  20818443.852 7 111403832.618 8  86647336.083 7        48.900          46.000
> 2018 04 26 22 25 00.0000000  0 20
E03  26210868.938 7  26210870.918 9 137739043.973 7 104198666.914 9        44.700          54.800
E07  25262311.086 7  25262313.902 9 132754341.635 7 100427771.845 9        46.300          55.800
E08  21609625.969 8  21609626.578 9 113559440.556 8  85906887.936 9        50.100          58.700
E26  23850416.359 7  23850419.207 9 125334789.983 7  94814936.558 9        45.900          54.300
G01  20532658.320 8  20532663.840 7  20532663.320 8  20532661.863 9 107899848.971 8  84077838.533 7  84077834.529 8  80574576.854 9        51.900          43.400          51.300          54.000
G03  21081040.992 8  21081045.375 6  21081045.246 8  21081045.273 8 110781623.288 8  86323352.695 6  86323367.685 8  82726554.482 8        50.700          41.600          48.800          52.400
G08  21418880.008 8  21418884.168 6  21418884.445 8  21418883.070 8 112556963.699 8  87706752.029 6  87706778.030 8  84052294.155 8        50.800          41.700          48.800          52.700
G11  20043189.836 7  20043190.973 6                                 105327789.061 7  82073521.681 6                                        47.200          40.800
G14  22365202.031 7  22365203.410 5                                 117529925.131 7  91581777.606 5                                        44.900          33.200
G18  20250921.055 8  20250923.586 6                                 106419309.109 8  82924147.214 6                                        48.500          40.900
G22  20512703.734 8  20512703.262 7                                 107794987.281 8  83996056.229 7                                        49.500          44.000
G23  24672738.211 6  24672738.254 4                                 129656309.410 6 101030731.060 4                                        40.600          26.500
G27  24428153.164 6  24428156.926 4  24428156.773 6  24428156.121 7 128370805.905 6 100029219.339 4 100029219.339 6  95861344.757 7        41.200          27.600          41.200          45.200
G28  23171753.117 7  23171754.305 4                                 121768383.228 7  94884468.741 4                                        43.200          28.500
G32  23406184.117 6  23406188.867 5  23406188.934 7  23406187.184 8 123000324.569 6  95844429.243 5  95844434.239 7  91850906.813 8        41.400          32.300          46.200          49.100
R04  22909929.813 6  22909931.676 7 122681629.188 6  95419050.973 7        41.100          43.000
R06  20364936.633 6                 108671197.527 6                        39.700
R19  22972045.070 6  22972046.387 6 122884935.455 6  95577190.380 6        38.900          39.800
R20  19645603.328 7  19645607.887 8 105053939.226 7  81708563.084 8        44.200          48.800
R21  20794441.984 8  20794444.379 7 111275404.402 8  86547447.480 7        48.800          46.100
> 2018 04 26 22 25 30.0000000  0 20
E03  26216230.781 7  26216233.012 9 137767220.355 7 104219982.165 9        44.900          54.800
E07  25239874.688 7  25239877.816 9 132636438.453 7 100338578.863 9        46.800          56.000
E08  21600961.570 8  21600962.105 9 113513907.926 8  85872442.803 9        50.000          58.700
E26  23830562.438 7  23830565.289 8 125230457.109 7  94736009.435 8        46.200          53.900
G01  20521152.320 8  20521157.250 7  20521157.031 8  20521155.273 8 107839385.120 8  84030723.845 7  84030719.848 8  80529425.272 8        51.600          43.300          51.000          53.700
G03  21062915.250 8  21062920.203 7  21062920.305 8  21062919.926 8 110686373.997 8  86249132.487 7  86249147.477 8  82655426.787 8        50.500          42.200          49.100          52.300
G08  21425443.578 8  21425448.082 6  21425448.578 8  21425446.930 8 112591458.608 8  87733631.172 6  87733657.173 8  84078053.335 8        50.500          41.800          49.600          52.800
G11  20033576.781 7  20033577.793 6                                 105277272.038 7  82034157.771 6                                        46.800          39.800
G14  22358311.039 7  22358312.398 5                                 117493715.878 7  91553562.621 5                                        44.900          33.000
G18  20247664.195 8  20247666.578 6                                 106402194.753 8  82910811.356 6                                        48.600          40.900
G22  20503984.422 8  20503983.621 7                                 107749164.943 8  83960350.526 7                                        50.000          43.800
G23  24645714.250 7  24645713.773 4                                 129514296.035 7 100920071.302 4                                        42.400          28.400
G27  24441547.719 7  24441550.629 4  24441550.402 6  24441549.590 7 128441190.012 7 100084064.098 4 100084064.088 6  95913904.313 7        42.200          26.500          40.800          44.500
G28  23165770.602 7  23165772.316 4                                 121736948.456 7  94859974.113 4                                        42.700          27.100
G32  23409124.305 7  23409128.676 5  23409128.535 7  23409127.285 8 123015776.052 7  95856469.355 5  95856474.352 7  91862445.259 8        42.000          32.600          45.700          49.100
R04  22925165.508 7  22925166.414 7 122763211.904 7  95482504.185 7        42.700          43.200
R06  20341047.383 6                 108543714.687 6                        40.600
R19  22983340.703 6  22983342.281 6 122945368.000 6  95624193.490 6        37.200          38.100
R20  19641183.172 7  19641188.227 8 105030305.069 7  81690180.955 8        44.100          48.900
R21  20770480.750 8  20770483.609 7 111147187.365 8  86447723.141 7        48.400          46.900
> 2018 04 26 22 26 00.0000000  0 20
E03  26221629.867 7  26221632.078 9 137795593.372 7 104241446.166 9        44.800          54.800
E07  25217473.727 7  25217476.883 9 132518720.856 7 100249526.272 9        46.400          56.100
E08  21592368.125 8  21592368.688 9 113468749.712 8  85838280.919 9        50.200          58.700
E26  23810712.406 7  23810715.426 9 125126144.874 7  94657097.928 9        45.600          54.200
G01  20509690.602 8  20509695.773 7  20509695.469 8  20509693.855 8 107779153.318 8  83983789.980 7  83983785.977 8  80484446.985 8        51.300          43.800          50.700          53.900
G03  21044858.680 8  21044863.219 7  21044863.281 8  21044863.121 8 110591484.281 8  86175192.453 7  86175207.449 8  82584567.598 8        50.500          42.000          49.600          52.400
G08  21432079.969 8  21432084.324 7  21432084.828 8  21432083.051 8 112626330.782 8  87760804.296 7  87760830.297 8  84104094.248 8        50.400          42.000          49.700          52.300
G11  20024044.570 7  20024045.770 6                                 105227180.421 7  81995125.343 6                                        45.900          40.000
G14  22351518.758 7  22351520.371 5                                 117458022.214 7  91525749.376 5                                        44.000          33.100
G18  20244464.484 8  20244466.984 6                                 106385379.364 8  82897708.441 6                                        48.300          41.000
G22  20495333.344 8  20495332.730 7                                 107703704.195 8  83924926.567 7                                        49.800          44.100
G23  24618681.641 6  24618681.773 4                                 129372242.763 6 100809380.452 4                                        41.500          27.000
G27  24454953.258 6  24454956.668 3  24454957.191 6  24454956.918 7 128511640.960 6 100138960.944 3 100138960.942 6  95966513.795 7        39.900          23.300          39.700          43.600
G28  23159877.492 6  23159878.996 4                                 121705979.396 6  94835842.413 4                                        41.800          27.000
G32  23412152.680 6  23412156.836 5  23412156.672 7  23412154.980 8 123031686.205 6  95868866.883 5  95868871.879 7  91874326.222 8        41.800          32.700          46.400          49.300
R04  22940422.719 7  22940424.781 7 122844916.337 7  95546052.060 7        42.400          43.600
R06  20317253.086 6                 108416747.774 6                        39.700
R19  22994683.539 5  22994686.137 6 123006044.935 5  95671386.662 6        35.600          37.200
R20  19636857.703 7  19636862.371 8 105007175.700 7  81672191.446 8        43.600          49.100
R21  20746560.469 8  20746562.582 7 111019183.066 8  86348164.250 7        48.700          46.300
> 2018 04 26 22 26 30.0000000  0 20
E03  26227066.883 7  26227069.367 9 137824166.139 7 104263061.264 9        43.800          54.800
E07  25195109.313 7  25195112.441 9 132401194.916 7 100160618.671 9        46.400          56.200
E08  21583846.992 8  21583847.445 9 113423970.374 8  85804405.651 9        50.300          58.700
E26  23790867.422 7  23790870.352 9 125021858.911 7  94578206.296 9        46.000          54.200
G01  20498274.359 8  20498279.297 7  20498279.074 8  20498277.203 8 107719158.892 8  83937041.093 7  83937037.089 8  80439645.962 8        52.200          43.900          51.600          53.800
G03  21026871.305 8  21026875.949 7  21026876.211 8  21026875.906 8 110496959.234 8  86101536.591 7  86101551.595 8  82513980.728 8        50.800          42.500          49.400          52.500
G08  21438788.063 8  21438792.898 6  21438793.109 8  21438791.508 8 112661583.387 8  87788273.854 6  87788299.848 8  84130419.241 8        49.900          41.500          49.700          52.600
G11  20014594.766 7  20014595.477 6                                 105177519.947 7  81956428.869 6                                        46.300          40.200
G14  22344825.289 7  22344827.211 5                                 117422849.167 7  91498341.815 5                                        44.800          32.800
G18  20241322.453 8  20241325.121 6                                 106368867.594 8  82884842.134 6                                        48.700          41.000
G22  20486752.195 8  20486751.266 7                                 107658609.563 8  83889787.907 7                                        50.300          43.900
G23  24591643.898 6  24591643.500 4                                 129230156.902 6 100698664.216 4                                        40.700          24.700
G27  24468373.063 6  24468376.777 3  24468376.391 6  24468375.328 6 128582161.503 6 100193912.053 3 100193912.058 6  96019175.285 6        38.800          22.600          37.600          41.300
G28  23154073.391 7  23154074.828 4                                 121675480.008 7  94812076.658 4                                        43.700          27.800
G32  23415266.930 6  23415271.945 5  23415271.969 7  23415270.438 8 123048058.022 6  95881624.146 5  95881629.143 7  91886551.935 8        41.600          32.800          46.200          49.200
R04  22955703.656 7  22955705.438 7 122926744.017 7  95609695.798 7        42.700          44.100
R06  20293558.094 6                 108290303.391 6                        39.600
R19  23006074.336 5  23006075.902 6 123066969.381 5  95718772.352 6        33.200          37.100
R20  19632629.820 7  19632632.539 8 104984557.461 7  81654599.480 8        44.000          48.700
R21  20722680.617 8  20722683.328 7 110891399.170 8  86248776.789 7        49.100          46.200
> 2018 04 26 22 27 00.0000000  0 20
E03  26232540.836 7  26232543.008 9 137852930.512 7 104284821.334 9        44.200          54.800
E07  25172780.703 7  25172783.535 9 132283855.497 7 100071852.173 9        46.600          56.200
E08  21575396.422 8  21575397.016 9 113379563.209 8  85770811.927 9        50.600          58.700
E26  23771026.680 7  23771029.379 9 124917593.770 7  94499330.408 9        46.100          54.000
G01  20486901.766 8  20486906.766 7  20486906.516 8  20486904.852 8 107659395.934 8  83890472.554 7  83890468.550 8  80395017.785 8        51.300          44.200          50.500          53.800
G03  21008951.961 8  21008956.473 7  21008956.543 8  21008956.195 8 110402792.865 8  86028160.208 7  86028175.196 8  82443661.690 8        49.800          42.500          49.600          52.300
G08  21445567.406 8  21445571.984 6  21445572.215 8  21445570.594 8 112697208.313 8  87816033.530 6  87816059.524 8  84157022.268 8        49.800          41.400          50.100          52.200
G11  20005225.523 7  20005226.758 6                                 105128285.096 7  81918064.059 6                                        45.800          39.600
G14  22338229.836 7  22338231.406 5                                 117388190.489 7  91471335.058 5                                        45.200          32.300
G18  20238237.008 8  20238239.387 6                                 106352653.200 8  82872207.541 6                                        48.300          40.300
G22  20478239.172 8  20478238.363 7                                 107613873.431 8  83854928.592 7                                        48.600          44.100
G23  24564598.531 6  24564598.434 4                                 129088034.186 6 100587919.279 4                                        41.900          25.700
G27  24481804.578 6  24481808.055 3  24481808.008 6  24481806.664 6 128652743.283 6 100248910.865 3 100248910.867 6  96071882.458 6        39.200          21.300          38.600          40.600
G28  23148358.242 7  23148359.199 4                                 121645442.892 7  94788671.140 4                                        43.600          27.500
G32  23418469.266 6  23418473.809 5  23418473.887 7  23418472.066 8 123064883.226 6  95894734.687 5  95894739.679 7  91899116.201 8        41.500          32.700          46.500          48.800
R04  22971005.602 7  22971007.008 7 123008684.355 7  95673427.170 7        43.300          43.500
R06  20269959.031 6                 108164377.396 6                        40.300
R19  23017509.492 5  23017508.699 5 123128134.074 5  95766344.874 5        34.000          34.600
R20  19628493.211 7  19628497.504 8 104962444.456 7  81637400.472 8        43.700          49.200
R21  20698841.844 8  20698844.383 7 110763832.281 8  86149558.114 7        49.000          46.500
> 2018 04 26 22 27 30.0000000  0 20
E03  26238052.273 7  26238055.031 9 137881895.685 7 104306733.299 9        43.300          54.700
E07  25150489.188 7  25150492.352 9 132166714.693 7  99983235.927 9        46.400          56.200
E08  21567018.516 8  21567019.430 9 113335538.638 8  85737507.641 9        50.300          58.700
E26  23751191.555 7  23751194.563 9 124813361.143 7  94420479.123 9        46.300          54.400
G01  20475575.672 8  20475580.324 7  20475580.090 8  20475578.289 8 107599875.761 8  83844093.209 7  83844089.204 8  80350570.911 8        51.500          43.500          50.700          53.900
G03  20991103.297 8  20991107.254 7  20991107.395 8  20991107.211 8 110308996.307 8  85955071.983 7  85955086.979 8  82373618.816 8        50.200          42.700          49.400          52.200
G08  21452418.969 8  21452423.699 6  21452423.953 8  21452422.074 8 112733214.468 8  87844090.267 6  87844116.269 8  84183909.979 8        49.900          41.700          49.600          52.500
G11  19995939.813 7  19995940.504 6                                 105079487.961 7  81880040.316 6                                        46.800          40.100
G14  22331734.766 7  22331736.363 5                                 117354057.090 7  91444737.614 5                                        44.400          33.300
G18  20235209.922 7  20235212.746 6                                 106336746.820 7  82859812.954 6                                        47.500          40.500
G22  20469796.039 8  20469795.512 7                                 107569505.655 8  83820356.310 7                                        50.100          44.100
G23  24537549.203 7  24537548.598 3                                 128945887.897 7 100477155.938 3                                        42.100          22.900
G27  24495248.117 6  24495252.660 3  24495253.008 6  24495251.152 6 128723394.934 6 100303964.097 3 100303964.130 6  96124641.840 6        37.100          19.000          37.000          40.200
G28  23142731.820 7  23142733.492 4                                 121615878.159 7  94765633.681 4                                        43.400          27.200
G32  23421758.844 6  23421763.461 5  23421763.590 7  23421762.070 8 123082170.795 6  95908205.515 5  95908210.518 7  91912025.750 8        41.700          32.000          45.800          48.500
R04  22986329.859 7  22986331.973 7 123090745.337 7  95737252.349 7        43.500          44.400
R06  20246459.992 6                 108038983.287 6                        40.100
R19  23028991.906 5  23028990.668 5 123189548.32415  95814111.52915        30.100          34.400
R20  19624454.141 7  19624459.316 8 104940848.839 7  81620603.879 8        44.100          48.800
R21  20675045.844 8  20675048.746 7 110636496.517 8  86050519.201 7        49.100          46.300
> 2018 04 26 22 28 00.0000000  0 19
E03  26243604.617 7  26243607.238 9 137911073.602 7 104328806.193 9        44.200          54.800
E07  25128238.648 7  25128241.770 9 132049787.444 7  99894781.235 9        46.100          56.200
E08  21558716.531 8  21558717.082 9 113291910.037 8  85704502.899 9        49.900          58.800
E26  23731365.633 7  23731368.617 9 124709175.550 7  94341663.428 9        45.900          54.000
G01  20464298.391 8  20464303.184 7  20464302.848 8  20464301.148 9 107540612.527 8  83797914.075 7  83797910.078 8  80306315.912 9        51.800          43.800          50.300          54.200
G03  20973327.031 8  20973331.590 7  20973331.645 8  20973331.313 8 110215583.596 8  85882282.855 7  85882297.853 8  82303862.568 8        51.000          42.300          49.400          52.300
G08  21459345.680 8  21459350.297 6  21459350.613 8  21459348.789 8 112769613.851 8  87872453.425 6  87872479.427 8  84211091.336 8        49.600          41.800          49.800          52.000
G11  19986739.820 7  19986741.000 6                                 105031143.009 7  81842368.926 6                                        46.600          39.800
G14  22325342.273 7  22325343.359 5                                 117320462.521 7  91418560.039 5                                        44.600          32.400
G18  20232244.875 8  20232246.625 6                                 106321162.112 8  82847669.025 6                                        48.600          40.800
G22  20461425.906 8  20461425.391 7                                 107525519.565 8  83786081.441 7                                        49.500          44.100
G23  24510497.828 6  24510497.801 3                                 128803733.898 6 100366386.608 3                                        41.600          22.800
G27  24508709.063 6  24508713.453 2  24508712.445 6  24508711.652 6 128794128.318 6 100359081.042 2 100359081.040 6  96177462.260 6        36.900          17.800          36.500          40.200
G28  23137198.359 7  23137199.313 4                                 121586798.971 7  94742974.585 4                                        43.000          26.900
G32  23425138.586 6  23425143.051 5  23425143.238 7  23425141.660 8 123099932.510 6  95922045.806 5  95922050.809 7  91925289.365 8        41.300          31.400          45.900          48.800
R04  23001678.578 7  23001680.914 7 123172936.569 7  95801178.866 7        42.400          44.200
R06  20223065.164 6                 107914136.551 6                        40.400
R20  19620516.430 7  19620520.109 8 104919785.565 7  81604221.329 8        43.700          48.600
R21  20651296.656 8  20651298.914 7 110509408.655 8  85951673.101 7        49.000          45.900
> 2018 04 26 22 28 30.0000000  0 19
E03  26249194.688 7  26249197.117 9 137940447.551 7 104351027.384 9        43.600          54.500
E07  25106026.156 7  25106029.414 9 131933059.968 7  99806477.660 9        47.200          56.300
E08  21550486.648 8  21550487.387 9 113248661.929 8  85671785.994 9        49.700          58.800
E26  23711546.086 7  23711548.992 9 124605022.854 7  94262872.601 9        45.900          54.300
G01  20453066.695 8  20453071.672 7  20453071.371 8  20453069.695 8 107481591.700 8  83751923.821 7  83751919.817 8  80262241.918 8        51.600          43.900          50.300          53.700
G03  20955621.867 8  20955626.059 7  20955626.078 8  20955625.898 8 110122539.935 8  85809781.336 7  85809796.325 8  82234381.938 8        51.700          42.600          49.800          52.400
G08  21466343.789 8  21466348.535 6  21466348.824 8  21466346.969 8 112806390.053 8  87901110.202 6  87901136.204 8  84238554.084 8        50.300          41.400          50.000          51.900
G11  19977623.633 7  19977624.613 6                                 104983236.301 7  81805039.026 6                                        46.900          40.200
G14  22319048.516 7  22319050.715 5                                 117287391.651 7  91392790.538 5                                        45.100          33.300
G18  20229337.367 8  20229339.594 6                                 106305883.922 8  82835763.942 6                                        48.700          41.100
G22  20453124.719 8  20453124.660 7                                 107481898.920 8  83752091.326 7                                        49.700          44.200
G23  24483443.742 7  24483442.410 3                                 128661559.636 7 100255601.477 3                                        42.700          21.700
G27  24522181.781 5  24522185.801 2  24522185.141 5  24522185.820 6 128864926.167 5 100414248.172 2 100414248.182 5  96230330.784 6        35.800          15.600          32.400          39.500
G28  23131753.625 7  23131755.035 4                                 121558188.772 7  94720680.951 4                                        43.300          27.700
G32  23428605.453 6  23428610.324 5  23428610.129 7  23428608.875 8 123118151.378 6  95936242.335 5  95936247.335 7  91938894.382 8        41.600          32.200          46.300          48.400
R04  23017047.891 7  23017049.688 7 123255239.930 7  95865192.590 7        42.600          44.100
R06  20199768.063 6                 107789824.781 6                        39.200
R20  19616673.281 7  19616678.383 8 104899240.252 7  81588241.650 8        43.600          49.300
R21  20627591.609 8  20627593.734 7 110382556.539 8  85853010.346 7        49.300          46.300
> 2018 04 26 22 29 00.0000000  0 19
E03  26254820.953 7  26254823.301 9 137970014.568 7 104373394.645 9        44.000          54.500
E07  25083851.688 7  25083854.723 9 131816532.252 7  99718325.207 9        46.200          56.200
E08  21542328.969 8  21542329.441 9 113205792.721 8  85639355.722 9        51.000          58.700
E26  23691732.711 7  23691735.555 9 124500902.728 7  94184106.430 9        46.800          54.300
G01  20441881.320 8  20441886.023 7  20441885.691 8  20441883.871 8 107422812.556 8  83706121.896 7  83706117.900 8  80218348.407 8        51.600          43.400          50.700          53.900
G03  20937985.633 8  20937990.570 7  20937990.582 8  20937990.234 8 110029864.452 8  85737566.680 7  85737581.661 8  82165176.229 8        50.500          42.600          50.000          52.400
G08  21473413.141 8  21473417.832 6  21473418.145 8  21473416.266 8 112843539.515 8  87930057.820 6  87930083.830 8  84266295.565 8        50.300          41.400          50.100          52.300
G11  19968590.563 7  19968591.941 6                                 104935767.106 7  81768050.043 6                                        46.600          39.900
G14  22312854.875 7  22312856.605 5                                 117254843.362 7  91367428.251 5                                        44.200          33.500
G18  20226488.008 7  20226490.402 6                                 106290911.397 7  82824097.030 6                                        47.400          40.700
G22  20444893.492 8  20444892.738 7                                 107438641.326 8  83718384.117 7                                        49.100          44.200
G23  24456384.633 7  24456383.445 3                                 128519366.009 7 100144801.232 3                                        42.200          19.600
G27  24535665.961 5  24535668.238 2  24535667.727 5  24535668.313 6 128935785.286 5 100469463.095 2 100469463.137 5  96283245.108 6        32.000          13.900          31.000          38.400
G28  23126398.727 7  23126399.805 4                                 121530045.466 7  94698751.103 4                                        44.000          27.900
G32  23432159.516 6  23432163.594 5  23432163.074 7  23432161.734 8 123136824.328 6  95950792.691 5  95950797.680 7  91952838.466 8        41.300          31.900          45.700          49.000
R04  23032437.258 7  23032439.371 7 123337650.396 7  95929289.613 7        42.400          43.300
R06  20176573.047 6                 107666048.682 6                        39.400
R20  19612928.477 7  19612933.156 8 104879212.645 7  81572664.619 8        43.700          49.700
R21  20603931.039 8  20603933.254 7 110255941.889 8  85754532.298 7        49.300          46.000
> 2018 04 26 22 29 30.0000000  0 19
E03  26260484.406 7  26260486.910 9 137999776.792 7 104395909.569 9        42.300          54.400
E07  25061716.453 7  25061719.270 9 131700209.430 7  99630327.758 9        46.900          56.400
E08  21534243.945 8  21534244.477 9 113163305.832 8  85607214.681 9        50.600          58.800
E26  23671925.977 7  23671929.227 9 124396819.919 7  94105368.471 9        45.900          54.200
G01  20430742.711 8  20430748.000 7  20430747.473 8  20430745.848 8 107364279.398 8  83660511.652 7  83660507.641 8  80174638.590 8        51.300          43.600          50.800          53.800
G03  20920421.422 8  20920425.801 7  20920426.082 8  20920425.641 8 109937561.195 8  85665642.075 7  85665657.064 8  82096248.487 8        50.300          42.500          49.900          52.800
G08  21480553.914 8  21480558.859 6  21480559.242 8  21480557.527 8 112881064.733 8  87959298.256 6  87959324.265 8  84294317.652 8        50.400          41.400          49.600          51.900
G11  19959641.664 7  19959642.672 6                                 104888740.930 7  81731406.272 6                                        45.500          40.100
G14  22306761.813 7  22306763.129 5                                 117222821.489 7  91342476.160 5                                        44.500          32.900
G18  20223697.641 8  20223699.949 6                                 106276248.200 8  82812671.175 6                                        48.400          40.900
G22  20436731.594 8  20436730.922 7                                 107395750.108 8  83684962.385 7                                        48.600          44.400
G23  24429323.195 6  24429322.598 3                                 128377159.135 6 100033990.659 3                                        41.300          20.900
G27  24549163.648 5                  24549163.215 4  24549164.445 5 129006707.434 5                 100524727.002 4  96336206.498 5        33.700                          26.000          34.500
G28  23121132.406 7  23121134.051 4                                 121502371.965 7  94677187.360 4                                        43.100          27.300
G32  23435799.570 7  23435803.445 5  23435803.527 7  23435801.762 8 123155953.199 7  95965698.300 5  95965703.303 7  91967123.016 8        42.100          31.400          45.800          48.300
R04  23047847.641 6  23047848.840 7 123420168.187 6  95993470.108 7        41.500          43.100
R06  20153478.289 6                 107542813.784 6                        39.000
R20  19609280.422 7  19609285.539 8 104859707.617 7  81557494.034 8        43.700          49.800
R21  20580314.594 8  20580317.586 7 110129571.685 8  85656244.367 7        48.800          46.100
> 2018 04 26 22 30 00.0000000  0 19
E03  26266185.594 7  26266188.113 9 138029736.745 7 104418574.070 9        43.100          54.300
E07  25039620.766 7  25039623.801 9 131584096.872 7  99542489.374 9        46.500          56.200
E08  21526232.414 8  21526233.086 9 113121205.040 8  85575365.717 9        50.500          58.700
E26  23652128.141 7  23652131.055 9 124292779.493 7  94026662.588 9        46.100          54.400
G01  20419652.406 8  20419657.527 7  20419657.406 8  20419655.434 8 107305996.947 8  83615096.764 7  83615092.760 8  80131115.985 8        50.600          43.900          50.500          53.900
G03  20902928.172 8  20902932.566 7  20902932.906 8  20902932.465 8 109845634.713 8  85594011.061 7  85594026.057 8  82027602.108 8        50.000          42.500          49.700          52.700
G08  21487767.055 8  21487771.199 6  21487771.703 8  21487769.926 8 112918968.070 8  87988833.319 6  87988859.328 8  84322622.091 8        50.200          40.600          49.000          51.500
G11  19950778.055 7  19950779.289 6                                 104842162.210 7  81695111.174 6                                        47.800          40.500
G14  22300768.875 7  22300770.469 5                                 117191330.392 7  91317937.641 5                                        43.300          32.800
G18  20220967.305 8  20220969.688 6                                 106261898.466 8  82801489.552 6                                        49.100          40.200
G22  20428639.875 8  20428639.250 7                                 107353228.470 8  83651828.655 7                                        49.800          44.300
G23  24402260.625 6  24402260.563 3                                 128234946.085 6  99923175.312 3                                        40.600          20.100
G27  24562672.055 5                  24562675.945 4  24562673.883 5 129077694.665 5                 100580041.859 4  96389216.488 5        30.100                          29.100          33.400
G28  23115956.461 6  23115957.688 4                                 121475171.765 6  94655992.401 4                                        41.700          27.200
G32  23439526.891 6  23439531.145 5  23439530.895 7  23439529.461 8 123175540.210 6  95980960.925 5  95980965.921 7  91981749.696 8        41.700          31.200          46.000          48.600
R04  23063277.500 6  23063278.469 6 123502794.378 6  96057734.911 6        41.800          40.900
R06  20130486.820 6                 107420126.837 6                        38.600
R20  19605732.664 7  19605736.699 8 104840730.165 7  81542733.791 8        43.500          48.800
R21  20556746.648 8  20556749.652 7 110003453.304 8  85558152.321 7        49.500          46.000
> 2018 04 26 22 30 30.0000000  0 19
E03  26271926.625 7  26271928.891 9 138059905.888 7 104441396.822 9        43.200          54.200
E07  25017568.266 7  25017571.102 9 131468209.028 7  99454820.979 9        46.800          56.300
E08  21518296.789 8  21518297.426 9 113079503.145 8  85543818.517 9        50.300          58.700
E26  23632340.523 7  23632343.641 9 124188795.583 7  93947999.456 9        46.000          54.200
G01  20408611.734 8  20408616.695 7  20408616.160 8  20408614.660 8 107247978.910 8  83569887.906 7  83569883.909 8  80087790.835 8        51.000          44.300          50.700          53.800
G03  20885509.188 8  20885514.102 7  20885514.301 8  20885514.121 8 109754098.382 8  85522684.067 7  85522699.064 8  81959247.063 8        51.000          42.700          50.100          52.500
G08  21495053.438 8  21495057.949 6  21495058.414 8  21495056.500 8 112957260.837 8  88018671.824 6  88018697.833 8  84351217.333 8        50.000          40.800          49.500          51.800
G11  19942002.383 7  19942003.406 6                                 104796045.179 7  81659175.822 6                                        47.500          39.800
G14  22294879.266 7  22294880.859 5                                 117160382.526 7  91293822.435 5                                        43.800          32.700
G18  20218298.234 7  20218301.004 6                                 106247875.273 7  82790562.387 6                                        47.500          41.000
G22  20420620.750 8  20420620.352 7                                 107311088.383 8  83618992.228 7                                        48.800          44.600
G23  24375200.641 6  24375200.234 3                                 128092741.992 6  99812366.924 3                                        39.900          20.400
G27  24576191.805 4                  24576195.684 4  24576196.914 5 129148758.387 4                 100635416.224 4  96442283.443 5        26.400                          29.000          30.500
G28  23110872.461 6  23110873.781 4                                 121448456.352 6  94635175.190 4                                        41.300          26.500
G32  23443342.969 6  23443347.676 5  23443347.684 7  23443345.992 8 123195596.718 6  95996589.361 5  95996594.350 7  91996726.952 8        41.600          32.300          45.300          48.000
R04  23078728.000 6  23078730.508 6 123585538.735 6  96122091.606 6        37.900          41.500
R06  20107600.313 6                 107298003.294 6                        38.700
R20  19602283.836 7  19602288.891 8 104822294.841 7  81528395.198 8        44.100          49.600
R21  20533228.773 8  20533231.219 7 109877602.974 8  85460268.734 7        49.400          46.100
> 2018 04 26 22 31 00.0000000  0 18
E03  26277708.359 7  26277710.902 9 138090289.116 7 104464381.533 9        42.400          54.100
E07  24995559.766 7  24995562.578 9 131352553.688 7  99367328.467 9        46.700          56.300
E08  21510438.297 8  21510438.891 9 113038206.241 8  85512577.685 9        50.500          58.800
E26  23612565.289 7  23612568.078 9 124084875.654 7  93869384.722 9        46.500          54.200
G01  20397622.891 8  20397628.203 7  20397627.762 8  20397626.227 9 107190232.351 8  83524890.593 7  83524886.596 8  80044668.415 9        51.400          43.900          50.800          54.000
G03  20868166.172 8  20868170.699 7  20868170.828 8  20868170.543 8 109662959.070 8  85451666.438 7  85451681.428 8  81891188.506 8        50.500          42.900          49.600          52.500
G08  21502416.047 8  21502420.379 6  21502420.727 8  21502418.813 8 112995947.592 8  88048817.354 6  88048843.355 8  84380106.800 8        50.200          40.500          49.900          51.800
G11  19933315.875 7  19933316.621 6                                 104750397.399 7  81623606.125 6                                        45.200          40.800
G14  22289095.047 7  22289096.785 5                                 117129984.312 7  91270135.510 5                                        43.500          32.400
G18  20215693.406 8  20215695.676 6                                 106234185.383 8  82779894.934 6                                        48.000          40.700
G22  20412675.570 8  20412674.523 7                                 107269335.398 8  83586457.442 7                                        48.600          44.200
G23  24348143.398 6  24348143.906 3                                 127950555.948 6  99701572.621 3                                        39.700          21.500
G28  23105882.375 7  23105884.051 4                                 121422231.302 7  94614740.085 4                                        42.700          26.700
G32  23447249.914 7  23447254.227 5  23447254.180 7  23447252.836 8 123216127.209 7  96012587.153 5  96012592.142 7  92012058.166 8        42.500          31.200          44.800          48.600
R04  23094201.352 6  23094204.883 6 123668404.691 6  96186542.918 6        37.900          40.400
R06  20084822.094 6                 107176451.655 6                        39.600
R20  19598939.883 7  19598944.629 8 104804409.074 7  81514484.041 8        43.600          49.000
R21  20509762.617 8  20509765.070 7 109752030.729 8  85362601.461 7        49.300          45.300
> 2018 04 26 22 31 30.0000000  0 18
E03  26283526.500 7  26283528.930 9 138120864.187 7 104487511.373 9        43.100          54.000
E07  24973591.766 7  24973594.617 9 131237111.537 7  99279997.242 9        47.200          56.200
E08  21502652.750 8  21502653.340 9 112997293.379 8  85481627.381 9        50.200          58.700
E26  23592798.672 7  23592801.242 9 123981000.113 7  93790803.573 9        46.500          54.300
G01  20386681.922 8  20386686.984 7  20386686.781 8  20386685.008 8 107132737.247 8  83480089.223 7  83480085.226 8  80001733.765 8        50.500          43.700          50.300          53.900
G03  20850894.609 8  20850899.266 7  20850899.426 8  20850898.930 8 109572196.477 8  85380942.348 7  85380957.345 8  81823411.255 8        50.200          42.900          50.300          52.800
G08  21509848.117 8  21509852.949 6  21509853.246 8  21509851.500 8 113035006.287 8  88079252.695 6  88079278.690 8  84409274.003 8        50.300          40.600          49.300          51.900
G11  19924714.484 7  19924715.832 6                                 104705199.023 7  81588386.624 6                                        45.300          40.400
G14  22283411.539 7  22283413.234 5                                 117100115.405 7  91246861.060 5                                        44.400          32.700
G18  20213147.867 8  20213150.516 6                                 106220808.029 8  82769471.019 6                                        48.200          40.400
G22  20404799.992 8  20404798.914 7                                 107227948.318 8  83554207.777 7                                        49.000          44.500
G23  24321085.195 6  24321086.609 3                                 127808369.642 6  99590778.139 3                                        38.800          20.900
G28  23100980.828 7  23100982.555 4                                 121396474.992 7  94594670.252 4                                        42.700          28.300
G32  23451243.305 7  23451247.195 5  23451247.398 7  23451245.570 8 123237109.205 7  96028936.765 5  96028941.761 7  92027726.547 8        42.000          30.500          44.800          49.200
R04  23109696.188 6  23109697.898 6 123751367.839 6  96251069.771 6        39.700          39.700
R06  20062147.703 6                 107055453.607 6                        39.300
R20  19595694.898 7  19595698.875 8 104787052.747 7  81500984.680 8        43.300          49.400
R21  20486344.492 8  20486347.160 7 109626718.637 8  85265136.517 7        48.600          46.400
> 2018 04 26 22 32 00.0000000  0 18
E03  26289381.273 7  26289383.844 8 138151632.148 7 104510787.129 8        42.400          53.700
E07  24951665.250 7  24951668.094 9 131121886.521 7  99192830.278 9        47.200          56.200
E08  21494940.969 8  21494941.441 9 112956766.814 8  85450969.303 9        50.200          58.800
E26  23573040.680 7  23573043.605 9 123877172.627 7  93712258.771 9        46.700          54.200
G01  20375789.688 8  20375794.324 7  20375793.969 8  20375792.289 9 107075496.836 8  83435486.313 7  83435482.310 8  79958989.314 9        50.000          44.300          50.900          54.400
G03  20833695.281 8  20833699.902 7  20833699.727 8  20833699.625 8 109481813.542 8  85310514.098 7  85310529.095 8  81755917.521 8        49.400          42.800          50.200          52.900
G08  21517351.898 8  21517356.816 6  21517356.969 8  21517355.191 8 113074438.068 8  88109978.758 6  88110004.761 8  84438719.818 8        50.000          40.600          49.300          51.700
G11  19916200.102 7  19916201.016 6                                 104660453.767 7  81553520.184 6                                        47.000          40.100
G14  22277828.422 7  22277830.410 5                                 117070778.232 7  91224000.931 5                                        43.800          32.900
G18  20210661.484 8  20210664.520 6                                 106207746.059 8  82759292.866 6                                        48.100          40.400
G22  20396994.258 8  20396993.422 7                                 107186928.904 8  83522244.602 7                                        49.000          43.900
G23  24294029.859 6  24294030.410 3                                 127666188.398 6  99479987.579 3                                        37.100          21.700
G28  23096169.375 7  23096171.105 4                                 121371189.576 7  94574967.328 4                                        42.800          26.900
G32  23455321.258 6  23455325.438 5  23455325.688 7  23455323.813 8 123258543.403 6  96045638.740 5  96045643.736 7  92043732.613 8        41.600          31.000          45.200          48.500
R04  23125205.813 6  23125208.410 6 123834427.487 6  96315671.693 6        38.600          39.400
R06  20039576.563 6                 106935013.120 6                        39.500
R20  19592548.195 7  19592552.137 8 104770229.514 7  81487899.932 8        44.400          49.400
R21  20462977.813 8  20462979.176 7 109501672.629 8  85167878.513 7        49.600          46.300
> 2018 04 26 22 32 30.0000000  0 18
E03  26295273.758 7  26295276.266 8 138182595.781 7 104534210.917 8        43.600          53.800
E07  24929780.859 7  24929783.633 9 131006884.312 7  99105831.852 9        47.400          56.200
E08  21487303.133 8  21487303.699 9 112916630.549 8  85420606.491 9        50.100          58.800
E26  23553293.328 7  23553295.871 9 123773398.593 7  93633754.411 9        46.600          54.300
G01  20364946.750 8  20364951.031 7  20364950.488 8  20364949.055 9 107018516.159 8  83391085.793 7  83391081.796 8  79916438.816 9        51.800          44.100          51.000          54.100
G03  20816569.039 8  20816573.402 7  20816573.574 8  20816573.359 8 109391814.991 8  85240385.369 7  85240400.365 8  81688710.820 8        50.500          42.700          49.700          52.700
G08  21524926.766 8  21524931.145 6  21524931.695 8  21524929.871 8 113114245.076 8  88140997.197 6  88141023.199 8  84468445.828 8        48.500          40.900          49.300          52.100
G11  19907772.359 7  19907773.414 6                                 104616167.031 7  81519011.038 6                                        47.100          40.400
G14  22272347.492 7  22272349.578 5                                 117041977.080 7  91201558.482 5                                        43.200          32.200
G18  20208237.281 8  20208239.895 6                                 106195003.794 8  82749363.827 6                                        48.400          40.700
G22  20389258.820 8  20389258.246 7                                 107146280.425 8  83490570.472 7                                        49.600          44.400
G23  24266974.805 6  24266976.336 3                                 127524019.194 6  99369206.355 3                                        38.100          21.700
G28  23091447.844 6  23091449.121 4                                 121346378.069 6  94555633.679 4                                        41.800          27.600
G32  23459486.516 6  23459490.918 5  23459491.301 7  23459489.762 8 123280432.288 6  96062695.028 5  96062700.021 7  92060078.219 8        41.400          30.200          44.700          48.400
R04  23140736.219 6  23140737.406 6 123917584.476 6  96380349.414 6        39.700          39.500
R06  20017112.078 6                 106815137.262 6                        39.800
R20  19589501.992 7  19589507.535 8 104753944.987 7  81475234.183 8        43.900          49.100
R21  20439660.109 8  20439662.848 7 109376900.378 8  85070833.447 7        49.300          45.800
> 2018 04 26 22 33 00.0000000  0 18
E03  26301199.297 7  26301202.102 8 138213737.193 7 104557769.188 8        43.000          53.500
E07  24907936.484 7  24907939.293 9 130892089.975 7  99018990.681 9        46.900          56.200
E08  21479736.750 8  21479737.184 9 112876867.931 8  85390526.334 9        50.200          58.700
E26  23533553.242 7  23533555.590 9 123669662.805 7  93555278.993 9        46.400          54.200
G01  20354149.531 8  20354154.758 7  20354154.367 8  20354152.781 9 106961779.532 8  83346875.439 7  83346871.436 8  79874070.560 9        49.900          43.700          50.900          54.100
G03  20799513.406 8  20799517.754 7  20799517.941 8  20799517.652 8 109302184.820 8  85170543.689 7  85170558.679 8  81621779.219 8        49.600          42.500          49.200          52.900
G08  21532569.914 8  21532574.566 6  21532574.938 8  21532573.176 8 113154409.424 8  88172294.097 6  88172320.091 8  84498438.683 8        49.600          40.600          48.300          51.900
G11  19899429.320 7  19899430.121 6                                 104572323.286 7  81484847.087 6                                        47.300          40.900
G14  22266966.141 7  22266967.570 5                                 117013695.450 7  91179520.863 5                                        43.600          32.700
G18  20205870.195 8  20205872.906 6                                 106182565.116 8  82739671.350 6                                        48.200          40.300
G22  20381591.305 8  20381590.402 7                                 107105986.295 8  83459172.453 7                                        50.200          44.100
G23  24239922.969 6  24239921.445 3                                 127381847.757 6  99258423.475 3                                        40.400          22.800
G28  23086813.688 7  23086814.633 4                                 121322023.362 7  94536656.010 4                                        42.200          28.900
G32  23463734.859 6  23463739.422 5  23463739.457 7  23463738.090 8 123302757.664 6  96080091.416 5  96080096.415 7  92076749.772 8        41.300          30.800          44.700          48.700
R04  23156279.906 6  23156280.926 6 124000819.463 6  96445087.705 6        41.700          40.400
R06  19994750.539 6                 106695811.776 6                        39.000
R20  19586555.133 7  19586560.250 8 104738183.369 7  81462975.143 8        43.800          49.500
R21  20416392.383 8  20416394.734 7 109252388.532 8  84973990.910 7        49.000          45.800
> 2018 04 26 22 33 30.0000000  0 18
E03  26307157.555 7  26307160.023 8 138245047.148 7 104581454.967 8        43.000          53.400
E07  24886129.719 7  24886132.746 9 130777497.125 7  98932301.943 9        47.400          56.200
E08  21472239.531 8  21472240.176 9 112837470.935 8  85360722.772 9        50.600          58.700
E26  23513818.367 7  23513821.453 9 123565958.624 7  93476827.467 9        46.000          54.200
G01  20343398.219 8  20343402.926 7  20343402.633 8  20343401.066 9 106905279.909 8  83302849.765 7  83302845.761 8  79831879.292 9        49.800          43.900          50.600          54.200
G03  20782525.922 8  20782530.016 7  20782530.156 8  20782529.977 8 109212915.669 8  85100983.330 7  85100998.327 8  81555117.202 8        49.300          43.400          50.200          53.100
G08  21540279.102 8  21540283.434 6  21540283.703 8  21540282.219 8 113194921.884 8  88203862.248 6  88203888.257 8  84528691.502 8        50.200          40.800          48.600          52.300
G11  19891169.477 7  19891170.172 6                                 104528915.939 7  81451023.186 6                                        45.300          39.900
G14  22261681.461 7  22261682.773 5                                 116985925.786 7  91157882.163 5                                        44.600          32.600
G18  20203559.859 7  20203562.086 6                                 106170422.576 7  82730209.631 6                                        47.900          40.500
G22  20373989.148 8  20373988.410 7                                 107066037.401 8  83428043.452 7                                        49.000          44.600
G23  24212865.602 6  24212865.855 4                                 127239669.352 6  99147635.150 4                                        40.200          24.400
G28  23082264.047 7  23082265.125 4                                 121298116.395 7  94518027.207 4                                        42.300          28.600
G32  23468065.070 7  23468068.668 5  23468068.891 7  23468067.570 8 123325509.884 7  96097820.435 5  96097825.423 7  92093740.077 8        42.000          31.000          44.700          48.800
R04  23171836.281 7  23171836.633 6 124084120.985 7  96509877.826 6        42.900          38.900
R06  19972491.242 6                 106577030.815 6                        38.400
R20  19583703.828 7  19583708.887 8 104722937.643 7  81451117.353 8        43.500          49.300
R21  20393172.156 8  20393174.348 7 109128132.540 8  84877347.379 7        48.800          46.300
> 2018 04 26 22 34 00.0000000  0 18
E03  26313147.305 7  26313149.875 8 138276523.736 7 104605266.788 8        43.500          53.300
E07  24864362.367 7  24864364.941 9 130663106.699 7  98845766.339 9        47.100          56.100
E08  21464812.188 8  21464812.645 9 112798438.771 8  85331195.201 9        50.500          58.700
E26  23494090.688 7  23494093.207 9 123462286.772 7  93398400.406 9        46.700          54.400
G01  20332691.852 8  20332696.824 7  20332696.578 8  20332694.848 9 106849017.566 8  83259008.984 7  83259004.987 8  79789865.214 9        50.800          44.400          50.600          54.200
G03  20765606.859 8  20765611.223 7  20765611.309 8  20765611.180 8 109124007.498 8  85031704.237 7  85031719.234 8  81488724.748 8        51.000          42.700          49.900          53.000
G08  21548054.047 8  21548058.340 6  21548058.500 8  21548057.125 8 113235780.066 8  88235699.797 6  88235725.799 8  84559202.477 8        50.400          40.600          48.800          52.200
G11  19882992.016 7  19882993.066 6                                 104485945.708 7  81417539.889 6                                        45.400          40.400
G14  22256494.641 7  22256496.355 5                                 116958667.479 7  91136641.939 5                                        43.700          33.100
G18  20201305.766 8  20201308.074 6                                 106158575.698 8  82720978.292 6                                        48.900          40.900
G22  20366452.586 8  20366451.715 7                                 107026432.666 8  83397182.628 7                                        49.200          44.200
G23  24185810.063 6  24185809.902 4                                 127097485.830 6  99036842.804 4                                        40.000          27.600
G28  23077800.078 6  23077800.688 4                                 121274655.962 6  94499746.356 4                                        41.300          27.000
G32  23472475.219 6  23472479.414 5  23472479.441 7  23472478.492 8 123348686.685 6  96115880.281 5  96115885.284 7  92111047.426 8        41.600          30.200          44.500          48.600
R04  23187403.563 7  23187406.023 6 124167485.353 7  96574716.782 6        42.400          41.500
R06  19950334.664 6                 106458795.979 6                        38.700
R20  19580949.594 7  19580954.023 8 104708208.329 7  81439661.213 8        43.400          48.900
R21  20370000.023 8  20370002.477 7 109004135.069 8  84780904.917 7        49.100          46.700
